[{"stationcode": "12022", "name": "Sahel - G\u00e9n\u00e9ral Michel Bizot", "is_installed": "OUI", "capacity": 33, "numdocksavailable": 22, "numbikesavailable": 11, "mechanical": 5, "ebike": 6, "is_renting": "OUI", "is_returning": "OUI", "duedate": "2024-06-14T13:46:59+00:00", "coordonnees_geo": {"lon": 2.4044444784522057, "lat": 48.840872964793355}, "nom_arrondissement_communes": "Paris", "code_insee_commune": null}, {"stationcode": "15027", "name": "Duhamel - Andr\u00e9 Gide", "is_installed": "OUI", "capacity": 20, "numdocksavailable": 19, "numbikesavailable": 1, "mechanical": 0, "ebike": 1, "is_renting": "OUI", "is_returning": "OUI", "duedate": "2024-06-14T13:42:33+00:00", "coordonnees_geo": {"lon": 2.312707121097412, "lat": 48.8365662244334}, "nom_arrondissement_communes": "Paris", "code_insee_commune": null}, {"stationcode": "21023", "name": "Ancienne Mairie - Andr\u00e9 Morizet", "is_installed": "OUI", "capacity": 25, "numdocksavailable": 15, "numbikesavailable": 10, "mechanical": 8, "ebike": 2, "is_renting": "OUI", "is_returning": "OUI", "duedate": "2024-06-14T13:45:43+00:00", "coordonnees_geo": {"lon": 2.234077, "lat": 48.838311}, "nom_arrondissement_communes": "Boulogne-Billancourt", "code_insee_commune": null}, {"stationcode": "31105", "name": "Lavoisier - Missak Manouchian", "is_installed": "OUI", "capacity": 18, "numdocksavailable": 8, "numbikesavailable": 8, "mechanical": 5, "ebike": 3, "is_renting": "OUI", "is_returning": "OUI", "duedate": "2024-06-14T13:46:06+00:00", "coordonnees_geo": {"lon": 2.495676465332508, "lat": 48.86286468896063}, "nom_arrondissement_communes": "Rosny-sous-Bois", "code_insee_commune": null}, {"stationcode": "17110", "name": "Legendre - Nollet", "is_installed": "OUI", "capacity": 30, "numdocksavailable": 28, "numbikesavailable": 1, "mechanical": 0, "ebike": 1, "is_renting": "OUI", "is_returning": "OUI", "duedate": "2024-06-14T13:48:19+00:00", "coordonnees_geo": {"lon": 2.320293079881375, "lat": 48.887742186754224}, "nom_arrondissement_communes": "Paris", "code_insee_commune": null}, {"stationcode": "31701", "name": "Mairie de Bagnolet", "is_installed": "OUI", "capacity": 28, "numdocksavailable": 22, "numbikesavailable": 4, "mechanical": 1, "ebike": 3, "is_renting": "OUI", "is_returning": "OUI", "duedate": "2024-06-14T13:49:46+00:00", "coordonnees_geo": {"lon": 2.4179587885737, "lat": 48.868421318555}, "nom_arrondissement_communes": "Bagnolet", "code_insee_commune": null}, {"stationcode": "22404", "name": "Pierre Brossolette - 12 F\u00e9vrier 1934", "is_installed": "OUI", "capacity": 25, "numdocksavailable": 24, "numbikesavailable": 1, "mechanical": 1, "ebike": 0, "is_renting": "OUI", "is_returning": "OUI", "duedate": "2024-06-14T13:48:36+00:00", "coordonnees_geo": {"lon": 2.3076123744249344, "lat": 48.8176962416867}, "nom_arrondissement_communes": "Malakoff", "code_insee_commune": null}, {"stationcode": "20110", "name": "Gambetta - Tourelles", "is_installed": "OUI", "capacity": 20, "numdocksavailable": 18, "numbikesavailable": 1, "mechanical": 1, "ebike": 0, "is_renting": "OUI", "is_returning": "OUI", "duedate": "2024-06-14T13:47:27+00:00", "coordonnees_geo": {"lon": 2.4059921130538, "lat": 48.875337902264}, "nom_arrondissement_communes": "Paris", "code_insee_commune": null}, {"stationcode": "20014", "name": "Charonne - Alexandre Dumas", "is_installed": "OUI", "capacity": 35, "numdocksavailable": 33, "numbikesavailable": 2, "mechanical": 2, "ebike": 0, "is_renting": "OUI", "is_returning": "OUI", "duedate": "2024-06-14T13:50:00+00:00", "coordonnees_geo": {"lon": 2.3948693275452, "lat": 48.856077415056}, "nom_arrondissement_communes": "Paris", "code_insee_commune": null}, {"stationcode": "18101", "name": "Championnet.", "is_installed": "OUI", "capacity": 22, "numdocksavailable": 20, "numbikesavailable": 0, "mechanical": 0, "ebike": 0, "is_renting": "OUI", "is_returning": "OUI", "duedate": "2024-06-14T13:49:01+00:00", "coordonnees_geo": {"lon": 2.3498166, "lat": 48.8953643}, "nom_arrondissement_communes": "Paris", "code_insee_commune": null}, {"stationcode": "6028", "name": "Quatre Vents - Carrefour de l'Od\u00e9on", "is_installed": "OUI", "capacity": 37, "numdocksavailable": 0, "numbikesavailable": 35, "mechanical": 20, "ebike": 15, "is_renting": "OUI", "is_returning": "OUI", "duedate": "2024-06-14T13:49:59+00:00", "coordonnees_geo": {"lon": 2.338161695134053, "lat": 48.851751374458864}, "nom_arrondissement_communes": "Paris", "code_insee_commune": null}, {"stationcode": "20005", "name": "Reynaldo Hahn - Lagny", "is_installed": "OUI", "capacity": 19, "numdocksavailable": 7, "numbikesavailable": 11, "mechanical": 10, "ebike": 1, "is_renting": "OUI", "is_returning": "OUI", "duedate": "2024-06-14T13:48:46+00:00", "coordonnees_geo": {"lon": 2.412330328844772, "lat": 48.849266043601794}, "nom_arrondissement_communes": "Paris", "code_insee_commune": null}, {"stationcode": "21207", "name": "Verdier - R\u00e9publique", "is_installed": "OUI", "capacity": 29, "numdocksavailable": 28, "numbikesavailable": 1, "mechanical": 0, "ebike": 1, "is_renting": "OUI", "is_returning": "OUI", "duedate": "2024-06-14T13:48:20+00:00", "coordonnees_geo": {"lon": 2.31739372015, "lat": 48.815403766277}, "nom_arrondissement_communes": "Montrouge", "code_insee_commune": null}, {"stationcode": "10031", "name": "Louis Blanc - Aqueduc", "is_installed": "OUI", "capacity": 37, "numdocksavailable": 34, "numbikesavailable": 2, "mechanical": 2, "ebike": 0, "is_renting": "OUI", "is_returning": "OUI", "duedate": "2024-06-14T13:48:58+00:00", "coordonnees_geo": {"lon": 2.3635615780949593, "lat": 48.88203018259946}, "nom_arrondissement_communes": "Paris", "code_insee_commune": null}, {"stationcode": "11016", "name": "Philippe-Auguste", "is_installed": "OUI", "capacity": 48, "numdocksavailable": 43, "numbikesavailable": 5, "mechanical": 1, "ebike": 4, "is_renting": "OUI", "is_returning": "OUI", "duedate": "2024-06-14T13:47:11+00:00", "coordonnees_geo": {"lon": 2.3932945355773, "lat": 48.851853488265}, "nom_arrondissement_communes": "Paris", "code_insee_commune": null}, {"stationcode": "12122", "name": "Bois de Vincennes - Polygone", "is_installed": "OUI", "capacity": 51, "numdocksavailable": 45, "numbikesavailable": 6, "mechanical": 2, "ebike": 4, "is_renting": "OUI", "is_returning": "OUI", "duedate": "2024-06-14T13:48:26+00:00", "coordonnees_geo": {"lon": 2.431421081436563, "lat": 48.83544491617421}, "nom_arrondissement_communes": "Paris", "code_insee_commune": null}, {"stationcode": "16023", "name": "Passy - Place du Costa Rica", "is_installed": "OUI", "capacity": 33, "numdocksavailable": 28, "numbikesavailable": 3, "mechanical": 0, "ebike": 3, "is_renting": "OUI", "is_returning": "OUI", "duedate": "2024-06-14T13:49:50+00:00", "coordonnees_geo": {"lon": 2.2839655, "lat": 48.8584893}, "nom_arrondissement_communes": "Paris", "code_insee_commune": null}, {"stationcode": "6004", "name": "Regard - Rennes", "is_installed": "OUI", "capacity": 46, "numdocksavailable": 16, "numbikesavailable": 28, "mechanical": 20, "ebike": 8, "is_renting": "OUI", "is_returning": "OUI", "duedate": "2024-06-14T13:49:31+00:00", "coordonnees_geo": {"lon": 2.3268555477262, "lat": 48.847385404956}, "nom_arrondissement_communes": "Paris", "code_insee_commune": null}, {"stationcode": "15114", "name": "Pasteur - Cotentin", "is_installed": "OUI", "capacity": 33, "numdocksavailable": 14, "numbikesavailable": 17, "mechanical": 4, "ebike": 13, "is_renting": "OUI", "is_returning": "OUI", "duedate": "2024-06-14T13:49:45+00:00", "coordonnees_geo": {"lon": 2.316356, "lat": 48.8389284}, "nom_arrondissement_communes": "Paris", "code_insee_commune": null}, {"stationcode": "19014", "name": "Lorraine - Jean Jaur\u00e8s", "is_installed": "OUI", "capacity": 19, "numdocksavailable": 17, "numbikesavailable": 1, "mechanical": 1, "ebike": 0, "is_renting": "OUI", "is_returning": "OUI", "duedate": "2024-06-14T13:49:04+00:00", "coordonnees_geo": {"lon": 2.3825772, "lat": 48.8863865}, "nom_arrondissement_communes": "Paris", "code_insee_commune": null}, {"stationcode": "15014", "name": "Volontaires - Vaugirard", "is_installed": "OUI", "capacity": 34, "numdocksavailable": 13, "numbikesavailable": 20, "mechanical": 13, "ebike": 7, "is_renting": "OUI", "is_returning": "OUI", "duedate": "2024-06-14T13:48:20+00:00", "coordonnees_geo": {"lon": 2.30808901725357, "lat": 48.84132050184004}, "nom_arrondissement_communes": "Paris", "code_insee_commune": null}, {"stationcode": "21027", "name": "Fief - R\u00e9publique", "is_installed": "OUI", "capacity": 25, "numdocksavailable": 1, "numbikesavailable": 24, "mechanical": 21, "ebike": 3, "is_renting": "OUI", "is_returning": "OUI", "duedate": "2024-06-14T13:49:31+00:00", "coordonnees_geo": {"lon": 2.255771979689598, "lat": 48.83170888166024}, "nom_arrondissement_communes": "Boulogne-Billancourt", "code_insee_commune": null}, {"stationcode": "15113", "name": "Arsonval - Falgui\u00e8re", "is_installed": "OUI", "capacity": 25, "numdocksavailable": 20, "numbikesavailable": 5, "mechanical": 2, "ebike": 3, "is_renting": "OUI", "is_returning": "OUI", "duedate": "2024-06-14T13:41:39+00:00", "coordonnees_geo": {"lon": 2.313117867297474, "lat": 48.84040040365445}, "nom_arrondissement_communes": "Paris", "code_insee_commune": null}, {"stationcode": "19001", "name": "Crim\u00e9e - Ourcq", "is_installed": "OUI", "capacity": 56, "numdocksavailable": 45, "numbikesavailable": 10, "mechanical": 5, "ebike": 5, "is_renting": "OUI", "is_returning": "OUI", "duedate": "2024-06-14T13:49:21+00:00", "coordonnees_geo": {"lon": 2.3729460884673, "lat": 48.894104140316}, "nom_arrondissement_communes": "Paris", "code_insee_commune": null}, {"stationcode": "19007", "name": "Flandre - Ourcq", "is_installed": "OUI", "capacity": 30, "numdocksavailable": 22, "numbikesavailable": 7, "mechanical": 1, "ebike": 6, "is_renting": "OUI", "is_returning": "OUI", "duedate": "2024-06-14T13:46:14+00:00", "coordonnees_geo": {"lon": 2.3790915682911873, "lat": 48.89260159189023}, "nom_arrondissement_communes": "Paris", "code_insee_commune": null}, {"stationcode": "21016", "name": "Point du Jour - Jean Jaur\u00e8s", "is_installed": "OUI", "capacity": 40, "numdocksavailable": 21, "numbikesavailable": 19, "mechanical": 12, "ebike": 7, "is_renting": "OUI", "is_returning": "OUI", "duedate": "2024-06-14T13:49:58+00:00", "coordonnees_geo": {"lon": 2.245911467014621, "lat": 48.828753141436465}, "nom_arrondissement_communes": "Boulogne-Billancourt", "code_insee_commune": null}, {"stationcode": "5105", "name": "Geoffroy-Saint-Hilaire - Saint-Marcel", "is_installed": "OUI", "capacity": 17, "numdocksavailable": 5, "numbikesavailable": 11, "mechanical": 7, "ebike": 4, "is_renting": "OUI", "is_returning": "OUI", "duedate": "2024-06-14T13:45:54+00:00", "coordonnees_geo": {"lon": 2.356877340669728, "lat": 48.83907826424974}, "nom_arrondissement_communes": "Paris", "code_insee_commune": null}, {"stationcode": "11018", "name": "Saint-Maur - R\u00e9publique", "is_installed": "OUI", "capacity": 38, "numdocksavailable": 26, "numbikesavailable": 10, "mechanical": 5, "ebike": 5, "is_renting": "OUI", "is_returning": "OUI", "duedate": "2024-06-14T13:49:28+00:00", "coordonnees_geo": {"lon": 2.3783174157143, "lat": 48.864185861455}, "nom_arrondissement_communes": "Paris", "code_insee_commune": null}, {"stationcode": "13013", "name": "Saint-Marcel - H\u00f4pital", "is_installed": "OUI", "capacity": 21, "numdocksavailable": 7, "numbikesavailable": 12, "mechanical": 9, "ebike": 3, "is_renting": "OUI", "is_returning": "OUI", "duedate": "2024-06-14T13:49:57+00:00", "coordonnees_geo": {"lon": 2.360989417022932, "lat": 48.83950442458303}, "nom_arrondissement_communes": "Paris", "code_insee_commune": null}, {"stationcode": "19123", "name": "Metz - Marne", "is_installed": "OUI", "capacity": 33, "numdocksavailable": 29, "numbikesavailable": 3, "mechanical": 2, "ebike": 1, "is_renting": "OUI", "is_returning": "OUI", "duedate": "2024-06-14T13:49:32+00:00", "coordonnees_geo": {"lon": 2.3865705, "lat": 48.891163}, "nom_arrondissement_communes": "Paris", "code_insee_commune": null}, {"stationcode": "22007", "name": "Commandant Charcot - Bretteville", "is_installed": "OUI", "capacity": 36, "numdocksavailable": 16, "numbikesavailable": 20, "mechanical": 6, "ebike": 14, "is_renting": "OUI", "is_returning": "OUI", "duedate": "2024-06-14T13:47:52+00:00", "coordonnees_geo": {"lon": 2.2558460757136345, "lat": 48.87530570765423}, "nom_arrondissement_communes": "Neuilly-sur-Seine", "code_insee_commune": null}, {"stationcode": "5031", "name": "Lac\u00e9p\u00e8de - Linn\u00e9", "is_installed": "OUI", "capacity": 54, "numdocksavailable": 26, "numbikesavailable": 27, "mechanical": 16, "ebike": 11, "is_renting": "OUI", "is_returning": "OUI", "duedate": "2024-06-14T13:49:39+00:00", "coordonnees_geo": {"lon": 2.354651279747486, "lat": 48.8437035476636}, "nom_arrondissement_communes": "Paris", "code_insee_commune": null}, {"stationcode": "12017", "name": "Saint-Mand\u00e9 - Docteur Arnold Netter", "is_installed": "OUI", "capacity": 39, "numdocksavailable": 34, "numbikesavailable": 4, "mechanical": 3, "ebike": 1, "is_renting": "OUI", "is_returning": "OUI", "duedate": "2024-06-14T13:49:33+00:00", "coordonnees_geo": {"lon": 2.404946386814118, "lat": 48.84462585769668}, "nom_arrondissement_communes": "Paris", "code_insee_commune": null}, {"stationcode": "14025", "name": "Jacquier - Didot", "is_installed": "OUI", "capacity": 30, "numdocksavailable": 28, "numbikesavailable": 0, "mechanical": 0, "ebike": 0, "is_renting": "OUI", "is_returning": "OUI", "duedate": "2024-06-14T13:46:06+00:00", "coordonnees_geo": {"lon": 2.318179272115231, "lat": 48.82953336292279}, "nom_arrondissement_communes": "Paris", "code_insee_commune": null}, {"stationcode": "42027", "name": "Verdun - Pierre et Marie Curie", "is_installed": "OUI", "capacity": 26, "numdocksavailable": 22, "numbikesavailable": 4, "mechanical": 2, "ebike": 2, "is_renting": "OUI", "is_returning": "OUI", "duedate": "2024-06-14T13:47:13+00:00", "coordonnees_geo": {"lon": 2.3707106709480286, "lat": 48.812822398263286}, "nom_arrondissement_communes": "Ivry-sur-Seine", "code_insee_commune": null}, {"stationcode": "16104", "name": "Paul Valery - Victor Hugo", "is_installed": "OUI", "capacity": 35, "numdocksavailable": 27, "numbikesavailable": 8, "mechanical": 3, "ebike": 5, "is_renting": "OUI", "is_returning": "OUI", "duedate": "2024-06-14T13:48:02+00:00", "coordonnees_geo": {"lon": 2.2887128591537476, "lat": 48.87137406080164}, "nom_arrondissement_communes": "Paris", "code_insee_commune": null}, {"stationcode": "20033", "name": "Etienne Dolet - Place Maurice Chevalier", "is_installed": "OUI", "capacity": 33, "numdocksavailable": 30, "numbikesavailable": 3, "mechanical": 0, "ebike": 3, "is_renting": "OUI", "is_returning": "OUI", "duedate": "2024-06-14T13:47:49+00:00", "coordonnees_geo": {"lon": 2.3851405311143026, "lat": 48.86798303359366}, "nom_arrondissement_communes": "Paris", "code_insee_commune": null}, {"stationcode": "11040", "name": "Temple - Jean-Pierre Timbaud", "is_installed": "OUI", "capacity": 36, "numdocksavailable": 8, "numbikesavailable": 26, "mechanical": 24, "ebike": 2, "is_renting": "OUI", "is_returning": "OUI", "duedate": "2024-06-14T13:48:42+00:00", "coordonnees_geo": {"lon": 2.3660597205162, "lat": 48.86446597201}, "nom_arrondissement_communes": "Paris", "code_insee_commune": null}, {"stationcode": "17036", "name": "Place Tristan Bernard", "is_installed": "OUI", "capacity": 28, "numdocksavailable": 16, "numbikesavailable": 9, "mechanical": 6, "ebike": 3, "is_renting": "OUI", "is_returning": "OUI", "duedate": "2024-06-14T13:45:40+00:00", "coordonnees_geo": {"lon": 2.2915423, "lat": 48.8794936}, "nom_arrondissement_communes": "Paris", "code_insee_commune": null}, {"stationcode": "11038", "name": "Temple - Charlot", "is_installed": "OUI", "capacity": 45, "numdocksavailable": 7, "numbikesavailable": 36, "mechanical": 27, "ebike": 9, "is_renting": "OUI", "is_returning": "OUI", "duedate": "2024-06-14T13:48:42+00:00", "coordonnees_geo": {"lon": 2.3652737250724, "lat": 48.865709343796}, "nom_arrondissement_communes": "Paris", "code_insee_commune": null}, {"stationcode": "21033", "name": "S\u00e8vres - Mar\u00e9chal Juin", "is_installed": "OUI", "capacity": 18, "numdocksavailable": 12, "numbikesavailable": 5, "mechanical": 4, "ebike": 1, "is_renting": "OUI", "is_returning": "OUI", "duedate": "2024-06-14T13:49:22+00:00", "coordonnees_geo": {"lon": 2.2292812, "lat": 48.8324305}, "nom_arrondissement_communes": "Boulogne-Billancourt", "code_insee_commune": null}, {"stationcode": "22703", "name": "Place Jean Mermoz", "is_installed": "OUI", "capacity": 30, "numdocksavailable": 16, "numbikesavailable": 14, "mechanical": 12, "ebike": 2, "is_renting": "OUI", "is_returning": "OUI", "duedate": "2024-06-14T13:48:43+00:00", "coordonnees_geo": {"lon": 2.2718348, "lat": 48.9220937}, "nom_arrondissement_communes": "Bois-Colombes", "code_insee_commune": null}, {"stationcode": "8003", "name": "Galil\u00e9e - Vernet", "is_installed": "OUI", "capacity": 17, "numdocksavailable": 4, "numbikesavailable": 12, "mechanical": 1, "ebike": 11, "is_renting": "OUI", "is_returning": "OUI", "duedate": "2024-06-14T13:48:50+00:00", "coordonnees_geo": {"lon": 2.2985444962978, "lat": 48.871715878697}, "nom_arrondissement_communes": "Paris", "code_insee_commune": null}, {"stationcode": "20030", "name": "M\u00e9nilmontant - P\u00e8re Lachaise", "is_installed": "OUI", "capacity": 41, "numdocksavailable": 31, "numbikesavailable": 7, "mechanical": 1, "ebike": 6, "is_renting": "OUI", "is_returning": "OUI", "duedate": "2024-06-14T13:50:02+00:00", "coordonnees_geo": {"lon": 2.3869940266013, "lat": 48.863287291502}, "nom_arrondissement_communes": "Paris", "code_insee_commune": null}, {"stationcode": "20035", "name": "Pyr\u00e9n\u00e9es - M\u00e9nilmontant", "is_installed": "OUI", "capacity": 26, "numdocksavailable": 25, "numbikesavailable": 1, "mechanical": 0, "ebike": 1, "is_renting": "OUI", "is_returning": "OUI", "duedate": "2024-06-14T13:45:34+00:00", "coordonnees_geo": {"lon": 2.395084574818611, "lat": 48.8693268535238}, "nom_arrondissement_communes": "Paris", "code_insee_commune": null}, {"stationcode": "26010", "name": "Louis Armand - Bernard Palissy", "is_installed": "NON", "capacity": 0, "numdocksavailable": 0, "numbikesavailable": 0, "mechanical": 0, "ebike": 0, "is_renting": "NON", "is_returning": "NON", "duedate": "2024-05-31T15:07:53+00:00", "coordonnees_geo": {"lon": 2.3126153582229, "lat": 48.91690215253}, "nom_arrondissement_communes": "Asni\u00e8res-sur-Seine", "code_insee_commune": null}, {"stationcode": "15032", "name": "F\u00e9lix Faure - Lourmel", "is_installed": "OUI", "capacity": 58, "numdocksavailable": 8, "numbikesavailable": 49, "mechanical": 47, "ebike": 2, "is_renting": "OUI", "is_returning": "OUI", "duedate": "2024-06-14T13:50:06+00:00", "coordonnees_geo": {"lon": 2.2818081825971603, "lat": 48.83868901709515}, "nom_arrondissement_communes": "Paris", "code_insee_commune": null}, {"stationcode": "20037", "name": "Gambetta - Saint Fargeau", "is_installed": "OUI", "capacity": 24, "numdocksavailable": 22, "numbikesavailable": 2, "mechanical": 0, "ebike": 2, "is_renting": "OUI", "is_returning": "OUI", "duedate": "2024-06-14T13:44:35+00:00", "coordonnees_geo": {"lon": 2.4039056897163396, "lat": 48.871244610447015}, "nom_arrondissement_communes": "Paris", "code_insee_commune": null}, {"stationcode": "23106", "name": "Pav\u00e9 des Gardes - Charles Vaillant", "is_installed": "OUI", "capacity": 20, "numdocksavailable": 19, "numbikesavailable": 1, "mechanical": 0, "ebike": 1, "is_renting": "OUI", "is_returning": "OUI", "duedate": "2024-06-14T13:41:05+00:00", "coordonnees_geo": {"lon": 2.2111820107205, "lat": 48.81168551728}, "nom_arrondissement_communes": "S\u00e8vres", "code_insee_commune": null}, {"stationcode": "9029", "name": "Saint-Lazare - Place d'Estienne d'Orves", "is_installed": "OUI", "capacity": 39, "numdocksavailable": 33, "numbikesavailable": 6, "mechanical": 3, "ebike": 3, "is_renting": "OUI", "is_returning": "OUI", "duedate": "2024-06-14T13:45:41+00:00", "coordonnees_geo": {"lon": 2.3329067, "lat": 48.8768345}, "nom_arrondissement_communes": "Paris", "code_insee_commune": null}, {"stationcode": "48011", "name": "Epi d'Or - Chevilly", "is_installed": "OUI", "capacity": 20, "numdocksavailable": 16, "numbikesavailable": 4, "mechanical": 0, "ebike": 4, "is_renting": "OUI", "is_returning": "OUI", "duedate": "2024-06-14T13:46:43+00:00", "coordonnees_geo": {"lon": 2.3549050362061, "lat": 48.781109786782}, "nom_arrondissement_communes": "Villejuif", "code_insee_commune": null}, {"stationcode": "41212", "name": "Nungesser - Sant\u00e9", "is_installed": "OUI", "capacity": 22, "numdocksavailable": 20, "numbikesavailable": 2, "mechanical": 1, "ebike": 1, "is_renting": "OUI", "is_returning": "OUI", "duedate": "2024-06-14T13:41:07+00:00", "coordonnees_geo": {"lon": 2.448967, "lat": 48.852335}, "nom_arrondissement_communes": "Fontenay-sous-Bois", "code_insee_commune": null}, {"stationcode": "34009", "name": "Dora Maar - Nadia Guendouz", "is_installed": "OUI", "capacity": 30, "numdocksavailable": 10, "numbikesavailable": 19, "mechanical": 15, "ebike": 4, "is_renting": "OUI", "is_returning": "OUI", "duedate": "2024-06-14T13:48:40+00:00", "coordonnees_geo": {"lon": 2.3220406472683, "lat": 48.905452421305}, "nom_arrondissement_communes": "Saint-Ouen-sur-Seine", "code_insee_commune": null}, {"stationcode": "22208", "name": "Stalingrad - Barbara", "is_installed": "OUI", "capacity": 20, "numdocksavailable": 20, "numbikesavailable": 0, "mechanical": 0, "ebike": 0, "is_renting": "OUI", "is_returning": "OUI", "duedate": "2024-06-14T13:44:39+00:00", "coordonnees_geo": {"lon": 2.3175904558822, "lat": 48.809223658808}, "nom_arrondissement_communes": "Bagneux", "code_insee_commune": null}, {"stationcode": "22209", "name": "Verdun - Henri Barbusse", "is_installed": "OUI", "capacity": 24, "numdocksavailable": 21, "numbikesavailable": 3, "mechanical": 0, "ebike": 3, "is_renting": "OUI", "is_returning": "OUI", "duedate": "2024-06-14T13:44:28+00:00", "coordonnees_geo": {"lon": 2.3159965061736, "lat": 48.802056061754}, "nom_arrondissement_communes": "Bagneux", "code_insee_commune": null}, {"stationcode": "18203", "name": "Lamarck - Saint-Ouen", "is_installed": "OUI", "capacity": 40, "numdocksavailable": 40, "numbikesavailable": 0, "mechanical": 0, "ebike": 0, "is_renting": "NON", "is_returning": "NON", "duedate": "2024-06-14T13:42:23+00:00", "coordonnees_geo": {"lon": 2.3272445342326, "lat": 48.891334555236}, "nom_arrondissement_communes": "Paris", "code_insee_commune": null}, {"stationcode": "25010", "name": "Mar\u00e9chal Leclerc de Hauteclocque - March\u00e9 Buzenval", "is_installed": "OUI", "capacity": 30, "numdocksavailable": 27, "numbikesavailable": 1, "mechanical": 0, "ebike": 1, "is_renting": "OUI", "is_returning": "OUI", "duedate": "2024-06-14T13:50:06+00:00", "coordonnees_geo": {"lon": 2.192077, "lat": 48.858446}, "nom_arrondissement_communes": "Rueil-Malmaison", "code_insee_commune": null}, {"stationcode": "18018", "name": "Carpeaux - Place Jacques Froment", "is_installed": "OUI", "capacity": 19, "numdocksavailable": 13, "numbikesavailable": 5, "mechanical": 0, "ebike": 5, "is_renting": "OUI", "is_returning": "OUI", "duedate": "2024-06-14T13:48:28+00:00", "coordonnees_geo": {"lon": 2.3309428, "lat": 48.8906542}, "nom_arrondissement_communes": "Paris", "code_insee_commune": null}, {"stationcode": "10025", "name": "Jemmapes - Ecluses Saint-Martin", "is_installed": "OUI", "capacity": 15, "numdocksavailable": 9, "numbikesavailable": 5, "mechanical": 4, "ebike": 1, "is_renting": "OUI", "is_returning": "OUI", "duedate": "2024-06-14T13:48:37+00:00", "coordonnees_geo": {"lon": 2.3660067468881607, "lat": 48.87748519186726}, "nom_arrondissement_communes": "Paris", "code_insee_commune": null}, {"stationcode": "22507", "name": "Ch\u00e2teaudun - Place de la Libert\u00e9", "is_installed": "OUI", "capacity": 26, "numdocksavailable": 10, "numbikesavailable": 16, "mechanical": 5, "ebike": 11, "is_renting": "OUI", "is_returning": "OUI", "duedate": "2024-06-14T13:47:25+00:00", "coordonnees_geo": {"lon": 2.2454486480600626, "lat": 48.90970830301211}, "nom_arrondissement_communes": "La Garenne-Colombes", "code_insee_commune": null}, {"stationcode": "21954", "name": "Val-Fleury", "is_installed": "OUI", "capacity": 23, "numdocksavailable": 2, "numbikesavailable": 21, "mechanical": 2, "ebike": 19, "is_renting": "OUI", "is_returning": "OUI", "duedate": "2024-06-14T13:45:24+00:00", "coordonnees_geo": {"lon": 2.2407217696309, "lat": 48.807671407991}, "nom_arrondissement_communes": "Meudon", "code_insee_commune": null}, {"stationcode": "11201", "name": "Faubourg St-Antoine - Place de la Nation", "is_installed": "OUI", "capacity": 16, "numdocksavailable": 9, "numbikesavailable": 7, "mechanical": 5, "ebike": 2, "is_renting": "OUI", "is_returning": "OUI", "duedate": "2024-06-14T13:49:54+00:00", "coordonnees_geo": {"lon": 2.393606, "lat": 48.8487726}, "nom_arrondissement_communes": "Paris", "code_insee_commune": null}, {"stationcode": "10038", "name": "Place du Colonel Fabien", "is_installed": "OUI", "capacity": 27, "numdocksavailable": 19, "numbikesavailable": 5, "mechanical": 0, "ebike": 5, "is_renting": "OUI", "is_returning": "OUI", "duedate": "2024-06-14T13:48:09+00:00", "coordonnees_geo": {"lon": 2.3698791861534, "lat": 48.87756832086}, "nom_arrondissement_communes": "Paris", "code_insee_commune": null}, {"stationcode": "22005", "name": "Charles de Gaulle - Madrid", "is_installed": "OUI", "capacity": 22, "numdocksavailable": 11, "numbikesavailable": 10, "mechanical": 5, "ebike": 5, "is_renting": "OUI", "is_returning": "OUI", "duedate": "2024-06-14T13:49:55+00:00", "coordonnees_geo": {"lon": 2.2608044743538, "lat": 48.884432270368}, "nom_arrondissement_communes": "Neuilly-sur-Seine", "code_insee_commune": null}, {"stationcode": "23205", "name": "Parc des Pierrettes", "is_installed": "OUI", "capacity": 23, "numdocksavailable": 22, "numbikesavailable": 1, "mechanical": 0, "ebike": 1, "is_renting": "OUI", "is_returning": "OUI", "duedate": "2024-06-14T13:49:41+00:00", "coordonnees_geo": {"lon": 2.2909969, "lat": 48.7973062}, "nom_arrondissement_communes": "Ch\u00e2tillon", "code_insee_commune": null}, {"stationcode": "23201", "name": "Avenir", "is_installed": "OUI", "capacity": 45, "numdocksavailable": 30, "numbikesavailable": 15, "mechanical": 6, "ebike": 9, "is_renting": "OUI", "is_returning": "OUI", "duedate": "2024-06-14T13:49:11+00:00", "coordonnees_geo": {"lon": 2.3003776, "lat": 48.8103438}, "nom_arrondissement_communes": "Ch\u00e2tillon", "code_insee_commune": null}, {"stationcode": "12165", "name": "Champs de Manoeuvre - Cartoucherie", "is_installed": "OUI", "capacity": 35, "numdocksavailable": 2, "numbikesavailable": 31, "mechanical": 22, "ebike": 9, "is_renting": "OUI", "is_returning": "OUI", "duedate": "2024-06-14T13:50:02+00:00", "coordonnees_geo": {"lon": 2.447974, "lat": 48.835261}, "nom_arrondissement_communes": "Paris", "code_insee_commune": null}, {"stationcode": "22018", "name": "Charles de Gaulle - Les Sablons", "is_installed": "OUI", "capacity": 35, "numdocksavailable": 32, "numbikesavailable": 3, "mechanical": 2, "ebike": 1, "is_renting": "OUI", "is_returning": "OUI", "duedate": "2024-06-14T13:49:14+00:00", "coordonnees_geo": {"lon": 2.2715748726513, "lat": 48.880987514929}, "nom_arrondissement_communes": "Neuilly-sur-Seine", "code_insee_commune": null}, {"stationcode": "17126", "name": "H\u00e9l\u00e8ne et Fran\u00e7ois Missoffe - Emile Borel", "is_installed": "OUI", "capacity": 32, "numdocksavailable": 19, "numbikesavailable": 12, "mechanical": 10, "ebike": 2, "is_renting": "OUI", "is_returning": "OUI", "duedate": "2024-06-14T13:50:02+00:00", "coordonnees_geo": {"lon": 2.321543991674844, "lat": 48.89990653843488}, "nom_arrondissement_communes": "Paris", "code_insee_commune": null}, {"stationcode": "26009", "name": "Marceau Delorme - Pierre Brossolette", "is_installed": "OUI", "capacity": 28, "numdocksavailable": 24, "numbikesavailable": 4, "mechanical": 2, "ebike": 2, "is_renting": "OUI", "is_returning": "OUI", "duedate": "2024-06-14T13:44:31+00:00", "coordonnees_geo": {"lon": 2.295897423568745, "lat": 48.91206062860357}, "nom_arrondissement_communes": "Asni\u00e8res-sur-Seine", "code_insee_commune": null}, {"stationcode": "34008", "name": "Garibaldi - Gabriel P\u00e9ri", "is_installed": "OUI", "capacity": 30, "numdocksavailable": 24, "numbikesavailable": 4, "mechanical": 0, "ebike": 4, "is_renting": "OUI", "is_returning": "OUI", "duedate": "2024-06-14T13:48:58+00:00", "coordonnees_geo": {"lon": 2.3316044208059, "lat": 48.905741911394}, "nom_arrondissement_communes": "Saint-Ouen-sur-Seine", "code_insee_commune": null}, {"stationcode": "7500", "name": null, "is_installed": "NON", "capacity": null, "numdocksavailable": 0, "numbikesavailable": 0, "mechanical": 0, "ebike": 0, "is_renting": "NON", "is_returning": "NON", "duedate": "2024-06-14T13:17:18+00:00", "coordonnees_geo": null, "nom_arrondissement_communes": null, "code_insee_commune": null}, {"stationcode": "31301", "name": "Gare RER", "is_installed": "OUI", "capacity": 30, "numdocksavailable": 15, "numbikesavailable": 11, "mechanical": 6, "ebike": 5, "is_renting": "OUI", "is_returning": "OUI", "duedate": "2024-06-14T13:49:02+00:00", "coordonnees_geo": {"lon": 2.4581568985227, "lat": 48.896280181078}, "nom_arrondissement_communes": "Noisy-le-Sec", "code_insee_commune": null}, {"stationcode": "18023", "name": "Ordener - Poissonniers", "is_installed": "OUI", "capacity": 35, "numdocksavailable": 32, "numbikesavailable": 3, "mechanical": 1, "ebike": 2, "is_renting": "OUI", "is_returning": "OUI", "duedate": "2024-06-14T13:49:35+00:00", "coordonnees_geo": {"lon": 2.351288666219873, "lat": 48.891213890844654}, "nom_arrondissement_communes": "Paris", "code_insee_commune": null}, {"stationcode": "18026", "name": "Ruisseau - Ordener", "is_installed": "OUI", "capacity": 35, "numdocksavailable": 30, "numbikesavailable": 3, "mechanical": 2, "ebike": 1, "is_renting": "OUI", "is_returning": "OUI", "duedate": "2024-06-14T13:49:09+00:00", "coordonnees_geo": {"lon": 2.340144887566567, "lat": 48.89299462568024}, "nom_arrondissement_communes": "Paris", "code_insee_commune": null}, {"stationcode": "16501", "name": null, "is_installed": "NON", "capacity": null, "numdocksavailable": 0, "numbikesavailable": 0, "mechanical": 0, "ebike": 0, "is_renting": "NON", "is_returning": "NON", "duedate": "2024-06-14T13:35:38+00:00", "coordonnees_geo": null, "nom_arrondissement_communes": null, "code_insee_commune": null}, {"stationcode": "31201", "name": "Suzanne Masson", "is_installed": "OUI", "capacity": 37, "numdocksavailable": 28, "numbikesavailable": 6, "mechanical": 2, "ebike": 4, "is_renting": "OUI", "is_returning": "OUI", "duedate": "2024-06-14T13:48:21+00:00", "coordonnees_geo": {"lon": 2.3847292397611, "lat": 48.923306888013}, "nom_arrondissement_communes": "La Courneuve", "code_insee_commune": null}, {"stationcode": "15013", "name": "Volontaires - Lecourbe", "is_installed": "OUI", "capacity": 31, "numdocksavailable": 10, "numbikesavailable": 19, "mechanical": 13, "ebike": 6, "is_renting": "OUI", "is_returning": "OUI", "duedate": "2024-06-14T13:49:58+00:00", "coordonnees_geo": {"lon": 2.3065522313118, "lat": 48.84351378799}, "nom_arrondissement_communes": "Paris", "code_insee_commune": null}, {"stationcode": "15056", "name": "Place Balard", "is_installed": "OUI", "capacity": 22, "numdocksavailable": 3, "numbikesavailable": 23, "mechanical": 22, "ebike": 1, "is_renting": "OUI", "is_returning": "OUI", "duedate": "2024-06-14T13:49:56+00:00", "coordonnees_geo": {"lon": 2.2784192115068, "lat": 48.836395736424}, "nom_arrondissement_communes": "Paris", "code_insee_commune": null}, {"stationcode": "8038", "name": "Fran\u00e7ois 1er - Montaigne", "is_installed": "OUI", "capacity": 53, "numdocksavailable": 7, "numbikesavailable": 46, "mechanical": 20, "ebike": 26, "is_renting": "OUI", "is_returning": "OUI", "duedate": "2024-06-14T13:48:57+00:00", "coordonnees_geo": {"lon": 2.3066755757207, "lat": 48.866887649978}, "nom_arrondissement_communes": "Paris", "code_insee_commune": null}, {"stationcode": "9104", "name": "Caumartin - Provence", "is_installed": "OUI", "capacity": 22, "numdocksavailable": 10, "numbikesavailable": 12, "mechanical": 5, "ebike": 7, "is_renting": "OUI", "is_returning": "OUI", "duedate": "2024-06-14T13:49:23+00:00", "coordonnees_geo": {"lon": 2.3284685611724854, "lat": 48.874422773426545}, "nom_arrondissement_communes": "Paris", "code_insee_commune": null}, {"stationcode": "10114", "name": "Granges aux Belles - H\u00f4pital Saint-Louis", "is_installed": "OUI", "capacity": 60, "numdocksavailable": 57, "numbikesavailable": 3, "mechanical": 3, "ebike": 0, "is_renting": "OUI", "is_returning": "OUI", "duedate": "2024-06-14T13:43:49+00:00", "coordonnees_geo": {"lon": 2.366669436985, "lat": 48.874794994841}, "nom_arrondissement_communes": "Paris", "code_insee_commune": null}, {"stationcode": "18134", "name": "Ney - Porte de Clignancourt", "is_installed": "OUI", "capacity": 25, "numdocksavailable": 24, "numbikesavailable": 1, "mechanical": 1, "ebike": 0, "is_renting": "OUI", "is_returning": "OUI", "duedate": "2024-06-14T13:44:00+00:00", "coordonnees_geo": {"lon": 2.3458001, "lat": 48.8978867}, "nom_arrondissement_communes": "Paris", "code_insee_commune": null}, {"stationcode": "47007", "name": "Libert\u00e9 - Vert-de-Maisons", "is_installed": "OUI", "capacity": 20, "numdocksavailable": 5, "numbikesavailable": 15, "mechanical": 11, "ebike": 4, "is_renting": "OUI", "is_returning": "OUI", "duedate": "2024-06-14T13:48:49+00:00", "coordonnees_geo": {"lon": 2.4328628182411, "lat": 48.790147809608}, "nom_arrondissement_communes": "Maisons-Alfort", "code_insee_commune": null}, {"stationcode": "5201", "name": "Saint-Jacques - Soufflot", "is_installed": "OUI", "capacity": 16, "numdocksavailable": 16, "numbikesavailable": 0, "mechanical": 0, "ebike": 0, "is_renting": "NON", "is_returning": "NON", "duedate": "2024-05-29T18:22:19+00:00", "coordonnees_geo": {"lon": 2.3430785379567, "lat": 48.846280383395}, "nom_arrondissement_communes": "Paris", "code_insee_commune": null}, {"stationcode": "21021", "name": "Enfants du Paradis - Peupliers", "is_installed": "OUI", "capacity": 40, "numdocksavailable": 8, "numbikesavailable": 41, "mechanical": 18, "ebike": 23, "is_renting": "OUI", "is_returning": "OUI", "duedate": "2024-06-14T13:49:54+00:00", "coordonnees_geo": {"lon": 2.2571459412575, "lat": 48.833122686454}, "nom_arrondissement_communes": "Boulogne-Billancourt", "code_insee_commune": null}, {"stationcode": "11014", "name": "Place de la Nation - Taillebourg", "is_installed": "OUI", "capacity": 47, "numdocksavailable": 43, "numbikesavailable": 2, "mechanical": 2, "ebike": 0, "is_renting": "OUI", "is_returning": "OUI", "duedate": "2024-06-14T13:49:45+00:00", "coordonnees_geo": {"lon": 2.3973043, "lat": 48.8488408}, "nom_arrondissement_communes": "Paris", "code_insee_commune": null}, {"stationcode": "12157", "name": "Fabre d'Eglantine - Place de la Nation", "is_installed": "OUI", "capacity": 68, "numdocksavailable": 51, "numbikesavailable": 13, "mechanical": 6, "ebike": 7, "is_renting": "OUI", "is_returning": "OUI", "duedate": "2024-06-14T13:50:00+00:00", "coordonnees_geo": {"lon": 2.3956204, "lat": 48.8471116}, "nom_arrondissement_communes": "Paris", "code_insee_commune": null}, {"stationcode": "11020", "name": "Belfort - Voltaire", "is_installed": "OUI", "capacity": 39, "numdocksavailable": 24, "numbikesavailable": 13, "mechanical": 10, "ebike": 3, "is_renting": "OUI", "is_returning": "OUI", "duedate": "2024-06-14T13:47:28+00:00", "coordonnees_geo": {"lon": 2.3829901, "lat": 48.8563358}, "nom_arrondissement_communes": "Paris", "code_insee_commune": null}, {"stationcode": "35002", "name": "Jean Jaur\u00e8s - Presles", "is_installed": "OUI", "capacity": 1, "numdocksavailable": 1, "numbikesavailable": 0, "mechanical": 0, "ebike": 0, "is_renting": "NON", "is_returning": "NON", "duedate": "2023-12-21T20:31:21+00:00", "coordonnees_geo": {"lon": 2.3960057280531, "lat": 48.907134414988}, "nom_arrondissement_communes": "Pantin", "code_insee_commune": null}, {"stationcode": "11011", "name": "Richard Lenoir - Voltaire", "is_installed": "OUI", "capacity": 25, "numdocksavailable": 10, "numbikesavailable": 14, "mechanical": 10, "ebike": 4, "is_renting": "OUI", "is_returning": "OUI", "duedate": "2024-06-14T13:49:54+00:00", "coordonnees_geo": {"lon": 2.3727491497993, "lat": 48.86164273878}, "nom_arrondissement_communes": "Paris", "code_insee_commune": null}, {"stationcode": "8039", "name": "Colis\u00e9e - Champs-Elys\u00e9es", "is_installed": "OUI", "capacity": 24, "numdocksavailable": 4, "numbikesavailable": 13, "mechanical": 6, "ebike": 7, "is_renting": "OUI", "is_returning": "OUI", "duedate": "2024-06-14T13:49:37+00:00", "coordonnees_geo": {"lon": 2.3076190799475, "lat": 48.870475399387}, "nom_arrondissement_communes": "Paris", "code_insee_commune": null}, {"stationcode": "18044", "name": "Clichy - Douai", "is_installed": "OUI", "capacity": 32, "numdocksavailable": 22, "numbikesavailable": 10, "mechanical": 2, "ebike": 8, "is_renting": "OUI", "is_returning": "OUI", "duedate": "2024-06-14T13:48:00+00:00", "coordonnees_geo": {"lon": 2.328063700029, "lat": 48.883687771522}, "nom_arrondissement_communes": "Paris", "code_insee_commune": null}, {"stationcode": "15060", "name": "Place de la Montagne du Goulet", "is_installed": "OUI", "capacity": 21, "numdocksavailable": 15, "numbikesavailable": 6, "mechanical": 3, "ebike": 3, "is_renting": "OUI", "is_returning": "OUI", "duedate": "2024-06-14T13:44:50+00:00", "coordonnees_geo": {"lon": 2.2773844, "lat": 48.8443415}, "nom_arrondissement_communes": "Paris", "code_insee_commune": null}, {"stationcode": "11012", "name": "Montreuil - Voltaire", "is_installed": "OUI", "capacity": 34, "numdocksavailable": 20, "numbikesavailable": 12, "mechanical": 6, "ebike": 6, "is_renting": "OUI", "is_returning": "OUI", "duedate": "2024-06-14T13:47:49+00:00", "coordonnees_geo": {"lon": 2.3930755582745, "lat": 48.850507011842}, "nom_arrondissement_communes": "Paris", "code_insee_commune": null}, {"stationcode": "7111", "name": "Ecole Militaire - Place Joffre", "is_installed": "OUI", "capacity": 26, "numdocksavailable": 6, "numbikesavailable": 19, "mechanical": 18, "ebike": 1, "is_renting": "OUI", "is_returning": "OUI", "duedate": "2024-06-14T13:49:18+00:00", "coordonnees_geo": {"lon": 2.3017993569374, "lat": 48.852060203583}, "nom_arrondissement_communes": "Paris", "code_insee_commune": null}, {"stationcode": "7109", "name": "Place Joffre - Fr\u00e9d\u00e9ric le Play", "is_installed": "OUI", "capacity": 38, "numdocksavailable": 29, "numbikesavailable": 7, "mechanical": 6, "ebike": 1, "is_renting": "OUI", "is_returning": "OUI", "duedate": "2024-06-14T13:48:11+00:00", "coordonnees_geo": {"lon": 2.3044242337346, "lat": 48.853754486938}, "nom_arrondissement_communes": "Paris", "code_insee_commune": null}, {"stationcode": "32012", "name": "Carrefour Pleyel", "is_installed": "OUI", "capacity": 68, "numdocksavailable": 32, "numbikesavailable": 39, "mechanical": 26, "ebike": 13, "is_renting": "OUI", "is_returning": "OUI", "duedate": "2024-06-14T13:47:41+00:00", "coordonnees_geo": {"lon": 2.3438543826341625, "lat": 48.92034156960326}, "nom_arrondissement_communes": "Saint-Denis", "code_insee_commune": null}, {"stationcode": "23011", "name": "Bineau - Louise Michel", "is_installed": "OUI", "capacity": 26, "numdocksavailable": 16, "numbikesavailable": 6, "mechanical": 1, "ebike": 5, "is_renting": "OUI", "is_returning": "OUI", "duedate": "2024-06-14T13:48:20+00:00", "coordonnees_geo": {"lon": 2.2843274474144, "lat": 48.88666162207}, "nom_arrondissement_communes": "Levallois-Perret", "code_insee_commune": null}, {"stationcode": "21302", "name": "Aristide Briand - Place de la R\u00e9sistance", "is_installed": "OUI", "capacity": 25, "numdocksavailable": 4, "numbikesavailable": 26, "mechanical": 23, "ebike": 3, "is_renting": "OUI", "is_returning": "OUI", "duedate": "2024-06-14T13:49:28+00:00", "coordonnees_geo": {"lon": 2.2511002421379094, "lat": 48.82124248401006}, "nom_arrondissement_communes": "Issy-les-Moulineaux", "code_insee_commune": null}]