[{"stationcode": "35011", "name": "Honor\u00e9 d'Estienne d'Ovres - Grilles", "is_installed": "OUI", "capacity": 18, "numdocksavailable": 6, "numbikesavailable": 12, "mechanical": 4, "ebike": 8, "is_renting": "OUI", "is_returning": "OUI", "duedate": "2024-06-16T06:54:38+00:00", "coordonnees_geo": {"lon": 2.4064831843792427, "lat": 48.89056394743836}, "nom_arrondissement_communes": "Pantin", "code_insee_commune": null}, {"stationcode": "7010", "name": "Constantine - Universit\u00e9", "is_installed": "OUI", "capacity": 65, "numdocksavailable": 59, "numbikesavailable": 6, "mechanical": 4, "ebike": 2, "is_renting": "OUI", "is_returning": "OUI", "duedate": "2024-06-16T06:48:09+00:00", "coordonnees_geo": {"lon": 2.3148481955842, "lat": 48.860680473738}, "nom_arrondissement_communes": "Paris", "code_insee_commune": null}, {"stationcode": "14113", "name": "Sant\u00e9 - Arago", "is_installed": "OUI", "capacity": 38, "numdocksavailable": 35, "numbikesavailable": 3, "mechanical": 1, "ebike": 2, "is_renting": "OUI", "is_returning": "OUI", "duedate": "2024-06-16T06:49:55+00:00", "coordonnees_geo": {"lon": 2.3415737262044938, "lat": 48.83507657562064}, "nom_arrondissement_communes": "Paris", "code_insee_commune": null}, {"stationcode": "10152", "name": "Gare du Nord - Place de Valenciennes", "is_installed": "OUI", "capacity": 25, "numdocksavailable": 11, "numbikesavailable": 11, "mechanical": 5, "ebike": 6, "is_renting": "OUI", "is_returning": "OUI", "duedate": "2024-06-16T06:53:27+00:00", "coordonnees_geo": {"lon": 2.354235, "lat": 48.879089}, "nom_arrondissement_communes": "Paris", "code_insee_commune": null}, {"stationcode": "35015", "name": "Averro\u00e8s - Aim\u00e9 C\u00e9saire", "is_installed": "OUI", "capacity": 19, "numdocksavailable": 13, "numbikesavailable": 5, "mechanical": 2, "ebike": 3, "is_renting": "OUI", "is_returning": "OUI", "duedate": "2024-06-16T06:53:57+00:00", "coordonnees_geo": {"lon": 2.412636950612068, "lat": 48.91405323432864}, "nom_arrondissement_communes": "Pantin", "code_insee_commune": null}, {"stationcode": "32021", "name": "Place du Front Populaire - George Sand", "is_installed": "OUI", "capacity": 65, "numdocksavailable": 53, "numbikesavailable": 11, "mechanical": 3, "ebike": 8, "is_renting": "OUI", "is_returning": "OUI", "duedate": "2024-06-16T06:52:37+00:00", "coordonnees_geo": {"lon": 2.364541214992642, "lat": 48.90680713698062}, "nom_arrondissement_communes": "Saint-Denis", "code_insee_commune": null}, {"stationcode": "20004", "name": "Commandant l'Herminier - Gallieni", "is_installed": "OUI", "capacity": 17, "numdocksavailable": 8, "numbikesavailable": 9, "mechanical": 4, "ebike": 5, "is_renting": "OUI", "is_returning": "OUI", "duedate": "2024-06-16T06:51:23+00:00", "coordonnees_geo": {"lon": 2.4160453677177, "lat": 48.847040552603}, "nom_arrondissement_communes": "Paris", "code_insee_commune": null}, {"stationcode": "10037", "name": "Quai de Valmy", "is_installed": "OUI", "capacity": 26, "numdocksavailable": 24, "numbikesavailable": 2, "mechanical": 1, "ebike": 1, "is_renting": "OUI", "is_returning": "OUI", "duedate": "2024-06-16T06:50:12+00:00", "coordonnees_geo": {"lon": 2.368186041712761, "lat": 48.88126951579429}, "nom_arrondissement_communes": "Paris", "code_insee_commune": null}, {"stationcode": "20002", "name": "Square de la rue Pix\u00e9r\u00e9court", "is_installed": "OUI", "capacity": 15, "numdocksavailable": 4, "numbikesavailable": 11, "mechanical": 0, "ebike": 11, "is_renting": "OUI", "is_returning": "OUI", "duedate": "2024-06-16T06:54:37+00:00", "coordonnees_geo": {"lon": 2.3960278, "lat": 48.8736824}, "nom_arrondissement_communes": "Paris", "code_insee_commune": null}, {"stationcode": "12006", "name": "Gare de Lyon - Van Gogh", "is_installed": "OUI", "capacity": 41, "numdocksavailable": 39, "numbikesavailable": 1, "mechanical": 1, "ebike": 0, "is_renting": "OUI", "is_returning": "OUI", "duedate": "2024-06-16T06:50:59+00:00", "coordonnees_geo": {"lon": 2.3704450240357, "lat": 48.843839785643}, "nom_arrondissement_communes": "Paris", "code_insee_commune": null}, {"stationcode": "15125", "name": "Parc Suzanne Lenglen", "is_installed": "OUI", "capacity": 52, "numdocksavailable": 30, "numbikesavailable": 21, "mechanical": 18, "ebike": 3, "is_renting": "OUI", "is_returning": "OUI", "duedate": "2024-06-16T06:54:02+00:00", "coordonnees_geo": {"lon": 2.2765403240919113, "lat": 48.833250690537874}, "nom_arrondissement_communes": "Paris", "code_insee_commune": null}, {"stationcode": "13117", "name": "Stade Georges Carpentier", "is_installed": "OUI", "capacity": 40, "numdocksavailable": 34, "numbikesavailable": 6, "mechanical": 2, "ebike": 4, "is_renting": "OUI", "is_returning": "OUI", "duedate": "2024-06-16T06:54:18+00:00", "coordonnees_geo": {"lon": 2.3668321967125, "lat": 48.820482438381}, "nom_arrondissement_communes": "Paris", "code_insee_commune": null}, {"stationcode": "13027", "name": "Mazagran - Pierre de Coubertin", "is_installed": "OUI", "capacity": 15, "numdocksavailable": 3, "numbikesavailable": 10, "mechanical": 6, "ebike": 4, "is_renting": "OUI", "is_returning": "OUI", "duedate": "2024-06-16T06:54:31+00:00", "coordonnees_geo": {"lon": 2.344226874411106, "lat": 48.816218640260445}, "nom_arrondissement_communes": "Paris", "code_insee_commune": null}, {"stationcode": "17029", "name": "Pierre Demours - Laugier", "is_installed": "OUI", "capacity": 37, "numdocksavailable": 27, "numbikesavailable": 9, "mechanical": 5, "ebike": 4, "is_renting": "OUI", "is_returning": "OUI", "duedate": "2024-06-16T06:52:42+00:00", "coordonnees_geo": {"lon": 2.294846, "lat": 48.8813072}, "nom_arrondissement_communes": "Paris", "code_insee_commune": null}, {"stationcode": "10004", "name": "Metz - Faubourg Saint-Denis", "is_installed": "OUI", "capacity": 48, "numdocksavailable": 16, "numbikesavailable": 28, "mechanical": 26, "ebike": 2, "is_renting": "OUI", "is_returning": "OUI", "duedate": "2024-06-16T06:53:56+00:00", "coordonnees_geo": {"lon": 2.353521, "lat": 48.870893}, "nom_arrondissement_communes": "Paris", "code_insee_commune": null}, {"stationcode": "11103", "name": "Pel\u00e9e - Alphonse Baudin", "is_installed": "OUI", "capacity": 38, "numdocksavailable": 2, "numbikesavailable": 34, "mechanical": 33, "ebike": 1, "is_renting": "OUI", "is_returning": "OUI", "duedate": "2024-06-16T06:51:50+00:00", "coordonnees_geo": {"lon": 2.3710541, "lat": 48.8600265}, "nom_arrondissement_communes": "Paris", "code_insee_commune": null}, {"stationcode": "8008", "name": "Joseph Sansboeuf - Saint Lazare", "is_installed": "OUI", "capacity": 18, "numdocksavailable": 13, "numbikesavailable": 4, "mechanical": 4, "ebike": 0, "is_renting": "OUI", "is_returning": "OUI", "duedate": "2024-06-16T06:54:18+00:00", "coordonnees_geo": {"lon": 2.3229019716382027, "lat": 48.87531563065266}, "nom_arrondissement_communes": "Paris", "code_insee_commune": null}, {"stationcode": "21203", "name": "Place Jules Ferry", "is_installed": "OUI", "capacity": 28, "numdocksavailable": 20, "numbikesavailable": 7, "mechanical": 2, "ebike": 5, "is_renting": "OUI", "is_returning": "OUI", "duedate": "2024-06-16T06:51:09+00:00", "coordonnees_geo": {"lon": 2.325837314128876, "lat": 48.812107928414775}, "nom_arrondissement_communes": "Montrouge", "code_insee_commune": null}, {"stationcode": "10017", "name": "Gare de l'Est - Fid\u00e9lit\u00e9", "is_installed": "OUI", "capacity": 15, "numdocksavailable": 7, "numbikesavailable": 7, "mechanical": 5, "ebike": 2, "is_renting": "OUI", "is_returning": "OUI", "duedate": "2024-06-16T06:53:24+00:00", "coordonnees_geo": {"lon": 2.356796, "lat": 48.874575}, "nom_arrondissement_communes": "Paris", "code_insee_commune": null}, {"stationcode": "16009", "name": "Saint-Didier - Raymond Poincar\u00e9", "is_installed": "OUI", "capacity": 17, "numdocksavailable": 11, "numbikesavailable": 6, "mechanical": 1, "ebike": 5, "is_renting": "OUI", "is_returning": "OUI", "duedate": "2024-06-16T06:52:47+00:00", "coordonnees_geo": {"lon": 2.285863497192411, "lat": 48.86642312020962}, "nom_arrondissement_communes": "Paris", "code_insee_commune": null}, {"stationcode": "21029", "name": "Cours de l'Ile Seguin - Parc Billancourt", "is_installed": "OUI", "capacity": 29, "numdocksavailable": 24, "numbikesavailable": 4, "mechanical": 1, "ebike": 3, "is_renting": "OUI", "is_returning": "OUI", "duedate": "2024-06-16T06:51:36+00:00", "coordonnees_geo": {"lon": 2.234234511852265, "lat": 48.82714055843935}, "nom_arrondissement_communes": "Boulogne-Billancourt", "code_insee_commune": null}, {"stationcode": "16003", "name": "Andr\u00e9 Maurois - Joseph et Marie Hackin", "is_installed": "OUI", "capacity": 29, "numdocksavailable": 24, "numbikesavailable": 5, "mechanical": 3, "ebike": 2, "is_renting": "OUI", "is_returning": "OUI", "duedate": "2024-06-16T06:53:34+00:00", "coordonnees_geo": {"lon": 2.2789591, "lat": 48.8778983}, "nom_arrondissement_communes": "Paris", "code_insee_commune": null}, {"stationcode": "21316", "name": "Cimeti\u00e8re d'Issy-les-Moulineaux", "is_installed": "OUI", "capacity": 24, "numdocksavailable": 22, "numbikesavailable": 2, "mechanical": 0, "ebike": 2, "is_renting": "OUI", "is_returning": "OUI", "duedate": "2024-06-16T06:54:00+00:00", "coordonnees_geo": {"lon": 2.2609312087297, "lat": 48.817699773925}, "nom_arrondissement_communes": "Issy-les-Moulineaux", "code_insee_commune": null}, {"stationcode": "21708", "name": "Marcel Yol - Jullien", "is_installed": "OUI", "capacity": 30, "numdocksavailable": 26, "numbikesavailable": 4, "mechanical": 0, "ebike": 4, "is_renting": "OUI", "is_returning": "OUI", "duedate": "2024-06-16T06:53:23+00:00", "coordonnees_geo": {"lon": 2.287235018058929, "lat": 48.82537611802588}, "nom_arrondissement_communes": "Vanves", "code_insee_commune": null}, {"stationcode": "13048", "name": "Wurtz - Tolbiac", "is_installed": "OUI", "capacity": 28, "numdocksavailable": 6, "numbikesavailable": 21, "mechanical": 20, "ebike": 1, "is_renting": "OUI", "is_returning": "OUI", "duedate": "2024-06-16T06:48:58+00:00", "coordonnees_geo": {"lon": 2.344585955142975, "lat": 48.82631195621006}, "nom_arrondissement_communes": "Paris", "code_insee_commune": null}, {"stationcode": "41210", "name": "H\u00f4tel de ville de Fontenay-sous-Bois", "is_installed": "OUI", "capacity": 20, "numdocksavailable": 16, "numbikesavailable": 4, "mechanical": 4, "ebike": 0, "is_renting": "OUI", "is_returning": "OUI", "duedate": "2024-06-16T06:54:17+00:00", "coordonnees_geo": {"lon": 2.4750164151191716, "lat": 48.84949749106274}, "nom_arrondissement_communes": "Fontenay-sous-Bois", "code_insee_commune": null}, {"stationcode": "11109", "name": "Pierre Lev\u00e9e - Fontaine Timbaud", "is_installed": "OUI", "capacity": 23, "numdocksavailable": 2, "numbikesavailable": 19, "mechanical": 18, "ebike": 1, "is_renting": "OUI", "is_returning": "OUI", "duedate": "2024-06-16T06:48:48+00:00", "coordonnees_geo": {"lon": 2.3711163550615306, "lat": 48.86632723374305}, "nom_arrondissement_communes": "Paris", "code_insee_commune": null}, {"stationcode": "15052", "name": "Convention - Vaugirard", "is_installed": "OUI", "capacity": 48, "numdocksavailable": 2, "numbikesavailable": 44, "mechanical": 35, "ebike": 9, "is_renting": "OUI", "is_returning": "OUI", "duedate": "2024-06-16T06:54:32+00:00", "coordonnees_geo": {"lon": 2.295586926020252, "lat": 48.83767682233156}, "nom_arrondissement_communes": "Paris", "code_insee_commune": null}, {"stationcode": "44002", "name": "Paul Vaillant-Couturier - Gare RER", "is_installed": "OUI", "capacity": 26, "numdocksavailable": 0, "numbikesavailable": 25, "mechanical": 19, "ebike": 6, "is_renting": "OUI", "is_returning": "OUI", "duedate": "2024-06-16T06:54:21+00:00", "coordonnees_geo": {"lon": 2.402097210288048, "lat": 48.80108159069614}, "nom_arrondissement_communes": "Vitry-sur-Seine", "code_insee_commune": null}, {"stationcode": "16115", "name": "Raffet - Montmorency", "is_installed": "OUI", "capacity": 42, "numdocksavailable": 25, "numbikesavailable": 16, "mechanical": 3, "ebike": 13, "is_renting": "OUI", "is_returning": "OUI", "duedate": "2024-06-16T06:52:46+00:00", "coordonnees_geo": {"lon": 2.2629252456151954, "lat": 48.85258670812}, "nom_arrondissement_communes": "Paris", "code_insee_commune": null}, {"stationcode": "13039", "name": "Ivry - Simone Weil", "is_installed": "OUI", "capacity": 18, "numdocksavailable": 12, "numbikesavailable": 4, "mechanical": 2, "ebike": 2, "is_renting": "OUI", "is_returning": "OUI", "duedate": "2024-06-16T06:54:26+00:00", "coordonnees_geo": {"lon": 2.3659095168113713, "lat": 48.823283932030755}, "nom_arrondissement_communes": "Paris", "code_insee_commune": null}, {"stationcode": "21031", "name": "Cimeti\u00e8re de Boulogne-Billancourt", "is_installed": "OUI", "capacity": 40, "numdocksavailable": 7, "numbikesavailable": 31, "mechanical": 19, "ebike": 12, "is_renting": "OUI", "is_returning": "OUI", "duedate": "2024-06-16T06:52:58+00:00", "coordonnees_geo": {"lon": 2.252024, "lat": 48.830764}, "nom_arrondissement_communes": "Boulogne-Billancourt", "code_insee_commune": null}, {"stationcode": "21702", "name": "Gare SNCF Vanves-Malakoff", "is_installed": "OUI", "capacity": 51, "numdocksavailable": 37, "numbikesavailable": 14, "mechanical": 2, "ebike": 12, "is_renting": "OUI", "is_returning": "OUI", "duedate": "2024-06-16T06:54:08+00:00", "coordonnees_geo": {"lon": 2.292150005103606, "lat": 48.819002163836444}, "nom_arrondissement_communes": "Vanves", "code_insee_commune": null}, {"stationcode": "15043", "name": "Brancion - Lefebvre", "is_installed": "OUI", "capacity": 11, "numdocksavailable": 8, "numbikesavailable": 1, "mechanical": 1, "ebike": 0, "is_renting": "OUI", "is_returning": "OUI", "duedate": "2024-06-16T06:54:28+00:00", "coordonnees_geo": {"lon": 2.301431038163409, "lat": 48.82900222785569}, "nom_arrondissement_communes": "Paris", "code_insee_commune": null}, {"stationcode": "17039", "name": "Place Saint-Ferdinand", "is_installed": "OUI", "capacity": 38, "numdocksavailable": 32, "numbikesavailable": 5, "mechanical": 1, "ebike": 4, "is_renting": "OUI", "is_returning": "OUI", "duedate": "2024-06-16T06:46:43+00:00", "coordonnees_geo": {"lon": 2.288518047864942, "lat": 48.87815529789739}, "nom_arrondissement_communes": "Paris", "code_insee_commune": null}, {"stationcode": "42305", "name": "Vanne - Saussaies", "is_installed": "OUI", "capacity": 20, "numdocksavailable": 4, "numbikesavailable": 16, "mechanical": 2, "ebike": 14, "is_renting": "OUI", "is_returning": "OUI", "duedate": "2024-06-16T06:53:19+00:00", "coordonnees_geo": {"lon": 2.338848, "lat": 48.786404}, "nom_arrondissement_communes": "Cachan", "code_insee_commune": null}, {"stationcode": "13121", "name": "Bruneseau - Quai d'Ivry", "is_installed": "OUI", "capacity": 46, "numdocksavailable": 9, "numbikesavailable": 33, "mechanical": 27, "ebike": 6, "is_renting": "OUI", "is_returning": "OUI", "duedate": "2024-06-16T06:54:25+00:00", "coordonnees_geo": {"lon": 2.388566136360169, "lat": 48.82494563758295}, "nom_arrondissement_communes": "Ivry-sur-Seine", "code_insee_commune": null}, {"stationcode": "10018", "name": "Square Alban Satragne", "is_installed": "OUI", "capacity": 30, "numdocksavailable": 5, "numbikesavailable": 23, "mechanical": 20, "ebike": 3, "is_renting": "OUI", "is_returning": "OUI", "duedate": "2024-06-16T06:52:04+00:00", "coordonnees_geo": {"lon": 2.3559567333359, "lat": 48.875388227727}, "nom_arrondissement_communes": "Paris", "code_insee_commune": null}, {"stationcode": "12043", "name": "Daumesnil - H\u00e9brard", "is_installed": "OUI", "capacity": 40, "numdocksavailable": 14, "numbikesavailable": 25, "mechanical": 19, "ebike": 6, "is_renting": "OUI", "is_returning": "OUI", "duedate": "2024-06-16T06:52:40+00:00", "coordonnees_geo": {"lon": 2.38474, "lat": 48.8429}, "nom_arrondissement_communes": "Paris", "code_insee_commune": null}, {"stationcode": "20108", "name": "Jardin de l'Hospice Debrousse", "is_installed": "OUI", "capacity": 23, "numdocksavailable": 21, "numbikesavailable": 2, "mechanical": 0, "ebike": 2, "is_renting": "OUI", "is_returning": "OUI", "duedate": "2024-06-16T06:50:44+00:00", "coordonnees_geo": {"lon": 2.40568600595, "lat": 48.861451061938}, "nom_arrondissement_communes": "Paris", "code_insee_commune": null}, {"stationcode": "21219", "name": "Amaury Duval - Gabriel P\u00e9ri", "is_installed": "OUI", "capacity": 36, "numdocksavailable": 30, "numbikesavailable": 5, "mechanical": 1, "ebike": 4, "is_renting": "OUI", "is_returning": "OUI", "duedate": "2024-06-16T06:52:39+00:00", "coordonnees_geo": {"lon": 2.323841750621796, "lat": 48.81718759671675}, "nom_arrondissement_communes": "Montrouge", "code_insee_commune": null}, {"stationcode": "8001", "name": "Petit Palais", "is_installed": "OUI", "capacity": 46, "numdocksavailable": 42, "numbikesavailable": 4, "mechanical": 2, "ebike": 2, "is_renting": "OUI", "is_returning": "OUI", "duedate": "2024-06-16T04:50:35+00:00", "coordonnees_geo": {"lon": 2.3157655, "lat": 48.8667692}, "nom_arrondissement_communes": "Paris", "code_insee_commune": null}, {"stationcode": "16101", "name": "Malakoff - Place de la Porte Maillot", "is_installed": "OUI", "capacity": 31, "numdocksavailable": 22, "numbikesavailable": 9, "mechanical": 9, "ebike": 0, "is_renting": "OUI", "is_returning": "OUI", "duedate": "2024-06-16T04:52:47+00:00", "coordonnees_geo": {"lon": 2.2834577411413193, "lat": 48.876733496637506}, "nom_arrondissement_communes": "Paris", "code_insee_commune": null}, {"stationcode": "42305", "name": "Vanne - Saussaies", "is_installed": "OUI", "capacity": 20, "numdocksavailable": 4, "numbikesavailable": 16, "mechanical": 2, "ebike": 14, "is_renting": "OUI", "is_returning": "OUI", "duedate": "2024-06-16T04:52:59+00:00", "coordonnees_geo": {"lon": 2.338848, "lat": 48.786404}, "nom_arrondissement_communes": "Cachan", "code_insee_commune": null}, {"stationcode": "5107", "name": "Pontoise - La Tournelle", "is_installed": "OUI", "capacity": 23, "numdocksavailable": 0, "numbikesavailable": 23, "mechanical": 23, "ebike": 0, "is_renting": "OUI", "is_returning": "OUI", "duedate": "2024-06-16T04:52:55+00:00", "coordonnees_geo": {"lon": 2.3524542754922, "lat": 48.850458009188}, "nom_arrondissement_communes": "Paris", "code_insee_commune": null}, {"stationcode": "10018", "name": "Square Alban Satragne", "is_installed": "OUI", "capacity": 30, "numdocksavailable": 6, "numbikesavailable": 22, "mechanical": 20, "ebike": 2, "is_renting": "OUI", "is_returning": "OUI", "duedate": "2024-06-16T04:54:31+00:00", "coordonnees_geo": {"lon": 2.3559567333359, "lat": 48.875388227727}, "nom_arrondissement_communes": "Paris", "code_insee_commune": null}, {"stationcode": "20007", "name": "Buzenval - Avron", "is_installed": "OUI", "capacity": 50, "numdocksavailable": 16, "numbikesavailable": 31, "mechanical": 15, "ebike": 16, "is_renting": "OUI", "is_returning": "OUI", "duedate": "2024-06-16T04:54:23+00:00", "coordonnees_geo": {"lon": 2.401513597307666, "lat": 48.851617204998654}, "nom_arrondissement_communes": "Paris", "code_insee_commune": null}, {"stationcode": "12043", "name": "Daumesnil - H\u00e9brard", "is_installed": "OUI", "capacity": 40, "numdocksavailable": 12, "numbikesavailable": 27, "mechanical": 21, "ebike": 6, "is_renting": "OUI", "is_returning": "OUI", "duedate": "2024-06-16T04:52:22+00:00", "coordonnees_geo": {"lon": 2.38474, "lat": 48.8429}, "nom_arrondissement_communes": "Paris", "code_insee_commune": null}, {"stationcode": "21219", "name": "Amaury Duval - Gabriel P\u00e9ri", "is_installed": "OUI", "capacity": 36, "numdocksavailable": 30, "numbikesavailable": 5, "mechanical": 1, "ebike": 4, "is_renting": "OUI", "is_returning": "OUI", "duedate": "2024-06-16T04:52:52+00:00", "coordonnees_geo": {"lon": 2.323841750621796, "lat": 48.81718759671675}, "nom_arrondissement_communes": "Montrouge", "code_insee_commune": null}, {"stationcode": "31025", "name": "Paul Signac - Aristide Briand", "is_installed": "OUI", "capacity": 35, "numdocksavailable": 28, "numbikesavailable": 7, "mechanical": 0, "ebike": 7, "is_renting": "OUI", "is_returning": "OUI", "duedate": "2024-06-16T04:50:35+00:00", "coordonnees_geo": {"lon": 2.4502260982990265, "lat": 48.86950262156371}, "nom_arrondissement_communes": "Montreuil", "code_insee_commune": null}, {"stationcode": "5014", "name": "Jean Calvin - Tournefort", "is_installed": "OUI", "capacity": 28, "numdocksavailable": 27, "numbikesavailable": 1, "mechanical": 0, "ebike": 1, "is_renting": "OUI", "is_returning": "OUI", "duedate": "2024-06-16T04:51:54+00:00", "coordonnees_geo": {"lon": 2.348489575088024, "lat": 48.84158856925782}, "nom_arrondissement_communes": "Paris", "code_insee_commune": null}, {"stationcode": "8549", "name": "George V - Christophe Colomb", "is_installed": "OUI", "capacity": 24, "numdocksavailable": 22, "numbikesavailable": 2, "mechanical": 1, "ebike": 1, "is_renting": "OUI", "is_returning": "OUI", "duedate": "2024-06-16T04:45:26+00:00", "coordonnees_geo": {"lon": 2.30104, "lat": 48.87046}, "nom_arrondissement_communes": "Paris", "code_insee_commune": null}, {"stationcode": "23902", "name": "Gallieni - Lyc\u00e9e Charles Petitet", "is_installed": "OUI", "capacity": 45, "numdocksavailable": 34, "numbikesavailable": 11, "mechanical": 7, "ebike": 4, "is_renting": "OUI", "is_returning": "OUI", "duedate": "2024-06-16T04:50:40+00:00", "coordonnees_geo": {"lon": 2.3308986340524, "lat": 48.927640283627}, "nom_arrondissement_communes": "Villeneuve-la-Garenne", "code_insee_commune": null}, {"stationcode": "13033", "name": "Porte d'Italie", "is_installed": "OUI", "capacity": 13, "numdocksavailable": 11, "numbikesavailable": 2, "mechanical": 0, "ebike": 2, "is_renting": "OUI", "is_returning": "OUI", "duedate": "2024-06-16T04:45:45+00:00", "coordonnees_geo": {"lon": 2.360236309468746, "lat": 48.817161987718954}, "nom_arrondissement_communes": "Paris", "code_insee_commune": null}, {"stationcode": "16020", "name": "Place de la Porte de Passy", "is_installed": "OUI", "capacity": 36, "numdocksavailable": 18, "numbikesavailable": 17, "mechanical": 17, "ebike": 0, "is_renting": "OUI", "is_returning": "OUI", "duedate": "2024-06-16T04:54:05+00:00", "coordonnees_geo": {"lon": 2.2644165538827115, "lat": 48.857341095470794}, "nom_arrondissement_communes": "Paris", "code_insee_commune": null}, {"stationcode": "18027", "name": "Damr\u00e9mont - Ordener", "is_installed": "OUI", "capacity": 30, "numdocksavailable": 18, "numbikesavailable": 12, "mechanical": 4, "ebike": 8, "is_renting": "OUI", "is_returning": "OUI", "duedate": "2024-06-16T04:47:22+00:00", "coordonnees_geo": {"lon": 2.336266523912805, "lat": 48.893400392981874}, "nom_arrondissement_communes": "Paris", "code_insee_commune": null}, {"stationcode": "4003", "name": "Quai aux Fleurs - Pont Saint-Louis", "is_installed": "OUI", "capacity": 21, "numdocksavailable": 4, "numbikesavailable": 17, "mechanical": 14, "ebike": 3, "is_renting": "OUI", "is_returning": "OUI", "duedate": "2024-06-16T04:52:55+00:00", "coordonnees_geo": {"lon": 2.352195717394352, "lat": 48.85291595620935}, "nom_arrondissement_communes": "Paris", "code_insee_commune": null}, {"stationcode": "8020", "name": "Batignolles - Beudant", "is_installed": "OUI", "capacity": 44, "numdocksavailable": 38, "numbikesavailable": 6, "mechanical": 3, "ebike": 3, "is_renting": "OUI", "is_returning": "OUI", "duedate": "2024-06-16T04:54:22+00:00", "coordonnees_geo": {"lon": 2.319852970540523, "lat": 48.88216401466375}, "nom_arrondissement_communes": "Paris", "code_insee_commune": null}, {"stationcode": "22501", "name": "Th\u00e9\u00e2tre de La Garenne", "is_installed": "OUI", "capacity": 20, "numdocksavailable": 14, "numbikesavailable": 6, "mechanical": 1, "ebike": 5, "is_renting": "OUI", "is_returning": "OUI", "duedate": "2024-06-16T04:54:03+00:00", "coordonnees_geo": {"lon": 2.2345951981176, "lat": 48.905658361454}, "nom_arrondissement_communes": "La Garenne-Colombes", "code_insee_commune": null}, {"stationcode": "42003", "name": "Place de l'Insurrection d'Ao\u00fbt 1944", "is_installed": "OUI", "capacity": 30, "numdocksavailable": 2, "numbikesavailable": 27, "mechanical": 21, "ebike": 6, "is_renting": "OUI", "is_returning": "OUI", "duedate": "2024-06-16T04:54:12+00:00", "coordonnees_geo": {"lon": 2.398074567317963, "lat": 48.81477852751594}, "nom_arrondissement_communes": "Ivry-sur-Seine", "code_insee_commune": null}, {"stationcode": "4001", "name": "Arcole - Notre-Dame", "is_installed": "OUI", "capacity": 31, "numdocksavailable": 13, "numbikesavailable": 17, "mechanical": 15, "ebike": 2, "is_renting": "OUI", "is_returning": "OUI", "duedate": "2024-06-16T04:54:18+00:00", "coordonnees_geo": {"lon": 2.3493797332048, "lat": 48.853883541328}, "nom_arrondissement_communes": "Paris", "code_insee_commune": null}, {"stationcode": "14010", "name": "Jean Moulin - Place Victor et H\u00e9l\u00e8ne Basch", "is_installed": "OUI", "capacity": 41, "numdocksavailable": 30, "numbikesavailable": 11, "mechanical": 6, "ebike": 5, "is_renting": "OUI", "is_returning": "OUI", "duedate": "2024-06-16T04:52:43+00:00", "coordonnees_geo": {"lon": 2.3261967301369, "lat": 48.82764910241}, "nom_arrondissement_communes": "Paris", "code_insee_commune": null}, {"stationcode": "17023", "name": "Porte d'Asni\u00e8res", "is_installed": "OUI", "capacity": 36, "numdocksavailable": 14, "numbikesavailable": 21, "mechanical": 7, "ebike": 14, "is_renting": "OUI", "is_returning": "OUI", "duedate": "2024-06-16T04:52:27+00:00", "coordonnees_geo": {"lon": 2.3036286234855656, "lat": 48.89035817610495}, "nom_arrondissement_communes": "Paris", "code_insee_commune": null}, {"stationcode": "44007", "name": "Camille Groult - Guy M\u00f4quet", "is_installed": "OUI", "capacity": 22, "numdocksavailable": 1, "numbikesavailable": 21, "mechanical": 11, "ebike": 10, "is_renting": "OUI", "is_returning": "OUI", "duedate": "2024-06-16T04:51:06+00:00", "coordonnees_geo": {"lon": 2.3976725712418556, "lat": 48.787482746521306}, "nom_arrondissement_communes": "Vitry-sur-Seine", "code_insee_commune": null}, {"stationcode": "4016", "name": "Lobau - H\u00f4tel de Ville", "is_installed": "OUI", "capacity": 60, "numdocksavailable": 45, "numbikesavailable": 11, "mechanical": 11, "ebike": 0, "is_renting": "OUI", "is_returning": "OUI", "duedate": "2024-06-16T04:52:55+00:00", "coordonnees_geo": {"lon": 2.3532536, "lat": 48.8562118}, "nom_arrondissement_communes": "Paris", "code_insee_commune": null}, {"stationcode": "10105", "name": "Mazagran - Bonne Nouvelle", "is_installed": "OUI", "capacity": 25, "numdocksavailable": 18, "numbikesavailable": 5, "mechanical": 3, "ebike": 2, "is_renting": "OUI", "is_returning": "OUI", "duedate": "2024-06-16T04:51:58+00:00", "coordonnees_geo": {"lon": 2.3511248454452, "lat": 48.870047123655}, "nom_arrondissement_communes": "Paris", "code_insee_commune": null}, {"stationcode": "17003", "name": "Jacques Kellner - Saint-Ouen", "is_installed": "OUI", "capacity": 45, "numdocksavailable": 22, "numbikesavailable": 21, "mechanical": 12, "ebike": 9, "is_renting": "OUI", "is_returning": "OUI", "duedate": "2024-06-16T04:50:32+00:00", "coordonnees_geo": {"lon": 2.327897409164145, "lat": 48.895809485802886}, "nom_arrondissement_communes": "Paris", "code_insee_commune": null}, {"stationcode": "13109", "name": "Brillat-Savarin - K\u00fcss", "is_installed": "OUI", "capacity": 21, "numdocksavailable": 3, "numbikesavailable": 18, "mechanical": 12, "ebike": 6, "is_renting": "OUI", "is_returning": "OUI", "duedate": "2024-06-16T04:53:56+00:00", "coordonnees_geo": {"lon": 2.350422, "lat": 48.822203}, "nom_arrondissement_communes": "Paris", "code_insee_commune": null}, {"stationcode": "21204", "name": "Estienne d'Orves - Henri Ginoux", "is_installed": "OUI", "capacity": 31, "numdocksavailable": 14, "numbikesavailable": 16, "mechanical": 5, "ebike": 11, "is_renting": "OUI", "is_returning": "OUI", "duedate": "2024-06-16T04:53:06+00:00", "coordonnees_geo": {"lon": 2.320886790760933, "lat": 48.815388220397274}, "nom_arrondissement_communes": "Montrouge", "code_insee_commune": null}, {"stationcode": "42209", "name": "Place de l'Europe - Quai de Bercy", "is_installed": "OUI", "capacity": 17, "numdocksavailable": 8, "numbikesavailable": 9, "mechanical": 7, "ebike": 2, "is_renting": "OUI", "is_returning": "OUI", "duedate": "2024-06-16T04:53:31+00:00", "coordonnees_geo": {"lon": 2.3945679143071175, "lat": 48.82529858840266}, "nom_arrondissement_communes": "Charenton-le-Pont", "code_insee_commune": null}, {"stationcode": "43001", "name": "Paris - Laiti\u00e8res", "is_installed": "OUI", "capacity": 22, "numdocksavailable": 14, "numbikesavailable": 8, "mechanical": 3, "ebike": 5, "is_renting": "OUI", "is_returning": "OUI", "duedate": "2024-06-16T04:47:28+00:00", "coordonnees_geo": {"lon": 2.4207553267478947, "lat": 48.84630274151258}, "nom_arrondissement_communes": "Vincennes", "code_insee_commune": null}, {"stationcode": "13106", "name": "Bobillot - Paulin Mery", "is_installed": "OUI", "capacity": 23, "numdocksavailable": 21, "numbikesavailable": 2, "mechanical": 1, "ebike": 1, "is_renting": "OUI", "is_returning": "OUI", "duedate": "2024-06-16T04:48:53+00:00", "coordonnees_geo": {"lon": 2.3543356766748507, "lat": 48.829899841747384}, "nom_arrondissement_communes": "Paris", "code_insee_commune": null}, {"stationcode": "15030", "name": "Emeriau - Beaugrenelle", "is_installed": "OUI", "capacity": 74, "numdocksavailable": 31, "numbikesavailable": 41, "mechanical": 38, "ebike": 3, "is_renting": "OUI", "is_returning": "OUI", "duedate": "2024-06-16T04:53:05+00:00", "coordonnees_geo": {"lon": 2.2843059897422795, "lat": 48.84791249714942}, "nom_arrondissement_communes": "Paris", "code_insee_commune": null}, {"stationcode": "9114", "name": "Faubourg Poissonni\u00e8re - Dunkerque", "is_installed": "OUI", "capacity": 30, "numdocksavailable": 15, "numbikesavailable": 15, "mechanical": 14, "ebike": 1, "is_renting": "OUI", "is_returning": "OUI", "duedate": "2024-06-16T04:54:13+00:00", "coordonnees_geo": {"lon": 2.349934279918671, "lat": 48.880883445404436}, "nom_arrondissement_communes": "Paris", "code_insee_commune": null}, {"stationcode": "16011", "name": "Victor Hugo - La Pompe", "is_installed": "OUI", "capacity": 41, "numdocksavailable": 32, "numbikesavailable": 9, "mechanical": 1, "ebike": 8, "is_renting": "OUI", "is_returning": "OUI", "duedate": "2024-06-16T04:52:08+00:00", "coordonnees_geo": {"lon": 2.28146318346262, "lat": 48.86795222470859}, "nom_arrondissement_communes": "Paris", "code_insee_commune": null}, {"stationcode": "12007", "name": "Gare de Lyon - Chalon", "is_installed": "OUI", "capacity": 45, "numdocksavailable": 36, "numbikesavailable": 8, "mechanical": 8, "ebike": 0, "is_renting": "OUI", "is_returning": "OUI", "duedate": "2024-06-16T04:50:36+00:00", "coordonnees_geo": {"lon": 2.3741452395916, "lat": 48.845666194202}, "nom_arrondissement_communes": "Paris", "code_insee_commune": null}, {"stationcode": "25001", "name": "Colmar - Victor Hugo", "is_installed": "OUI", "capacity": 32, "numdocksavailable": 27, "numbikesavailable": 3, "mechanical": 1, "ebike": 2, "is_renting": "OUI", "is_returning": "OUI", "duedate": "2024-06-16T04:52:36+00:00", "coordonnees_geo": {"lon": 2.173960916697979, "lat": 48.88652251096166}, "nom_arrondissement_communes": "Rueil-Malmaison", "code_insee_commune": null}, {"stationcode": "35007", "name": "Benjamin Delessert - Jean Lolive", "is_installed": "OUI", "capacity": 21, "numdocksavailable": 10, "numbikesavailable": 11, "mechanical": 2, "ebike": 9, "is_renting": "OUI", "is_returning": "OUI", "duedate": "2024-06-16T04:52:22+00:00", "coordonnees_geo": {"lon": 2.417981922626496, "lat": 48.89392043619345}, "nom_arrondissement_communes": "Pantin", "code_insee_commune": null}, {"stationcode": "47001", "name": "Place de la Gare", "is_installed": "OUI", "capacity": 46, "numdocksavailable": 5, "numbikesavailable": 41, "mechanical": 30, "ebike": 11, "is_renting": "OUI", "is_returning": "OUI", "duedate": "2024-06-16T04:54:16+00:00", "coordonnees_geo": {"lon": 2.4275037646293645, "lat": 48.80253358011283}, "nom_arrondissement_communes": "Maisons-Alfort", "code_insee_commune": null}, {"stationcode": "44101", "name": "Place Mongolfier", "is_installed": "OUI", "capacity": 39, "numdocksavailable": 5, "numbikesavailable": 34, "mechanical": 27, "ebike": 7, "is_renting": "OUI", "is_returning": "OUI", "duedate": "2024-06-16T04:52:59+00:00", "coordonnees_geo": {"lon": 2.4592879414558415, "lat": 48.815160030060376}, "nom_arrondissement_communes": "Saint-Maurice", "code_insee_commune": null}, {"stationcode": "13032", "name": "Italie - Jardin Joan Miro", "is_installed": "OUI", "capacity": 26, "numdocksavailable": 17, "numbikesavailable": 7, "mechanical": 3, "ebike": 4, "is_renting": "OUI", "is_returning": "OUI", "duedate": "2024-06-16T04:44:39+00:00", "coordonnees_geo": {"lon": 2.3592948541045193, "lat": 48.81990914045756}, "nom_arrondissement_communes": "Paris", "code_insee_commune": null}, {"stationcode": "10165", "name": "Gare de l'Est - Place du 11 Novembre 1918", "is_installed": "OUI", "capacity": 40, "numdocksavailable": 5, "numbikesavailable": 30, "mechanical": 22, "ebike": 8, "is_renting": "OUI", "is_returning": "OUI", "duedate": "2024-06-16T04:53:45+00:00", "coordonnees_geo": {"lon": 2.3585464, "lat": 48.876327}, "nom_arrondissement_communes": "Paris", "code_insee_commune": null}, {"stationcode": "92001", "name": "Mairie de quartier du Plateau - Mont-Val\u00e9rien", "is_installed": "OUI", "capacity": 20, "numdocksavailable": 16, "numbikesavailable": 4, "mechanical": 2, "ebike": 2, "is_renting": "OUI", "is_returning": "OUI", "duedate": "2024-06-16T04:44:46+00:00", "coordonnees_geo": {"lon": 2.2072437, "lat": 48.8799933}, "nom_arrondissement_communes": "Nanterre", "code_insee_commune": null}, {"stationcode": "21306", "name": "Place Lafayette", "is_installed": "OUI", "capacity": 62, "numdocksavailable": 43, "numbikesavailable": 18, "mechanical": 16, "ebike": 2, "is_renting": "OUI", "is_returning": "OUI", "duedate": "2024-06-16T04:54:21+00:00", "coordonnees_geo": {"lon": 2.2638675570488, "lat": 48.829654975522}, "nom_arrondissement_communes": "Issy-les-Moulineaux", "code_insee_commune": null}, {"stationcode": "43010", "name": "La Jarry - Place Diderot", "is_installed": "OUI", "capacity": 25, "numdocksavailable": 16, "numbikesavailable": 8, "mechanical": 4, "ebike": 4, "is_renting": "OUI", "is_returning": "OUI", "duedate": "2024-06-16T04:45:11+00:00", "coordonnees_geo": {"lon": 2.452013790607453, "lat": 48.849726940367326}, "nom_arrondissement_communes": "Vincennes", "code_insee_commune": null}, {"stationcode": "16002", "name": "Pergol\u00e8se - Malakoff", "is_installed": "OUI", "capacity": 38, "numdocksavailable": 29, "numbikesavailable": 6, "mechanical": 2, "ebike": 4, "is_renting": "OUI", "is_returning": "OUI", "duedate": "2024-06-16T04:51:30+00:00", "coordonnees_geo": {"lon": 2.2842781618237495, "lat": 48.87521088779225}, "nom_arrondissement_communes": "Paris", "code_insee_commune": null}, {"stationcode": "15004", "name": "Vaugirard - Pasteur", "is_installed": "OUI", "capacity": 21, "numdocksavailable": 6, "numbikesavailable": 14, "mechanical": 5, "ebike": 9, "is_renting": "OUI", "is_returning": "OUI", "duedate": "2024-06-16T04:53:23+00:00", "coordonnees_geo": {"lon": 2.3154367133975033, "lat": 48.84040868803496}, "nom_arrondissement_communes": "Paris", "code_insee_commune": null}, {"stationcode": "6027", "name": "Blaise-Desgoffe - Vaugirard", "is_installed": "OUI", "capacity": 32, "numdocksavailable": 15, "numbikesavailable": 16, "mechanical": 11, "ebike": 5, "is_renting": "OUI", "is_returning": "OUI", "duedate": "2024-06-16T04:53:18+00:00", "coordonnees_geo": {"lon": 2.3242672160268, "lat": 48.846128877747}, "nom_arrondissement_communes": "Paris", "code_insee_commune": null}, {"stationcode": "19128", "name": "Quai de l'Oise - Aisne", "is_installed": "OUI", "capacity": 30, "numdocksavailable": 8, "numbikesavailable": 19, "mechanical": 6, "ebike": 13, "is_renting": "OUI", "is_returning": "OUI", "duedate": "2024-06-16T04:52:53+00:00", "coordonnees_geo": {"lon": 2.3833701, "lat": 48.8906231}, "nom_arrondissement_communes": "Paris", "code_insee_commune": null}, {"stationcode": "18006", "name": "Square Louise Michel", "is_installed": "OUI", "capacity": 36, "numdocksavailable": 22, "numbikesavailable": 11, "mechanical": 9, "ebike": 2, "is_renting": "OUI", "is_returning": "OUI", "duedate": "2024-06-16T04:49:52+00:00", "coordonnees_geo": {"lon": 2.3441386967897, "lat": 48.884687354509}, "nom_arrondissement_communes": "Paris", "code_insee_commune": null}, {"stationcode": "23004", "name": "Paul Vaillant-Couturier - Victor Hugo", "is_installed": "OUI", "capacity": 36, "numdocksavailable": 13, "numbikesavailable": 23, "mechanical": 8, "ebike": 15, "is_renting": "OUI", "is_returning": "OUI", "duedate": "2024-06-16T04:54:21+00:00", "coordonnees_geo": {"lon": 2.293848017974069, "lat": 48.89819702263572}, "nom_arrondissement_communes": "Levallois-Perret", "code_insee_commune": null}, {"stationcode": "23004", "name": "Paul Vaillant-Couturier - Victor Hugo", "is_installed": "OUI", "capacity": 36, "numdocksavailable": 13, "numbikesavailable": 23, "mechanical": 8, "ebike": 15, "is_renting": "OUI", "is_returning": "OUI", "duedate": "2024-06-16T04:54:21+00:00", "coordonnees_geo": {"lon": 2.293848017974069, "lat": 48.89819702263572}, "nom_arrondissement_communes": "Levallois-Perret", "code_insee_commune": null}, {"stationcode": "16001", "name": "Portugais - Kl\u00e9ber", "is_installed": "OUI", "capacity": 26, "numdocksavailable": 22, "numbikesavailable": 4, "mechanical": 1, "ebike": 3, "is_renting": "OUI", "is_returning": "OUI", "duedate": "2024-06-16T04:46:35+00:00", "coordonnees_geo": {"lon": 2.2937349, "lat": 48.8712148}, "nom_arrondissement_communes": "Paris", "code_insee_commune": null}, {"stationcode": "11017", "name": "Charonne - Bureau", "is_installed": "OUI", "capacity": 47, "numdocksavailable": 46, "numbikesavailable": 0, "mechanical": 0, "ebike": 0, "is_renting": "OUI", "is_returning": "OUI", "duedate": "2024-06-16T04:48:30+00:00", "coordonnees_geo": {"lon": 2.396093, "lat": 48.854176}, "nom_arrondissement_communes": "Paris", "code_insee_commune": null}, {"stationcode": "1021", "name": "Halles - Bourdonnais", "is_installed": "OUI", "capacity": 20, "numdocksavailable": 17, "numbikesavailable": 3, "mechanical": 1, "ebike": 2, "is_renting": "OUI", "is_returning": "OUI", "duedate": "2024-06-16T04:50:03+00:00", "coordonnees_geo": {"lon": 2.3460162431002, "lat": 48.860448992575}, "nom_arrondissement_communes": "Paris", "code_insee_commune": null}, {"stationcode": "33015", "name": "Charles Tillon - Cimeti\u00e8re Communal", "is_installed": "OUI", "capacity": 30, "numdocksavailable": 7, "numbikesavailable": 23, "mechanical": 15, "ebike": 8, "is_renting": "OUI", "is_returning": "OUI", "duedate": "2024-06-16T04:53:59+00:00", "coordonnees_geo": {"lon": 2.3935630917549138, "lat": 48.91844023641836}, "nom_arrondissement_communes": "Aubervilliers", "code_insee_commune": null}, {"stationcode": "7017", "name": "La Motte-Picquet - La Tour Maubourg", "is_installed": "OUI", "capacity": 40, "numdocksavailable": 1, "numbikesavailable": 38, "mechanical": 33, "ebike": 5, "is_renting": "OUI", "is_returning": "OUI", "duedate": "2024-06-16T04:54:05+00:00", "coordonnees_geo": {"lon": 2.3096215831203, "lat": 48.856926701847}, "nom_arrondissement_communes": "Paris", "code_insee_commune": null}, {"stationcode": "15311", "name": "Quai du Pr\u00e9sident Roosevelt - Pont Aval", "is_installed": "OUI", "capacity": 30, "numdocksavailable": 13, "numbikesavailable": 17, "mechanical": 14, "ebike": 3, "is_renting": "OUI", "is_returning": "OUI", "duedate": "2024-06-16T04:53:55+00:00", "coordonnees_geo": {"lon": 2.2656820714473724, "lat": 48.8343883676388}, "nom_arrondissement_communes": "Paris", "code_insee_commune": null}, {"stationcode": "35006", "name": "Delizy - Louis Nadot", "is_installed": "OUI", "capacity": 22, "numdocksavailable": 11, "numbikesavailable": 10, "mechanical": 8, "ebike": 2, "is_renting": "OUI", "is_returning": "OUI", "duedate": "2024-06-16T04:54:33+00:00", "coordonnees_geo": {"lon": 2.4094578623771667, "lat": 48.896212845581346}, "nom_arrondissement_communes": "Pantin", "code_insee_commune": null}, {"stationcode": "12018", "name": "Saint-Mand\u00e9 - Fabre d'Eglantine", "is_installed": "OUI", "capacity": 34, "numdocksavailable": 18, "numbikesavailable": 16, "mechanical": 11, "ebike": 5, "is_renting": "OUI", "is_returning": "OUI", "duedate": "2024-06-16T04:53:05+00:00", "coordonnees_geo": {"lon": 2.3965022, "lat": 48.8453579}, "nom_arrondissement_communes": "Paris", "code_insee_commune": null}]