[{"stationcode": "15019", "name": "Paul Barruel - Vaugirard", "is_installed": "OUI", "capacity": 39, "numdocksavailable": 37, "numbikesavailable": 2, "mechanical": 0, "ebike": 2, "is_renting": "OUI", "is_returning": "OUI", "duedate": "2024-06-14T12:49:31+00:00", "coordonnees_geo": {"lon": 2.3044332861900334, "lat": 48.84014918546239}, "nom_arrondissement_communes": "Paris", "code_insee_commune": null}, {"stationcode": "20004", "name": "Commandant l'Herminier - Gallieni", "is_installed": "OUI", "capacity": 17, "numdocksavailable": 13, "numbikesavailable": 4, "mechanical": 4, "ebike": 0, "is_renting": "OUI", "is_returning": "OUI", "duedate": "2024-06-14T12:49:52+00:00", "coordonnees_geo": {"lon": 2.4160453677177, "lat": 48.847040552603}, "nom_arrondissement_communes": "Paris", "code_insee_commune": null}, {"stationcode": "13515", "name": "Auguste Blanqui - Glaci\u00e8re", "is_installed": "OUI", "capacity": 60, "numdocksavailable": 47, "numbikesavailable": 12, "mechanical": 8, "ebike": 4, "is_renting": "OUI", "is_returning": "OUI", "duedate": "2024-06-14T12:48:58+00:00", "coordonnees_geo": {"lon": 2.343822196126, "lat": 48.831151602964}, "nom_arrondissement_communes": "Paris", "code_insee_commune": null}, {"stationcode": "10110", "name": "Louis Blanc - Jemmapes", "is_installed": "OUI", "capacity": 31, "numdocksavailable": 21, "numbikesavailable": 4, "mechanical": 1, "ebike": 3, "is_renting": "OUI", "is_returning": "OUI", "duedate": "2024-06-14T12:48:10+00:00", "coordonnees_geo": {"lon": 2.368448562920093, "lat": 48.879330755297346}, "nom_arrondissement_communes": "Paris", "code_insee_commune": null}, {"stationcode": "15131", "name": "Charles Lecocq - Lecourbe", "is_installed": "OUI", "capacity": 30, "numdocksavailable": 20, "numbikesavailable": 10, "mechanical": 8, "ebike": 2, "is_renting": "OUI", "is_returning": "OUI", "duedate": "2024-06-14T12:45:56+00:00", "coordonnees_geo": {"lon": 2.294867, "lat": 48.84044}, "nom_arrondissement_communes": "Paris", "code_insee_commune": null}, {"stationcode": "10037", "name": "Quai de Valmy", "is_installed": "OUI", "capacity": 26, "numdocksavailable": 26, "numbikesavailable": 0, "mechanical": 0, "ebike": 0, "is_renting": "OUI", "is_returning": "OUI", "duedate": "2024-06-14T12:40:50+00:00", "coordonnees_geo": {"lon": 2.368186041712761, "lat": 48.88126951579429}, "nom_arrondissement_communes": "Paris", "code_insee_commune": null}, {"stationcode": "9036", "name": "Ath\u00e8nes - Clichy", "is_installed": "OUI", "capacity": 20, "numdocksavailable": 16, "numbikesavailable": 3, "mechanical": 1, "ebike": 2, "is_renting": "OUI", "is_returning": "OUI", "duedate": "2024-06-14T12:46:13+00:00", "coordonnees_geo": {"lon": 2.32956021945824, "lat": 48.878113787876}, "nom_arrondissement_communes": "Paris", "code_insee_commune": null}, {"stationcode": "15125", "name": "Parc Suzanne Lenglen", "is_installed": "OUI", "capacity": 52, "numdocksavailable": 19, "numbikesavailable": 33, "mechanical": 27, "ebike": 6, "is_renting": "OUI", "is_returning": "OUI", "duedate": "2024-06-14T12:48:50+00:00", "coordonnees_geo": {"lon": 2.2765403240919113, "lat": 48.833250690537874}, "nom_arrondissement_communes": "Paris", "code_insee_commune": null}, {"stationcode": "13027", "name": "Mazagran - Pierre de Coubertin", "is_installed": "OUI", "capacity": 15, "numdocksavailable": 13, "numbikesavailable": 2, "mechanical": 0, "ebike": 2, "is_renting": "OUI", "is_returning": "OUI", "duedate": "2024-06-14T12:40:17+00:00", "coordonnees_geo": {"lon": 2.344226874411106, "lat": 48.816218640260445}, "nom_arrondissement_communes": "Paris", "code_insee_commune": null}, {"stationcode": "17029", "name": "Pierre Demours - Laugier", "is_installed": "OUI", "capacity": 37, "numdocksavailable": 32, "numbikesavailable": 5, "mechanical": 3, "ebike": 2, "is_renting": "OUI", "is_returning": "OUI", "duedate": "2024-06-14T12:48:23+00:00", "coordonnees_geo": {"lon": 2.294846, "lat": 48.8813072}, "nom_arrondissement_communes": "Paris", "code_insee_commune": null}, {"stationcode": "11103", "name": "Pel\u00e9e - Alphonse Baudin", "is_installed": "OUI", "capacity": 38, "numdocksavailable": 12, "numbikesavailable": 26, "mechanical": 24, "ebike": 2, "is_renting": "OUI", "is_returning": "OUI", "duedate": "2024-06-14T12:49:55+00:00", "coordonnees_geo": {"lon": 2.3710541, "lat": 48.8600265}, "nom_arrondissement_communes": "Paris", "code_insee_commune": null}, {"stationcode": "21203", "name": "Place Jules Ferry", "is_installed": "OUI", "capacity": 28, "numdocksavailable": 24, "numbikesavailable": 3, "mechanical": 2, "ebike": 1, "is_renting": "OUI", "is_returning": "OUI", "duedate": "2024-06-14T12:47:55+00:00", "coordonnees_geo": {"lon": 2.325837314128876, "lat": 48.812107928414775}, "nom_arrondissement_communes": "Montrouge", "code_insee_commune": null}, {"stationcode": "10017", "name": "Gare de l'Est - Fid\u00e9lit\u00e9", "is_installed": "OUI", "capacity": 15, "numdocksavailable": 5, "numbikesavailable": 6, "mechanical": 5, "ebike": 1, "is_renting": "OUI", "is_returning": "OUI", "duedate": "2024-06-14T12:49:59+00:00", "coordonnees_geo": {"lon": 2.356796, "lat": 48.874575}, "nom_arrondissement_communes": "Paris", "code_insee_commune": null}, {"stationcode": "22013", "name": "Mairie de Neuilly sur Seine", "is_installed": "OUI", "capacity": 31, "numdocksavailable": 17, "numbikesavailable": 12, "mechanical": 3, "ebike": 9, "is_renting": "OUI", "is_returning": "OUI", "duedate": "2024-06-14T12:49:48+00:00", "coordonnees_geo": {"lon": 2.2677031159400944, "lat": 48.88494728765838}, "nom_arrondissement_communes": "Neuilly-sur-Seine", "code_insee_commune": null}, {"stationcode": "19025", "name": "Botzaris - Crim\u00e9e", "is_installed": "OUI", "capacity": 21, "numdocksavailable": 16, "numbikesavailable": 5, "mechanical": 0, "ebike": 5, "is_renting": "OUI", "is_returning": "OUI", "duedate": "2024-06-14T12:45:37+00:00", "coordonnees_geo": {"lon": 2.3887913337477067, "lat": 48.87959698690176}, "nom_arrondissement_communes": "Paris", "code_insee_commune": null}, {"stationcode": "16009", "name": "Saint-Didier - Raymond Poincar\u00e9", "is_installed": "OUI", "capacity": 17, "numdocksavailable": 17, "numbikesavailable": 0, "mechanical": 0, "ebike": 0, "is_renting": "OUI", "is_returning": "OUI", "duedate": "2024-06-14T12:40:13+00:00", "coordonnees_geo": {"lon": 2.285863497192411, "lat": 48.86642312020962}, "nom_arrondissement_communes": "Paris", "code_insee_commune": null}, {"stationcode": "16014", "name": "Eylau - Trocad\u00e9ro", "is_installed": "OUI", "capacity": 24, "numdocksavailable": 19, "numbikesavailable": 5, "mechanical": 0, "ebike": 5, "is_renting": "OUI", "is_returning": "OUI", "duedate": "2024-06-14T12:42:46+00:00", "coordonnees_geo": {"lon": 2.2864209115505, "lat": 48.863354122371}, "nom_arrondissement_communes": "Paris", "code_insee_commune": null}, {"stationcode": "21708", "name": "Marcel Yol - Jullien", "is_installed": "OUI", "capacity": 30, "numdocksavailable": 26, "numbikesavailable": 2, "mechanical": 2, "ebike": 0, "is_renting": "OUI", "is_returning": "OUI", "duedate": "2024-06-14T12:42:49+00:00", "coordonnees_geo": {"lon": 2.287235018058929, "lat": 48.82537611802588}, "nom_arrondissement_communes": "Vanves", "code_insee_commune": null}, {"stationcode": "13048", "name": "Wurtz - Tolbiac", "is_installed": "OUI", "capacity": 28, "numdocksavailable": 27, "numbikesavailable": 1, "mechanical": 0, "ebike": 1, "is_renting": "OUI", "is_returning": "OUI", "duedate": "2024-06-14T12:49:49+00:00", "coordonnees_geo": {"lon": 2.344585955142975, "lat": 48.82631195621006}, "nom_arrondissement_communes": "Paris", "code_insee_commune": null}, {"stationcode": "41210", "name": "H\u00f4tel de ville de Fontenay-sous-Bois", "is_installed": "OUI", "capacity": 20, "numdocksavailable": 19, "numbikesavailable": 1, "mechanical": 0, "ebike": 1, "is_renting": "OUI", "is_returning": "OUI", "duedate": "2024-06-14T12:47:38+00:00", "coordonnees_geo": {"lon": 2.4750164151191716, "lat": 48.84949749106274}, "nom_arrondissement_communes": "Fontenay-sous-Bois", "code_insee_commune": null}, {"stationcode": "42304", "name": "Marc Sangnier - Division Leclerc", "is_installed": "OUI", "capacity": 24, "numdocksavailable": 12, "numbikesavailable": 11, "mechanical": 9, "ebike": 2, "is_renting": "OUI", "is_returning": "OUI", "duedate": "2024-06-14T12:44:16+00:00", "coordonnees_geo": {"lon": 2.329955510795116, "lat": 48.78599652305309}, "nom_arrondissement_communes": "Cachan", "code_insee_commune": null}, {"stationcode": "11109", "name": "Pierre Lev\u00e9e - Fontaine Timbaud", "is_installed": "OUI", "capacity": 23, "numdocksavailable": 11, "numbikesavailable": 10, "mechanical": 3, "ebike": 7, "is_renting": "OUI", "is_returning": "OUI", "duedate": "2024-06-14T12:43:59+00:00", "coordonnees_geo": {"lon": 2.3711163550615306, "lat": 48.86632723374305}, "nom_arrondissement_communes": "Paris", "code_insee_commune": null}, {"stationcode": "21307", "name": "Victor Cresson - Telles de la Poterie", "is_installed": "OUI", "capacity": 31, "numdocksavailable": 8, "numbikesavailable": 23, "mechanical": 23, "ebike": 0, "is_renting": "OUI", "is_returning": "OUI", "duedate": "2024-06-14T12:48:04+00:00", "coordonnees_geo": {"lon": 2.2686498274964, "lat": 48.822698842979}, "nom_arrondissement_communes": "Issy-les-Moulineaux", "code_insee_commune": null}, {"stationcode": "15052", "name": "Convention - Vaugirard", "is_installed": "OUI", "capacity": 48, "numdocksavailable": 32, "numbikesavailable": 16, "mechanical": 13, "ebike": 3, "is_renting": "OUI", "is_returning": "OUI", "duedate": "2024-06-14T12:48:15+00:00", "coordonnees_geo": {"lon": 2.295586926020252, "lat": 48.83767682233156}, "nom_arrondissement_communes": "Paris", "code_insee_commune": null}, {"stationcode": "44002", "name": "Paul Vaillant-Couturier - Gare RER", "is_installed": "OUI", "capacity": 26, "numdocksavailable": 9, "numbikesavailable": 17, "mechanical": 16, "ebike": 1, "is_renting": "OUI", "is_returning": "OUI", "duedate": "2024-06-14T12:48:45+00:00", "coordonnees_geo": {"lon": 2.402097210288048, "lat": 48.80108159069614}, "nom_arrondissement_communes": "Vitry-sur-Seine", "code_insee_commune": null}, {"stationcode": "16115", "name": "Raffet - Montmorency", "is_installed": "OUI", "capacity": 42, "numdocksavailable": 26, "numbikesavailable": 15, "mechanical": 3, "ebike": 12, "is_renting": "OUI", "is_returning": "OUI", "duedate": "2024-06-14T12:48:37+00:00", "coordonnees_geo": {"lon": 2.2629252456151954, "lat": 48.85258670812}, "nom_arrondissement_communes": "Paris", "code_insee_commune": null}, {"stationcode": "15123", "name": "Commerce - Letellier", "is_installed": "OUI", "capacity": 44, "numdocksavailable": 13, "numbikesavailable": 31, "mechanical": 28, "ebike": 3, "is_renting": "OUI", "is_returning": "OUI", "duedate": "2024-06-14T12:49:43+00:00", "coordonnees_geo": {"lon": 2.2966245196598805, "lat": 48.84797660373612}, "nom_arrondissement_communes": "Paris", "code_insee_commune": null}, {"stationcode": "21030", "name": "Fessart - Ch\u00e2teau", "is_installed": "OUI", "capacity": 20, "numdocksavailable": 16, "numbikesavailable": 4, "mechanical": 1, "ebike": 3, "is_renting": "OUI", "is_returning": "OUI", "duedate": "2024-06-14T12:49:03+00:00", "coordonnees_geo": {"lon": 2.23989, "lat": 48.84245}, "nom_arrondissement_communes": "Boulogne-Billancourt", "code_insee_commune": null}, {"stationcode": "21031", "name": "Cimeti\u00e8re de Boulogne-Billancourt", "is_installed": "OUI", "capacity": 40, "numdocksavailable": 19, "numbikesavailable": 21, "mechanical": 18, "ebike": 3, "is_renting": "OUI", "is_returning": "OUI", "duedate": "2024-06-14T12:45:20+00:00", "coordonnees_geo": {"lon": 2.252024, "lat": 48.830764}, "nom_arrondissement_communes": "Boulogne-Billancourt", "code_insee_commune": null}, {"stationcode": "16024", "name": "Ranelagh - Maison de la Radio", "is_installed": "OUI", "capacity": 22, "numdocksavailable": 14, "numbikesavailable": 8, "mechanical": 6, "ebike": 2, "is_renting": "OUI", "is_returning": "OUI", "duedate": "2024-06-14T12:47:30+00:00", "coordonnees_geo": {"lon": 2.280449643731117, "lat": 48.85293603169479}, "nom_arrondissement_communes": "Paris", "code_insee_commune": null}, {"stationcode": "15043", "name": "Brancion - Lefebvre", "is_installed": "OUI", "capacity": 11, "numdocksavailable": 0, "numbikesavailable": 8, "mechanical": 3, "ebike": 5, "is_renting": "OUI", "is_returning": "OUI", "duedate": "2024-06-14T12:49:18+00:00", "coordonnees_geo": {"lon": 2.301431038163409, "lat": 48.82900222785569}, "nom_arrondissement_communes": "Paris", "code_insee_commune": null}, {"stationcode": "22604", "name": "H\u00f4tel de Ville de Fontenay-aux-Roses", "is_installed": "OUI", "capacity": 34, "numdocksavailable": 31, "numbikesavailable": 3, "mechanical": 0, "ebike": 3, "is_renting": "OUI", "is_returning": "OUI", "duedate": "2024-06-14T12:47:41+00:00", "coordonnees_geo": {"lon": 2.2871455930319455, "lat": 48.790844603480856}, "nom_arrondissement_communes": "Fontenay-aux-Roses", "code_insee_commune": null}, {"stationcode": "20009", "name": "Docteurs D\u00e9j\u00e9rine - Pte de Montreuil", "is_installed": "OUI", "capacity": 20, "numdocksavailable": 12, "numbikesavailable": 8, "mechanical": 1, "ebike": 7, "is_renting": "OUI", "is_returning": "OUI", "duedate": "2024-06-14T12:49:05+00:00", "coordonnees_geo": {"lon": 2.41208288897222, "lat": 48.85398448133697}, "nom_arrondissement_communes": "Paris", "code_insee_commune": null}, {"stationcode": "10012", "name": "Vinaigriers - Magenta", "is_installed": "OUI", "capacity": 25, "numdocksavailable": 11, "numbikesavailable": 12, "mechanical": 10, "ebike": 2, "is_renting": "OUI", "is_returning": "OUI", "duedate": "2024-06-14T12:49:09+00:00", "coordonnees_geo": {"lon": 2.3593052, "lat": 48.8731167}, "nom_arrondissement_communes": "Paris", "code_insee_commune": null}, {"stationcode": "8001", "name": "Petit Palais", "is_installed": "OUI", "capacity": 46, "numdocksavailable": 23, "numbikesavailable": 23, "mechanical": 17, "ebike": 6, "is_renting": "OUI", "is_returning": "OUI", "duedate": "2024-06-14T12:48:08+00:00", "coordonnees_geo": {"lon": 2.3157655, "lat": 48.8667692}, "nom_arrondissement_communes": "Paris", "code_insee_commune": null}, {"stationcode": "16101", "name": "Malakoff - Place de la Porte Maillot", "is_installed": "OUI", "capacity": 31, "numdocksavailable": 22, "numbikesavailable": 8, "mechanical": 7, "ebike": 1, "is_renting": "OUI", "is_returning": "OUI", "duedate": "2024-06-14T12:41:51+00:00", "coordonnees_geo": {"lon": 2.2834577411413193, "lat": 48.876733496637506}, "nom_arrondissement_communes": "Paris", "code_insee_commune": null}, {"stationcode": "42305", "name": "Vanne - Saussaies", "is_installed": "OUI", "capacity": 20, "numdocksavailable": 17, "numbikesavailable": 3, "mechanical": 1, "ebike": 2, "is_renting": "OUI", "is_returning": "OUI", "duedate": "2024-06-14T12:40:39+00:00", "coordonnees_geo": {"lon": 2.338848, "lat": 48.786404}, "nom_arrondissement_communes": "Cachan", "code_insee_commune": null}, {"stationcode": "21028", "name": "Pierre Lefaucheux - Traversi\u00e8re", "is_installed": "OUI", "capacity": 35, "numdocksavailable": 7, "numbikesavailable": 27, "mechanical": 22, "ebike": 5, "is_renting": "OUI", "is_returning": "OUI", "duedate": "2024-06-14T12:47:34+00:00", "coordonnees_geo": {"lon": 2.2417913004755974, "lat": 48.82435208303827}, "nom_arrondissement_communes": "Boulogne-Billancourt", "code_insee_commune": null}, {"stationcode": "20007", "name": "Buzenval - Avron", "is_installed": "OUI", "capacity": 50, "numdocksavailable": 43, "numbikesavailable": 7, "mechanical": 1, "ebike": 6, "is_renting": "OUI", "is_returning": "OUI", "duedate": "2024-06-14T12:48:11+00:00", "coordonnees_geo": {"lon": 2.401513597307666, "lat": 48.851617204998654}, "nom_arrondissement_communes": "Paris", "code_insee_commune": null}, {"stationcode": "32301", "name": "Mairie de Romainville", "is_installed": "OUI", "capacity": 17, "numdocksavailable": 10, "numbikesavailable": 6, "mechanical": 1, "ebike": 5, "is_renting": "OUI", "is_returning": "OUI", "duedate": "2024-06-14T12:47:34+00:00", "coordonnees_geo": {"lon": 2.435679, "lat": 48.885109}, "nom_arrondissement_communes": "Romainville", "code_insee_commune": null}, {"stationcode": "20108", "name": "Jardin de l'Hospice Debrousse", "is_installed": "OUI", "capacity": 23, "numdocksavailable": 22, "numbikesavailable": 1, "mechanical": 0, "ebike": 1, "is_renting": "OUI", "is_returning": "OUI", "duedate": "2024-06-14T12:45:37+00:00", "coordonnees_geo": {"lon": 2.40568600595, "lat": 48.861451061938}, "nom_arrondissement_communes": "Paris", "code_insee_commune": null}, {"stationcode": "21219", "name": "Amaury Duval - Gabriel P\u00e9ri", "is_installed": "OUI", "capacity": 36, "numdocksavailable": 31, "numbikesavailable": 5, "mechanical": 4, "ebike": 1, "is_renting": "OUI", "is_returning": "OUI", "duedate": "2024-06-14T12:45:54+00:00", "coordonnees_geo": {"lon": 2.323841750621796, "lat": 48.81718759671675}, "nom_arrondissement_communes": "Montrouge", "code_insee_commune": null}, {"stationcode": "42701", "name": "Charles Gide - Fort de Bic\u00eatre", "is_installed": "OUI", "capacity": 30, "numdocksavailable": 27, "numbikesavailable": 3, "mechanical": 0, "ebike": 3, "is_renting": "OUI", "is_returning": "OUI", "duedate": "2024-06-14T12:49:10+00:00", "coordonnees_geo": {"lon": 2.353984415531159, "lat": 48.8071937956922}, "nom_arrondissement_communes": "Le Kremlin-Bic\u00eatre", "code_insee_commune": null}, {"stationcode": "16020", "name": "Place de la Porte de Passy", "is_installed": "OUI", "capacity": 36, "numdocksavailable": 31, "numbikesavailable": 5, "mechanical": 2, "ebike": 3, "is_renting": "OUI", "is_returning": "OUI", "duedate": "2024-06-14T12:49:29+00:00", "coordonnees_geo": {"lon": 2.2644165538827115, "lat": 48.857341095470794}, "nom_arrondissement_communes": "Paris", "code_insee_commune": null}, {"stationcode": "18027", "name": "Damr\u00e9mont - Ordener", "is_installed": "OUI", "capacity": 30, "numdocksavailable": 24, "numbikesavailable": 2, "mechanical": 0, "ebike": 2, "is_renting": "OUI", "is_returning": "OUI", "duedate": "2024-06-14T12:47:45+00:00", "coordonnees_geo": {"lon": 2.336266523912805, "lat": 48.893400392981874}, "nom_arrondissement_communes": "Paris", "code_insee_commune": null}, {"stationcode": "13126", "name": "Place Nationale - Ch\u00e2teau-des-Rentiers", "is_installed": "OUI", "capacity": 18, "numdocksavailable": 12, "numbikesavailable": 5, "mechanical": 2, "ebike": 3, "is_renting": "OUI", "is_returning": "OUI", "duedate": "2024-06-14T12:45:09+00:00", "coordonnees_geo": {"lon": 2.365212, "lat": 48.829268}, "nom_arrondissement_communes": "Paris", "code_insee_commune": null}, {"stationcode": "8020", "name": "Batignolles - Beudant", "is_installed": "OUI", "capacity": 44, "numdocksavailable": 40, "numbikesavailable": 3, "mechanical": 0, "ebike": 3, "is_renting": "OUI", "is_returning": "OUI", "duedate": "2024-06-14T12:46:39+00:00", "coordonnees_geo": {"lon": 2.319852970540523, "lat": 48.88216401466375}, "nom_arrondissement_communes": "Paris", "code_insee_commune": null}, {"stationcode": "42003", "name": "Place de l'Insurrection d'Ao\u00fbt 1944", "is_installed": "OUI", "capacity": 30, "numdocksavailable": 12, "numbikesavailable": 18, "mechanical": 16, "ebike": 2, "is_renting": "OUI", "is_returning": "OUI", "duedate": "2024-06-14T12:48:53+00:00", "coordonnees_geo": {"lon": 2.398074567317963, "lat": 48.81477852751594}, "nom_arrondissement_communes": "Ivry-sur-Seine", "code_insee_commune": null}, {"stationcode": "13128", "name": "Quai de la Gare - Pont de Bercy", "is_installed": "OUI", "capacity": 30, "numdocksavailable": 0, "numbikesavailable": 28, "mechanical": 14, "ebike": 14, "is_renting": "OUI", "is_returning": "OUI", "duedate": "2024-06-14T12:46:51+00:00", "coordonnees_geo": {"lon": 2.3740861260598, "lat": 48.83730787972}, "nom_arrondissement_communes": "Paris", "code_insee_commune": null}, {"stationcode": "14010", "name": "Jean Moulin - Place Victor et H\u00e9l\u00e8ne Basch", "is_installed": "OUI", "capacity": 41, "numdocksavailable": 40, "numbikesavailable": 0, "mechanical": 0, "ebike": 0, "is_renting": "OUI", "is_returning": "OUI", "duedate": "2024-06-14T12:48:31+00:00", "coordonnees_geo": {"lon": 2.3261967301369, "lat": 48.82764910241}, "nom_arrondissement_communes": "Paris", "code_insee_commune": null}, {"stationcode": "19108", "name": "Gaston Tessier - Rosa Parks RER", "is_installed": "OUI", "capacity": 37, "numdocksavailable": 16, "numbikesavailable": 20, "mechanical": 6, "ebike": 14, "is_renting": "OUI", "is_returning": "OUI", "duedate": "2024-06-14T12:50:00+00:00", "coordonnees_geo": {"lon": 2.3743692, "lat": 48.8963765}, "nom_arrondissement_communes": "Paris", "code_insee_commune": null}, {"stationcode": "4002", "name": "March\u00e9 aux fleurs", "is_installed": "OUI", "capacity": 23, "numdocksavailable": 6, "numbikesavailable": 17, "mechanical": 17, "ebike": 0, "is_renting": "OUI", "is_returning": "OUI", "duedate": "2024-06-14T12:48:38+00:00", "coordonnees_geo": {"lon": 2.3473754525185, "lat": 48.855258115391}, "nom_arrondissement_communes": "Paris", "code_insee_commune": null}, {"stationcode": "44007", "name": "Camille Groult - Guy M\u00f4quet", "is_installed": "OUI", "capacity": 22, "numdocksavailable": 9, "numbikesavailable": 13, "mechanical": 11, "ebike": 2, "is_renting": "OUI", "is_returning": "OUI", "duedate": "2024-06-14T12:47:54+00:00", "coordonnees_geo": {"lon": 2.3976725712418556, "lat": 48.787482746521306}, "nom_arrondissement_communes": "Vitry-sur-Seine", "code_insee_commune": null}, {"stationcode": "10105", "name": "Mazagran - Bonne Nouvelle", "is_installed": "OUI", "capacity": 25, "numdocksavailable": 16, "numbikesavailable": 8, "mechanical": 2, "ebike": 6, "is_renting": "OUI", "is_returning": "OUI", "duedate": "2024-06-14T12:49:03+00:00", "coordonnees_geo": {"lon": 2.3511248454452, "lat": 48.870047123655}, "nom_arrondissement_communes": "Paris", "code_insee_commune": null}, {"stationcode": "21204", "name": "Estienne d'Orves - Henri Ginoux", "is_installed": "OUI", "capacity": 31, "numdocksavailable": 30, "numbikesavailable": 0, "mechanical": 0, "ebike": 0, "is_renting": "OUI", "is_returning": "OUI", "duedate": "2024-06-14T12:49:43+00:00", "coordonnees_geo": {"lon": 2.320886790760933, "lat": 48.815388220397274}, "nom_arrondissement_communes": "Montrouge", "code_insee_commune": null}, {"stationcode": "42209", "name": "Place de l'Europe - Quai de Bercy", "is_installed": "OUI", "capacity": 17, "numdocksavailable": 0, "numbikesavailable": 17, "mechanical": 13, "ebike": 4, "is_renting": "OUI", "is_returning": "OUI", "duedate": "2024-06-14T12:49:20+00:00", "coordonnees_geo": {"lon": 2.3945679143071175, "lat": 48.82529858840266}, "nom_arrondissement_communes": "Charenton-le-Pont", "code_insee_commune": null}, {"stationcode": "22206", "name": "Louis Pasteur - Albert Petit", "is_installed": "OUI", "capacity": 31, "numdocksavailable": 28, "numbikesavailable": 3, "mechanical": 2, "ebike": 1, "is_renting": "OUI", "is_returning": "OUI", "duedate": "2024-06-14T12:49:59+00:00", "coordonnees_geo": {"lon": 2.317289, "lat": 48.796261}, "nom_arrondissement_communes": "Bagneux", "code_insee_commune": null}, {"stationcode": "11021", "name": "Charonne - Pierre Bayle", "is_installed": "OUI", "capacity": 23, "numdocksavailable": 21, "numbikesavailable": 1, "mechanical": 0, "ebike": 1, "is_renting": "OUI", "is_returning": "OUI", "duedate": "2024-06-14T12:48:30+00:00", "coordonnees_geo": {"lon": 2.3903981223891, "lat": 48.858445054262}, "nom_arrondissement_communes": "Paris", "code_insee_commune": null}, {"stationcode": "21217", "name": "Louis Rolland - R\u00e9publique", "is_installed": "OUI", "capacity": 26, "numdocksavailable": 22, "numbikesavailable": 4, "mechanical": 2, "ebike": 2, "is_renting": "OUI", "is_returning": "OUI", "duedate": "2024-06-14T12:48:24+00:00", "coordonnees_geo": {"lon": 2.3193106434955717, "lat": 48.81710889740748}, "nom_arrondissement_communes": "Montrouge", "code_insee_commune": null}, {"stationcode": "15064", "name": "Javel - Andr\u00e9 Citro\u00ebn", "is_installed": "OUI", "capacity": 45, "numdocksavailable": 11, "numbikesavailable": 34, "mechanical": 29, "ebike": 5, "is_renting": "OUI", "is_returning": "OUI", "duedate": "2024-06-14T12:46:41+00:00", "coordonnees_geo": {"lon": 2.2786368057131767, "lat": 48.846276485475}, "nom_arrondissement_communes": "Paris", "code_insee_commune": null}, {"stationcode": "15030", "name": "Emeriau - Beaugrenelle", "is_installed": "OUI", "capacity": 74, "numdocksavailable": 3, "numbikesavailable": 70, "mechanical": 64, "ebike": 6, "is_renting": "OUI", "is_returning": "OUI", "duedate": "2024-06-14T12:48:32+00:00", "coordonnees_geo": {"lon": 2.2843059897422795, "lat": 48.84791249714942}, "nom_arrondissement_communes": "Paris", "code_insee_commune": null}, {"stationcode": "12007", "name": "Gare de Lyon - Chalon", "is_installed": "OUI", "capacity": 45, "numdocksavailable": 1, "numbikesavailable": 44, "mechanical": 35, "ebike": 9, "is_renting": "OUI", "is_returning": "OUI", "duedate": "2024-06-14T12:49:27+00:00", "coordonnees_geo": {"lon": 2.3741452395916, "lat": 48.845666194202}, "nom_arrondissement_communes": "Paris", "code_insee_commune": null}, {"stationcode": "25001", "name": "Colmar - Victor Hugo", "is_installed": "OUI", "capacity": 32, "numdocksavailable": 19, "numbikesavailable": 11, "mechanical": 7, "ebike": 4, "is_renting": "OUI", "is_returning": "OUI", "duedate": "2024-06-14T12:45:45+00:00", "coordonnees_geo": {"lon": 2.173960916697979, "lat": 48.88652251096166}, "nom_arrondissement_communes": "Rueil-Malmaison", "code_insee_commune": null}, {"stationcode": "47001", "name": "Place de la Gare", "is_installed": "OUI", "capacity": 46, "numdocksavailable": 14, "numbikesavailable": 31, "mechanical": 27, "ebike": 4, "is_renting": "OUI", "is_returning": "OUI", "duedate": "2024-06-14T12:49:56+00:00", "coordonnees_geo": {"lon": 2.4275037646293645, "lat": 48.80253358011283}, "nom_arrondissement_communes": "Maisons-Alfort", "code_insee_commune": null}, {"stationcode": "13032", "name": "Italie - Jardin Joan Miro", "is_installed": "OUI", "capacity": 26, "numdocksavailable": 21, "numbikesavailable": 4, "mechanical": 2, "ebike": 2, "is_renting": "OUI", "is_returning": "OUI", "duedate": "2024-06-14T12:45:10+00:00", "coordonnees_geo": {"lon": 2.3592948541045193, "lat": 48.81990914045756}, "nom_arrondissement_communes": "Paris", "code_insee_commune": null}, {"stationcode": "22303", "name": "Lucien Lanternier - Le Luth", "is_installed": "OUI", "capacity": 27, "numdocksavailable": 11, "numbikesavailable": 16, "mechanical": 12, "ebike": 4, "is_renting": "OUI", "is_returning": "OUI", "duedate": "2024-06-14T12:46:52+00:00", "coordonnees_geo": {"lon": 2.2889783978462224, "lat": 48.93159430558871}, "nom_arrondissement_communes": "Gennevilliers", "code_insee_commune": null}, {"stationcode": "92001", "name": "Mairie de quartier du Plateau - Mont-Val\u00e9rien", "is_installed": "OUI", "capacity": 20, "numdocksavailable": 17, "numbikesavailable": 3, "mechanical": 0, "ebike": 3, "is_renting": "OUI", "is_returning": "OUI", "duedate": "2024-06-14T12:49:53+00:00", "coordonnees_geo": {"lon": 2.2072437, "lat": 48.8799933}, "nom_arrondissement_communes": "Nanterre", "code_insee_commune": null}, {"stationcode": "21306", "name": "Place Lafayette", "is_installed": "OUI", "capacity": 62, "numdocksavailable": 33, "numbikesavailable": 29, "mechanical": 22, "ebike": 7, "is_renting": "OUI", "is_returning": "OUI", "duedate": "2024-06-14T12:49:09+00:00", "coordonnees_geo": {"lon": 2.2638675570488, "lat": 48.829654975522}, "nom_arrondissement_communes": "Issy-les-Moulineaux", "code_insee_commune": null}, {"stationcode": "43010", "name": "La Jarry - Place Diderot", "is_installed": "OUI", "capacity": 25, "numdocksavailable": 23, "numbikesavailable": 2, "mechanical": 1, "ebike": 1, "is_renting": "OUI", "is_returning": "OUI", "duedate": "2024-06-14T12:44:57+00:00", "coordonnees_geo": {"lon": 2.452013790607453, "lat": 48.849726940367326}, "nom_arrondissement_communes": "Vincennes", "code_insee_commune": null}, {"stationcode": "17107", "name": "Berthier - Place Stuart Merril", "is_installed": "OUI", "capacity": 37, "numdocksavailable": 28, "numbikesavailable": 9, "mechanical": 8, "ebike": 1, "is_renting": "OUI", "is_returning": "OUI", "duedate": "2024-06-14T12:43:39+00:00", "coordonnees_geo": {"lon": 2.2933450341224675, "lat": 48.885927922355044}, "nom_arrondissement_communes": "Paris", "code_insee_commune": null}, {"stationcode": "15057", "name": "Lucien Bossoutrot - G\u00e9n\u00e9ral Martial Vallin", "is_installed": "OUI", "capacity": 39, "numdocksavailable": 9, "numbikesavailable": 30, "mechanical": 15, "ebike": 15, "is_renting": "OUI", "is_returning": "OUI", "duedate": "2024-06-14T12:49:52+00:00", "coordonnees_geo": {"lon": 2.2741072252393, "lat": 48.836956046311}, "nom_arrondissement_communes": "Paris", "code_insee_commune": null}, {"stationcode": "16002", "name": "Pergol\u00e8se - Malakoff", "is_installed": "OUI", "capacity": 38, "numdocksavailable": 28, "numbikesavailable": 6, "mechanical": 1, "ebike": 5, "is_renting": "OUI", "is_returning": "OUI", "duedate": "2024-06-14T12:44:14+00:00", "coordonnees_geo": {"lon": 2.2842781618237495, "lat": 48.87521088779225}, "nom_arrondissement_communes": "Paris", "code_insee_commune": null}, {"stationcode": "15004", "name": "Vaugirard - Pasteur", "is_installed": "OUI", "capacity": 21, "numdocksavailable": 10, "numbikesavailable": 10, "mechanical": 2, "ebike": 8, "is_renting": "OUI", "is_returning": "OUI", "duedate": "2024-06-14T12:47:32+00:00", "coordonnees_geo": {"lon": 2.3154367133975033, "lat": 48.84040868803496}, "nom_arrondissement_communes": "Paris", "code_insee_commune": null}, {"stationcode": "23010", "name": "Voltaire - Anatole France", "is_installed": "OUI", "capacity": 27, "numdocksavailable": 16, "numbikesavailable": 11, "mechanical": 7, "ebike": 4, "is_renting": "OUI", "is_returning": "OUI", "duedate": "2024-06-14T12:47:38+00:00", "coordonnees_geo": {"lon": 2.284262739121914, "lat": 48.891999360256904}, "nom_arrondissement_communes": "Levallois-Perret", "code_insee_commune": null}, {"stationcode": "19128", "name": "Quai de l'Oise - Aisne", "is_installed": "OUI", "capacity": 30, "numdocksavailable": 23, "numbikesavailable": 7, "mechanical": 3, "ebike": 4, "is_renting": "OUI", "is_returning": "OUI", "duedate": "2024-06-14T12:48:32+00:00", "coordonnees_geo": {"lon": 2.3833701, "lat": 48.8906231}, "nom_arrondissement_communes": "Paris", "code_insee_commune": null}, {"stationcode": "22408", "name": "Place du 14 Juillet", "is_installed": "OUI", "capacity": 22, "numdocksavailable": 20, "numbikesavailable": 1, "mechanical": 1, "ebike": 0, "is_renting": "OUI", "is_returning": "OUI", "duedate": "2024-06-14T12:45:49+00:00", "coordonnees_geo": {"lon": 2.30119988322258, "lat": 48.8192669595252}, "nom_arrondissement_communes": "Malakoff", "code_insee_commune": null}, {"stationcode": "17108", "name": "Bessi\u00e8res - Porte de Clichy", "is_installed": "OUI", "capacity": 33, "numdocksavailable": 19, "numbikesavailable": 13, "mechanical": 11, "ebike": 2, "is_renting": "OUI", "is_returning": "OUI", "duedate": "2024-06-14T12:46:33+00:00", "coordonnees_geo": {"lon": 2.31790903955698, "lat": 48.89611762451474}, "nom_arrondissement_communes": "Paris", "code_insee_commune": null}, {"stationcode": "4020", "name": "Place Edmond Michelet", "is_installed": "OUI", "capacity": 23, "numdocksavailable": 4, "numbikesavailable": 19, "mechanical": 11, "ebike": 8, "is_renting": "OUI", "is_returning": "OUI", "duedate": "2024-06-14T12:49:13+00:00", "coordonnees_geo": {"lon": 2.3500636965036, "lat": 48.860134890542}, "nom_arrondissement_communes": "Paris", "code_insee_commune": null}, {"stationcode": "15022", "name": "Emile Zola - Fondary", "is_installed": "OUI", "capacity": 42, "numdocksavailable": 8, "numbikesavailable": 3, "mechanical": 2, "ebike": 1, "is_renting": "OUI", "is_returning": "OUI", "duedate": "2024-06-14T12:49:21+00:00", "coordonnees_geo": {"lon": 2.2953405976295476, "lat": 48.847051143113745}, "nom_arrondissement_communes": "Paris", "code_insee_commune": null}, {"stationcode": "23004", "name": "Paul Vaillant-Couturier - Victor Hugo", "is_installed": "OUI", "capacity": 36, "numdocksavailable": 12, "numbikesavailable": 24, "mechanical": 16, "ebike": 8, "is_renting": "OUI", "is_returning": "OUI", "duedate": "2024-06-14T12:47:34+00:00", "coordonnees_geo": {"lon": 2.293848017974069, "lat": 48.89819702263572}, "nom_arrondissement_communes": "Levallois-Perret", "code_insee_commune": null}, {"stationcode": "5012", "name": "Estrapade - Ulm", "is_installed": "OUI", "capacity": 16, "numdocksavailable": 8, "numbikesavailable": 5, "mechanical": 3, "ebike": 2, "is_renting": "OUI", "is_returning": "OUI", "duedate": "2024-06-14T12:47:33+00:00", "coordonnees_geo": {"lon": 2.3454568170362, "lat": 48.84512772828}, "nom_arrondissement_communes": "Paris", "code_insee_commune": null}, {"stationcode": "1021", "name": "Halles - Bourdonnais", "is_installed": "OUI", "capacity": 20, "numdocksavailable": 8, "numbikesavailable": 11, "mechanical": 8, "ebike": 3, "is_renting": "OUI", "is_returning": "OUI", "duedate": "2024-06-14T12:41:47+00:00", "coordonnees_geo": {"lon": 2.3460162431002, "lat": 48.860448992575}, "nom_arrondissement_communes": "Paris", "code_insee_commune": null}, {"stationcode": "41205", "name": "Mar\u00e9chal Joffre - Verdun", "is_installed": "OUI", "capacity": 20, "numdocksavailable": 20, "numbikesavailable": 0, "mechanical": 0, "ebike": 0, "is_renting": "OUI", "is_returning": "OUI", "duedate": "2024-06-14T12:42:04+00:00", "coordonnees_geo": {"lon": 2.470307, "lat": 48.85385}, "nom_arrondissement_communes": "Fontenay-sous-Bois", "code_insee_commune": null}, {"stationcode": "44016", "name": "Balzac - Olympes de Gouges", "is_installed": "OUI", "capacity": 28, "numdocksavailable": 6, "numbikesavailable": 20, "mechanical": 8, "ebike": 12, "is_renting": "OUI", "is_returning": "OUI", "duedate": "2024-06-14T12:49:54+00:00", "coordonnees_geo": {"lon": 2.4006786569952965, "lat": 48.77850332486751}, "nom_arrondissement_communes": "Vitry-sur-Seine", "code_insee_commune": null}, {"stationcode": "15011", "name": "Cambronne - Villa Croix Nivert", "is_installed": "OUI", "capacity": 62, "numdocksavailable": 60, "numbikesavailable": 2, "mechanical": 1, "ebike": 1, "is_renting": "OUI", "is_returning": "OUI", "duedate": "2024-06-14T12:48:30+00:00", "coordonnees_geo": {"lon": 2.3017574474216, "lat": 48.845847561366}, "nom_arrondissement_communes": "Paris", "code_insee_commune": null}, {"stationcode": "9004", "name": "G\u00e9rando - Rochechouart", "is_installed": "OUI", "capacity": 21, "numdocksavailable": 16, "numbikesavailable": 2, "mechanical": 1, "ebike": 1, "is_renting": "OUI", "is_returning": "OUI", "duedate": "2024-06-14T12:48:18+00:00", "coordonnees_geo": {"lon": 2.3464846238494, "lat": 48.88294340845}, "nom_arrondissement_communes": "Paris", "code_insee_commune": null}, {"stationcode": "32601", "name": "Porte des Lilas - Faidherbe", "is_installed": "OUI", "capacity": 39, "numdocksavailable": 35, "numbikesavailable": 4, "mechanical": 0, "ebike": 4, "is_renting": "OUI", "is_returning": "OUI", "duedate": "2024-06-14T12:49:52+00:00", "coordonnees_geo": {"lon": 2.4120327830314636, "lat": 48.87861855668978}, "nom_arrondissement_communes": "Les Lilas", "code_insee_commune": null}, {"stationcode": "15102", "name": "Square Bela Bartok", "is_installed": "OUI", "capacity": 24, "numdocksavailable": 1, "numbikesavailable": 22, "mechanical": 21, "ebike": 1, "is_renting": "OUI", "is_returning": "OUI", "duedate": "2024-06-14T12:47:13+00:00", "coordonnees_geo": {"lon": 2.2846536710858345, "lat": 48.85120156830401}, "nom_arrondissement_communes": "Paris", "code_insee_commune": null}, {"stationcode": "33016", "name": "Fort d'Aubervilliers", "is_installed": "OUI", "capacity": 22, "numdocksavailable": 9, "numbikesavailable": 12, "mechanical": 9, "ebike": 3, "is_renting": "OUI", "is_returning": "OUI", "duedate": "2024-06-14T12:47:21+00:00", "coordonnees_geo": {"lon": 2.4035281687974925, "lat": 48.91502382370325}, "nom_arrondissement_communes": "Aubervilliers", "code_insee_commune": null}, {"stationcode": "6012", "name": "Saint-Germain - Ciseaux", "is_installed": "OUI", "capacity": 18, "numdocksavailable": 6, "numbikesavailable": 11, "mechanical": 5, "ebike": 6, "is_renting": "OUI", "is_returning": "OUI", "duedate": "2024-06-14T12:48:05+00:00", "coordonnees_geo": {"lon": 2.3344654618827, "lat": 48.853305277595}, "nom_arrondissement_communes": "Paris", "code_insee_commune": null}, {"stationcode": "15071", "name": "Suffren - Champ de Mars", "is_installed": "OUI", "capacity": 23, "numdocksavailable": 12, "numbikesavailable": 10, "mechanical": 9, "ebike": 1, "is_renting": "OUI", "is_returning": "OUI", "duedate": "2024-06-14T12:47:56+00:00", "coordonnees_geo": {"lon": 2.2952168, "lat": 48.8547194}, "nom_arrondissement_communes": "Paris", "code_insee_commune": null}, {"stationcode": "10162", "name": "Alexandre Parodi - Quai de Valmy", "is_installed": "OUI", "capacity": 24, "numdocksavailable": 19, "numbikesavailable": 3, "mechanical": 2, "ebike": 1, "is_renting": "OUI", "is_returning": "OUI", "duedate": "2024-06-14T12:47:10+00:00", "coordonnees_geo": {"lon": 2.3665961623192, "lat": 48.879359419425}, "nom_arrondissement_communes": "Paris", "code_insee_commune": null}, {"stationcode": "21319", "name": "Esplanade du Foncet - Camille Desmoulins", "is_installed": "OUI", "capacity": 28, "numdocksavailable": 5, "numbikesavailable": 23, "mechanical": 22, "ebike": 1, "is_renting": "OUI", "is_returning": "OUI", "duedate": "2024-06-14T12:49:30+00:00", "coordonnees_geo": {"lon": 2.2606857866048813, "lat": 48.827090233494964}, "nom_arrondissement_communes": "Issy-les-Moulineaux", "code_insee_commune": null}, {"stationcode": "9006", "name": "Dunkerque - Trudaine", "is_installed": "OUI", "capacity": 16, "numdocksavailable": 15, "numbikesavailable": 1, "mechanical": 0, "ebike": 1, "is_renting": "OUI", "is_returning": "OUI", "duedate": "2024-06-14T12:48:23+00:00", "coordonnees_geo": {"lon": 2.3463253676891327, "lat": 48.88215166773376}, "nom_arrondissement_communes": "Paris", "code_insee_commune": null}, {"stationcode": "21314", "name": "Chemin de Bretagne", "is_installed": "OUI", "capacity": 29, "numdocksavailable": 12, "numbikesavailable": 17, "mechanical": 15, "ebike": 2, "is_renting": "OUI", "is_returning": "OUI", "duedate": "2024-06-14T12:43:11+00:00", "coordonnees_geo": {"lon": 2.2588385956052, "lat": 48.824753068884}, "nom_arrondissement_communes": "Issy-les-Moulineaux", "code_insee_commune": null}, {"stationcode": "12028", "name": "Vivaldi - Antoine-Julien H\u00e9nard", "is_installed": "OUI", "capacity": 27, "numdocksavailable": 20, "numbikesavailable": 6, "mechanical": 4, "ebike": 2, "is_renting": "OUI", "is_returning": "OUI", "duedate": "2024-06-14T12:49:26+00:00", "coordonnees_geo": {"lon": 2.389728979467376, "lat": 48.841923663276546}, "nom_arrondissement_communes": "Paris", "code_insee_commune": null}, {"stationcode": "5115", "name": "Buffon - Jardin des Plantes", "is_installed": "OUI", "capacity": 30, "numdocksavailable": 2, "numbikesavailable": 27, "mechanical": 25, "ebike": 2, "is_renting": "OUI", "is_returning": "OUI", "duedate": "2024-06-14T12:46:08+00:00", "coordonnees_geo": {"lon": 2.3618587106466293, "lat": 48.842668466104875}, "nom_arrondissement_communes": "Paris", "code_insee_commune": null}, {"stationcode": "44011", "name": "Lebrun - Colonel Fabien", "is_installed": "OUI", "capacity": 27, "numdocksavailable": 26, "numbikesavailable": 1, "mechanical": 0, "ebike": 1, "is_renting": "OUI", "is_returning": "OUI", "duedate": "2024-06-14T12:41:50+00:00", "coordonnees_geo": {"lon": 2.381317801773548, "lat": 48.78266870733145}, "nom_arrondissement_communes": "Vitry-sur-Seine", "code_insee_commune": null}, {"stationcode": "2108", "name": "Vivienne - Montmartre", "is_installed": "OUI", "capacity": 39, "numdocksavailable": 18, "numbikesavailable": 21, "mechanical": 18, "ebike": 3, "is_renting": "OUI", "is_returning": "OUI", "duedate": "2024-06-14T12:48:41+00:00", "coordonnees_geo": {"lon": 2.3414588347077, "lat": 48.871347597383}, "nom_arrondissement_communes": "Paris", "code_insee_commune": null}, {"stationcode": "21707", "name": "Square Etienne Jarousse", "is_installed": "OUI", "capacity": 25, "numdocksavailable": 21, "numbikesavailable": 4, "mechanical": 1, "ebike": 3, "is_renting": "OUI", "is_returning": "OUI", "duedate": "2024-06-14T12:41:09+00:00", "coordonnees_geo": {"lon": 2.2925933450460434, "lat": 48.82485182597129}, "nom_arrondissement_communes": "Vanves", "code_insee_commune": null}]