[{"stationcode": "35012", "name": "Candale - Mehul", "is_installed": "OUI", "capacity": 25, "numdocksavailable": 17, "numbikesavailable": 7, "mechanical": 1, "ebike": 6, "is_renting": "OUI", "is_returning": "OUI", "duedate": "2024-06-15T15:52:01+00:00", "coordonnees_geo": {"lon": 2.414379715919495, "lat": 48.8893935006175}, "nom_arrondissement_communes": "Pantin", "code_insee_commune": null}, {"stationcode": "21505", "name": "\u00c9douard Vaillant - Place Jean Jaur\u00e8s", "is_installed": "OUI", "capacity": 24, "numdocksavailable": 20, "numbikesavailable": 4, "mechanical": 0, "ebike": 4, "is_renting": "OUI", "is_returning": "OUI", "duedate": "2024-06-15T15:49:39+00:00", "coordonnees_geo": {"lon": 2.2089037319128613, "lat": 48.86265537999924}, "nom_arrondissement_communes": "Suresnes", "code_insee_commune": null}, {"stationcode": "2016", "name": "Aboukir - Alexandrie", "is_installed": "OUI", "capacity": 21, "numdocksavailable": 1, "numbikesavailable": 19, "mechanical": 13, "ebike": 6, "is_renting": "OUI", "is_returning": "OUI", "duedate": "2024-06-15T15:52:37+00:00", "coordonnees_geo": {"lon": 2.3502043269474897, "lat": 48.86868344444473}, "nom_arrondissement_communes": "Paris", "code_insee_commune": null}, {"stationcode": "32019", "name": "Place du 8 mai 1945.", "is_installed": "OUI", "capacity": 30, "numdocksavailable": 0, "numbikesavailable": 30, "mechanical": 9, "ebike": 21, "is_renting": "OUI", "is_returning": "OUI", "duedate": "2024-06-15T15:51:18+00:00", "coordonnees_geo": {"lon": 2.3566243797541, "lat": 48.938882272105}, "nom_arrondissement_communes": "Saint-Denis", "code_insee_commune": null}, {"stationcode": "9039", "name": "Chauss\u00e9e d'Antin - Haussmann", "is_installed": "OUI", "capacity": 24, "numdocksavailable": 0, "numbikesavailable": 24, "mechanical": 10, "ebike": 14, "is_renting": "OUI", "is_returning": "OUI", "duedate": "2024-06-15T15:51:57+00:00", "coordonnees_geo": {"lon": 2.33359, "lat": 48.87243}, "nom_arrondissement_communes": "Paris", "code_insee_commune": null}, {"stationcode": "32024", "name": "Port - Confluence", "is_installed": "OUI", "capacity": 26, "numdocksavailable": 16, "numbikesavailable": 9, "mechanical": 0, "ebike": 9, "is_renting": "OUI", "is_returning": "OUI", "duedate": "2024-06-15T15:51:16+00:00", "coordonnees_geo": {"lon": 2.3436167797955, "lat": 48.936093926526}, "nom_arrondissement_communes": "Saint-Denis", "code_insee_commune": null}, {"stationcode": "15040", "name": "Saint-Amand - Labrouste", "is_installed": "OUI", "capacity": 36, "numdocksavailable": 30, "numbikesavailable": 4, "mechanical": 0, "ebike": 4, "is_renting": "OUI", "is_returning": "OUI", "duedate": "2024-06-15T15:52:05+00:00", "coordonnees_geo": {"lon": 2.3087677359581, "lat": 48.834097274832295}, "nom_arrondissement_communes": "Paris", "code_insee_commune": null}, {"stationcode": "23107", "name": "Gare de S\u00e8vres - Ville d'Avray", "is_installed": "OUI", "capacity": 22, "numdocksavailable": 22, "numbikesavailable": 0, "mechanical": 0, "ebike": 0, "is_renting": "OUI", "is_returning": "OUI", "duedate": "2024-06-15T15:52:00+00:00", "coordonnees_geo": {"lon": 2.2001516849313, "lat": 48.826262366227}, "nom_arrondissement_communes": "S\u00e8vres", "code_insee_commune": null}, {"stationcode": "6026", "name": "Saint-Placide - Cherche Midi", "is_installed": "OUI", "capacity": 66, "numdocksavailable": 20, "numbikesavailable": 45, "mechanical": 38, "ebike": 7, "is_renting": "OUI", "is_returning": "OUI", "duedate": "2024-06-15T15:52:57+00:00", "coordonnees_geo": {"lon": 2.325317971408367, "lat": 48.8490535919234}, "nom_arrondissement_communes": "Paris", "code_insee_commune": null}, {"stationcode": "22601", "name": "Marx Dormoy - Ch\u00e2teau Sainte-Barbe", "is_installed": "OUI", "capacity": 22, "numdocksavailable": 19, "numbikesavailable": 2, "mechanical": 1, "ebike": 1, "is_renting": "OUI", "is_returning": "OUI", "duedate": "2024-06-15T15:44:01+00:00", "coordonnees_geo": {"lon": 2.297856844961643, "lat": 48.791782341055324}, "nom_arrondissement_communes": "Fontenay-aux-Roses", "code_insee_commune": null}, {"stationcode": "42018", "name": "Am\u00e9d\u00e9e Huon - Fort d'Ivry", "is_installed": "OUI", "capacity": 31, "numdocksavailable": 4, "numbikesavailable": 27, "mechanical": 1, "ebike": 26, "is_renting": "OUI", "is_returning": "OUI", "duedate": "2024-06-15T15:51:46+00:00", "coordonnees_geo": {"lon": 2.388489693403244, "lat": 48.805131376899986}, "nom_arrondissement_communes": "Ivry-sur-Seine", "code_insee_commune": null}, {"stationcode": "19202", "name": "Marseillaise - Grenade", "is_installed": "OUI", "capacity": 45, "numdocksavailable": 40, "numbikesavailable": 5, "mechanical": 1, "ebike": 4, "is_renting": "OUI", "is_returning": "OUI", "duedate": "2024-06-15T15:49:00+00:00", "coordonnees_geo": {"lon": 2.3979396821544, "lat": 48.889371092747}, "nom_arrondissement_communes": "Paris", "code_insee_commune": null}, {"stationcode": "27001", "name": "Square Victor Basch", "is_installed": "OUI", "capacity": 20, "numdocksavailable": 18, "numbikesavailable": 2, "mechanical": 1, "ebike": 1, "is_renting": "OUI", "is_returning": "OUI", "duedate": "2024-06-15T15:44:16+00:00", "coordonnees_geo": {"lon": 2.2289156913757, "lat": 48.914304862261}, "nom_arrondissement_communes": "Colombes", "code_insee_commune": null}, {"stationcode": "3007", "name": "Archives - Pastourelle", "is_installed": "OUI", "capacity": 28, "numdocksavailable": 5, "numbikesavailable": 19, "mechanical": 17, "ebike": 2, "is_renting": "OUI", "is_returning": "OUI", "duedate": "2024-06-15T15:51:59+00:00", "coordonnees_geo": {"lon": 2.3595041, "lat": 48.8623615}, "nom_arrondissement_communes": "Paris", "code_insee_commune": null}, {"stationcode": "35005", "name": "Quai de l'Aisne - G\u00e9n\u00e9ral Leclerc", "is_installed": "OUI", "capacity": 27, "numdocksavailable": 16, "numbikesavailable": 10, "mechanical": 8, "ebike": 2, "is_renting": "OUI", "is_returning": "OUI", "duedate": "2024-06-15T15:51:52+00:00", "coordonnees_geo": {"lon": 2.400571, "lat": 48.895713}, "nom_arrondissement_communes": "Pantin", "code_insee_commune": null}, {"stationcode": "10201", "name": "Magenta - Chabrol", "is_installed": "OUI", "capacity": 24, "numdocksavailable": 0, "numbikesavailable": 22, "mechanical": 15, "ebike": 7, "is_renting": "OUI", "is_returning": "OUI", "duedate": "2024-06-15T15:51:22+00:00", "coordonnees_geo": {"lon": 2.3560990020633, "lat": 48.876495350882}, "nom_arrondissement_communes": "Paris", "code_insee_commune": null}, {"stationcode": "16139", "name": "Suresnes - Muette \u00e0 Neuilly", "is_installed": "OUI", "capacity": 30, "numdocksavailable": 24, "numbikesavailable": 4, "mechanical": 0, "ebike": 4, "is_renting": "OUI", "is_returning": "OUI", "duedate": "2024-06-15T15:52:13+00:00", "coordonnees_geo": {"lon": 2.266000919044, "lat": 48.868570404348}, "nom_arrondissement_communes": "Paris", "code_insee_commune": null}, {"stationcode": "6007", "name": "Br\u00e9a - Raspail", "is_installed": "OUI", "capacity": 24, "numdocksavailable": 11, "numbikesavailable": 11, "mechanical": 10, "ebike": 1, "is_renting": "OUI", "is_returning": "OUI", "duedate": "2024-06-15T15:47:30+00:00", "coordonnees_geo": {"lon": 2.3297942217634, "lat": 48.842738478258}, "nom_arrondissement_communes": "Paris", "code_insee_commune": null}, {"stationcode": "42028", "name": "Verdun - Carnot", "is_installed": "OUI", "capacity": 28, "numdocksavailable": 20, "numbikesavailable": 7, "mechanical": 3, "ebike": 4, "is_renting": "OUI", "is_returning": "OUI", "duedate": "2024-06-15T15:51:46+00:00", "coordonnees_geo": {"lon": 2.373795211315155, "lat": 48.808439376064946}, "nom_arrondissement_communes": "Ivry-sur-Seine", "code_insee_commune": null}, {"stationcode": "22603", "name": "Place de la Division Leclerc", "is_installed": "OUI", "capacity": 35, "numdocksavailable": 30, "numbikesavailable": 4, "mechanical": 0, "ebike": 4, "is_renting": "OUI", "is_returning": "OUI", "duedate": "2024-06-15T15:51:36+00:00", "coordonnees_geo": {"lon": 2.2731140430551027, "lat": 48.793824988636516}, "nom_arrondissement_communes": "Fontenay-aux-Roses", "code_insee_commune": null}, {"stationcode": "12113", "name": "Cardinal Lavigerie", "is_installed": "OUI", "capacity": 46, "numdocksavailable": 16, "numbikesavailable": 30, "mechanical": 23, "ebike": 7, "is_renting": "OUI", "is_returning": "OUI", "duedate": "2024-06-15T15:52:54+00:00", "coordonnees_geo": {"lon": 2.402636749399156, "lat": 48.832934193699835}, "nom_arrondissement_communes": "Paris", "code_insee_commune": null}, {"stationcode": "16010", "name": "Belles Feuilles - Place de Mexico", "is_installed": "OUI", "capacity": 23, "numdocksavailable": 20, "numbikesavailable": 3, "mechanical": 1, "ebike": 2, "is_renting": "OUI", "is_returning": "OUI", "duedate": "2024-06-15T15:49:24+00:00", "coordonnees_geo": {"lon": 2.2829206287861, "lat": 48.865804746474}, "nom_arrondissement_communes": "Paris", "code_insee_commune": null}, {"stationcode": "16201", "name": "Porte Dauphine", "is_installed": "OUI", "capacity": 65, "numdocksavailable": 49, "numbikesavailable": 14, "mechanical": 4, "ebike": 10, "is_renting": "OUI", "is_returning": "OUI", "duedate": "2024-06-15T15:50:56+00:00", "coordonnees_geo": {"lon": 2.2749781616017, "lat": 48.871139344351}, "nom_arrondissement_communes": "Paris", "code_insee_commune": null}, {"stationcode": "42019", "name": "Lampes", "is_installed": "OUI", "capacity": 43, "numdocksavailable": 30, "numbikesavailable": 13, "mechanical": 9, "ebike": 4, "is_renting": "OUI", "is_returning": "OUI", "duedate": "2024-06-15T15:52:36+00:00", "coordonnees_geo": {"lon": 2.4017931148409843, "lat": 48.81152481985875}, "nom_arrondissement_communes": "Ivry-sur-Seine", "code_insee_commune": null}, {"stationcode": "2020", "name": "Danielle Casanova - Op\u00e9ra", "is_installed": "OUI", "capacity": 20, "numdocksavailable": 1, "numbikesavailable": 19, "mechanical": 17, "ebike": 2, "is_renting": "OUI", "is_returning": "OUI", "duedate": "2024-06-15T15:50:44+00:00", "coordonnees_geo": {"lon": 2.3333894088864, "lat": 48.867643242297}, "nom_arrondissement_communes": "Paris", "code_insee_commune": null}, {"stationcode": "19046", "name": "Porte de Pantin.", "is_installed": "OUI", "capacity": 33, "numdocksavailable": 30, "numbikesavailable": 2, "mechanical": 1, "ebike": 1, "is_renting": "OUI", "is_returning": "OUI", "duedate": "2024-06-15T15:48:06+00:00", "coordonnees_geo": {"lon": 2.3950181901455, "lat": 48.889199725577}, "nom_arrondissement_communes": "Paris", "code_insee_commune": null}, {"stationcode": "32022", "name": "Henri Barbusse - Marcel Cachin", "is_installed": "OUI", "capacity": 37, "numdocksavailable": 25, "numbikesavailable": 12, "mechanical": 6, "ebike": 6, "is_renting": "OUI", "is_returning": "OUI", "duedate": "2024-06-15T15:51:55+00:00", "coordonnees_geo": {"lon": 2.3720374971659, "lat": 48.93742089281}, "nom_arrondissement_communes": "Saint-Denis", "code_insee_commune": null}, {"stationcode": "1015", "name": "Place Andr\u00e9 Malraux", "is_installed": "OUI", "capacity": 19, "numdocksavailable": 0, "numbikesavailable": 18, "mechanical": 15, "ebike": 3, "is_renting": "OUI", "is_returning": "OUI", "duedate": "2024-06-15T15:51:04+00:00", "coordonnees_geo": {"lon": 2.3356226831675, "lat": 48.863925158727}, "nom_arrondissement_communes": "Paris", "code_insee_commune": null}, {"stationcode": "1024", "name": "Coquilli\u00e8re - Louvre", "is_installed": "OUI", "capacity": 21, "numdocksavailable": 0, "numbikesavailable": 21, "mechanical": 19, "ebike": 2, "is_renting": "OUI", "is_returning": "OUI", "duedate": "2024-06-15T15:52:56+00:00", "coordonnees_geo": {"lon": 2.3425736278295517, "lat": 48.86379590966231}, "nom_arrondissement_communes": "Paris", "code_insee_commune": null}, {"stationcode": "42028", "name": "Verdun - Carnot", "is_installed": "OUI", "capacity": 28, "numdocksavailable": 11, "numbikesavailable": 16, "mechanical": 5, "ebike": 11, "is_renting": "OUI", "is_returning": "OUI", "duedate": "2024-06-16T04:54:15+00:00", "coordonnees_geo": {"lon": 2.373795211315155, "lat": 48.808439376064946}, "nom_arrondissement_communes": "Ivry-sur-Seine", "code_insee_commune": null}, {"stationcode": "12166", "name": "Parc Floral du Bel Air", "is_installed": "OUI", "capacity": 25, "numdocksavailable": 16, "numbikesavailable": 9, "mechanical": 5, "ebike": 4, "is_renting": "OUI", "is_returning": "OUI", "duedate": "2024-06-16T04:53:36+00:00", "coordonnees_geo": {"lon": 2.438560165464878, "lat": 48.839285711865735}, "nom_arrondissement_communes": "Paris", "code_insee_commune": null}, {"stationcode": "21119", "name": "Belfort - Victor Hugo", "is_installed": "OUI", "capacity": 24, "numdocksavailable": 18, "numbikesavailable": 6, "mechanical": 2, "ebike": 4, "is_renting": "OUI", "is_returning": "OUI", "duedate": "2024-06-16T04:53:05+00:00", "coordonnees_geo": {"lon": 2.3172724, "lat": 48.9018492}, "nom_arrondissement_communes": "Clichy", "code_insee_commune": null}, {"stationcode": "16201", "name": "Porte Dauphine", "is_installed": "OUI", "capacity": 65, "numdocksavailable": 41, "numbikesavailable": 21, "mechanical": 2, "ebike": 19, "is_renting": "OUI", "is_returning": "OUI", "duedate": "2024-06-16T04:51:48+00:00", "coordonnees_geo": {"lon": 2.2749781616017, "lat": 48.871139344351}, "nom_arrondissement_communes": "Paris", "code_insee_commune": null}, {"stationcode": "32020", "name": "Jules Guesdes - Carnot", "is_installed": "OUI", "capacity": 16, "numdocksavailable": 3, "numbikesavailable": 12, "mechanical": 5, "ebike": 7, "is_renting": "OUI", "is_returning": "OUI", "duedate": "2024-06-16T04:54:04+00:00", "coordonnees_geo": {"lon": 2.3508992046117783, "lat": 48.93828169931872}, "nom_arrondissement_communes": "Saint-Denis", "code_insee_commune": null}, {"stationcode": "32022", "name": "Henri Barbusse - Marcel Cachin", "is_installed": "OUI", "capacity": 37, "numdocksavailable": 11, "numbikesavailable": 26, "mechanical": 6, "ebike": 20, "is_renting": "OUI", "is_returning": "OUI", "duedate": "2024-06-16T04:54:32+00:00", "coordonnees_geo": {"lon": 2.3720374971659, "lat": 48.93742089281}, "nom_arrondissement_communes": "Saint-Denis", "code_insee_commune": null}, {"stationcode": "2006", "name": "Place des Victoires", "is_installed": "OUI", "capacity": 24, "numdocksavailable": 4, "numbikesavailable": 19, "mechanical": 15, "ebike": 4, "is_renting": "OUI", "is_returning": "OUI", "duedate": "2024-06-16T04:51:08+00:00", "coordonnees_geo": {"lon": 2.3420333, "lat": 48.8660354}, "nom_arrondissement_communes": "Paris", "code_insee_commune": null}, {"stationcode": "9019", "name": "Victor Mass\u00e9 - Jean-Baptiste Pigalle", "is_installed": "OUI", "capacity": 18, "numdocksavailable": 16, "numbikesavailable": 2, "mechanical": 1, "ebike": 1, "is_renting": "OUI", "is_returning": "OUI", "duedate": "2024-06-16T04:49:52+00:00", "coordonnees_geo": {"lon": 2.3366955667734, "lat": 48.8811043724}, "nom_arrondissement_communes": "Paris", "code_insee_commune": null}, {"stationcode": "1024", "name": "Coquilli\u00e8re - Louvre", "is_installed": "OUI", "capacity": 21, "numdocksavailable": 12, "numbikesavailable": 9, "mechanical": 7, "ebike": 2, "is_renting": "OUI", "is_returning": "OUI", "duedate": "2024-06-16T04:53:23+00:00", "coordonnees_geo": {"lon": 2.3425736278295517, "lat": 48.86379590966231}, "nom_arrondissement_communes": "Paris", "code_insee_commune": null}, {"stationcode": "6029", "name": "Vaugirard - Monsieur le Prince", "is_installed": "OUI", "capacity": 26, "numdocksavailable": 23, "numbikesavailable": 2, "mechanical": 1, "ebike": 1, "is_renting": "OUI", "is_returning": "OUI", "duedate": "2024-06-16T04:54:24+00:00", "coordonnees_geo": {"lon": 2.3411329463124, "lat": 48.848951441614}, "nom_arrondissement_communes": "Paris", "code_insee_commune": null}, {"stationcode": "23301", "name": "Les Blagis", "is_installed": "OUI", "capacity": 27, "numdocksavailable": 1, "numbikesavailable": 26, "mechanical": 19, "ebike": 7, "is_renting": "OUI", "is_returning": "OUI", "duedate": "2024-06-16T04:53:30+00:00", "coordonnees_geo": {"lon": 2.302526, "lat": 48.785205}, "nom_arrondissement_communes": "Sceaux", "code_insee_commune": null}, {"stationcode": "44008", "name": "Youri Gagarine - Commune de Paris", "is_installed": "OUI", "capacity": 33, "numdocksavailable": 6, "numbikesavailable": 26, "mechanical": 9, "ebike": 17, "is_renting": "OUI", "is_returning": "OUI", "duedate": "2024-06-16T04:54:16+00:00", "coordonnees_geo": {"lon": 2.3939734697342, "lat": 48.782427463041}, "nom_arrondissement_communes": "Vitry-sur-Seine", "code_insee_commune": null}, {"stationcode": "20140", "name": "Paganini - Davout", "is_installed": "OUI", "capacity": 22, "numdocksavailable": 12, "numbikesavailable": 9, "mechanical": 8, "ebike": 1, "is_renting": "OUI", "is_returning": "OUI", "duedate": "2024-06-16T04:47:49+00:00", "coordonnees_geo": {"lon": 2.412021, "lat": 48.85135}, "nom_arrondissement_communes": "Paris", "code_insee_commune": null}, {"stationcode": "42022", "name": "Gare RER - Maurice Grandcoing", "is_installed": "OUI", "capacity": 37, "numdocksavailable": 0, "numbikesavailable": 37, "mechanical": 27, "ebike": 10, "is_renting": "OUI", "is_returning": "OUI", "duedate": "2024-06-16T04:54:26+00:00", "coordonnees_geo": {"lon": 2.392429, "lat": 48.813881}, "nom_arrondissement_communes": "Ivry-sur-Seine", "code_insee_commune": null}, {"stationcode": "15018", "name": "Dutot - Place Alleray", "is_installed": "OUI", "capacity": 56, "numdocksavailable": 33, "numbikesavailable": 23, "mechanical": 14, "ebike": 9, "is_renting": "OUI", "is_returning": "OUI", "duedate": "2024-06-16T04:54:01+00:00", "coordonnees_geo": {"lon": 2.3071701095578, "lat": 48.836826091766}, "nom_arrondissement_communes": "Paris", "code_insee_commune": null}, {"stationcode": "26012", "name": "Jardin Mod\u00e8le - Pierre Boudou", "is_installed": "OUI", "capacity": 18, "numdocksavailable": 12, "numbikesavailable": 6, "mechanical": 3, "ebike": 3, "is_renting": "OUI", "is_returning": "OUI", "duedate": "2024-06-16T04:54:05+00:00", "coordonnees_geo": {"lon": 2.3057010525935, "lat": 48.914866710946}, "nom_arrondissement_communes": "Asni\u00e8res-sur-Seine", "code_insee_commune": null}, {"stationcode": "13049", "name": "Vincent Auriol - Louise Weiss", "is_installed": "OUI", "capacity": 22, "numdocksavailable": 11, "numbikesavailable": 10, "mechanical": 9, "ebike": 1, "is_renting": "OUI", "is_returning": "OUI", "duedate": "2024-06-16T04:54:13+00:00", "coordonnees_geo": {"lon": 2.3703888058662, "lat": 48.834001935501}, "nom_arrondissement_communes": "Paris", "code_insee_commune": null}, {"stationcode": "13051", "name": "Halle Freyssinet - Parvis Alan Turing", "is_installed": "OUI", "capacity": 23, "numdocksavailable": 22, "numbikesavailable": 1, "mechanical": 1, "ebike": 0, "is_renting": "OUI", "is_returning": "OUI", "duedate": "2024-06-16T04:53:25+00:00", "coordonnees_geo": {"lon": 2.3711421713233, "lat": 48.832846814471}, "nom_arrondissement_communes": "Paris", "code_insee_commune": null}, {"stationcode": "8202", "name": "Londres - Europe", "is_installed": "OUI", "capacity": 27, "numdocksavailable": 21, "numbikesavailable": 5, "mechanical": 2, "ebike": 3, "is_renting": "OUI", "is_returning": "OUI", "duedate": "2024-06-16T04:54:24+00:00", "coordonnees_geo": {"lon": 2.3248164693922, "lat": 48.878618556803}, "nom_arrondissement_communes": "Paris", "code_insee_commune": null}, {"stationcode": "18010", "name": "Riquet - Marx Dormoy", "is_installed": "OUI", "capacity": 26, "numdocksavailable": 26, "numbikesavailable": 0, "mechanical": 0, "ebike": 0, "is_renting": "NON", "is_returning": "NON", "duedate": "2023-08-08T15:42:30+00:00", "coordonnees_geo": {"lon": 2.3601756244898, "lat": 48.89021003702}, "nom_arrondissement_communes": "Paris", "code_insee_commune": null}, {"stationcode": "10202", "name": "Bichat - Grange aux Belles", "is_installed": "OUI", "capacity": 30, "numdocksavailable": 3, "numbikesavailable": 27, "mechanical": 26, "ebike": 1, "is_renting": "OUI", "is_returning": "OUI", "duedate": "2024-06-16T04:52:45+00:00", "coordonnees_geo": {"lon": 2.365015, "lat": 48.873688}, "nom_arrondissement_communes": "Paris", "code_insee_commune": null}, {"stationcode": "23703", "name": "Gare de Chaville Rive Gauche", "is_installed": "OUI", "capacity": 18, "numdocksavailable": 13, "numbikesavailable": 4, "mechanical": 0, "ebike": 4, "is_renting": "OUI", "is_returning": "OUI", "duedate": "2024-06-16T04:52:00+00:00", "coordonnees_geo": {"lon": 2.188277207314968, "lat": 48.80516030434533}, "nom_arrondissement_communes": "Chaville", "code_insee_commune": null}, {"stationcode": "20142", "name": "M\u00fbriers - P\u00e8re Lachaise", "is_installed": "OUI", "capacity": 20, "numdocksavailable": 15, "numbikesavailable": 4, "mechanical": 1, "ebike": 3, "is_renting": "OUI", "is_returning": "OUI", "duedate": "2024-06-16T04:54:09+00:00", "coordonnees_geo": {"lon": 2.39164982067019, "lat": 48.864130509668044}, "nom_arrondissement_communes": "Paris", "code_insee_commune": null}, {"stationcode": "18135", "name": "Ney - Porte de Montmartre", "is_installed": "OUI", "capacity": 24, "numdocksavailable": 18, "numbikesavailable": 5, "mechanical": 0, "ebike": 5, "is_renting": "OUI", "is_returning": "OUI", "duedate": "2024-06-16T04:53:35+00:00", "coordonnees_geo": {"lon": 2.3364872, "lat": 48.897918}, "nom_arrondissement_communes": "Paris", "code_insee_commune": null}, {"stationcode": "24101", "name": "Place Charles de Gaulle", "is_installed": "OUI", "capacity": 24, "numdocksavailable": 21, "numbikesavailable": 3, "mechanical": 1, "ebike": 2, "is_renting": "OUI", "is_returning": "OUI", "duedate": "2024-06-16T04:46:59+00:00", "coordonnees_geo": {"lon": 2.1894485725692, "lat": 48.826073335699}, "nom_arrondissement_communes": "Ville-d'Avray", "code_insee_commune": null}, {"stationcode": "21704", "name": "Place du Mar\u00e9chal de Lattre de Tassigny", "is_installed": "OUI", "capacity": 27, "numdocksavailable": 1, "numbikesavailable": 24, "mechanical": 9, "ebike": 15, "is_renting": "OUI", "is_returning": "OUI", "duedate": "2024-06-16T04:53:36+00:00", "coordonnees_geo": {"lon": 2.2853431485432423, "lat": 48.821707715257055}, "nom_arrondissement_communes": "Vanves", "code_insee_commune": null}, {"stationcode": "15203", "name": "Porte de Versailles", "is_installed": "OUI", "capacity": 28, "numdocksavailable": 5, "numbikesavailable": 23, "mechanical": 20, "ebike": 3, "is_renting": "OUI", "is_returning": "OUI", "duedate": "2024-06-16T04:53:28+00:00", "coordonnees_geo": {"lon": 2.2875617349045, "lat": 48.832324016657}, "nom_arrondissement_communes": "Paris", "code_insee_commune": null}, {"stationcode": "19006", "name": "Mathis - Flandre", "is_installed": "OUI", "capacity": 55, "numdocksavailable": 36, "numbikesavailable": 19, "mechanical": 6, "ebike": 13, "is_renting": "OUI", "is_returning": "OUI", "duedate": "2024-06-16T04:53:14+00:00", "coordonnees_geo": {"lon": 2.3762554675340652, "lat": 48.8906429898976}, "nom_arrondissement_communes": "Paris", "code_insee_commune": null}, {"stationcode": "13024", "name": "Bobillot - Tolbiac", "is_installed": "OUI", "capacity": 33, "numdocksavailable": 4, "numbikesavailable": 27, "mechanical": 15, "ebike": 12, "is_renting": "OUI", "is_returning": "OUI", "duedate": "2024-06-16T04:52:29+00:00", "coordonnees_geo": {"lon": 2.350204177200794, "lat": 48.8255961335041}, "nom_arrondissement_communes": "Paris", "code_insee_commune": null}, {"stationcode": "13015", "name": "Chevaleret - Louise Weiss", "is_installed": "OUI", "capacity": 35, "numdocksavailable": 21, "numbikesavailable": 14, "mechanical": 12, "ebike": 2, "is_renting": "OUI", "is_returning": "OUI", "duedate": "2024-06-16T04:53:37+00:00", "coordonnees_geo": {"lon": 2.371211388119954, "lat": 48.83258651335057}, "nom_arrondissement_communes": "Paris", "code_insee_commune": null}, {"stationcode": "8018", "name": "Saint-Augustin", "is_installed": "OUI", "capacity": 31, "numdocksavailable": 25, "numbikesavailable": 6, "mechanical": 5, "ebike": 1, "is_renting": "OUI", "is_returning": "OUI", "duedate": "2024-06-16T04:53:37+00:00", "coordonnees_geo": {"lon": 2.319786250591278, "lat": 48.8762009747008}, "nom_arrondissement_communes": "Paris", "code_insee_commune": null}, {"stationcode": "23041", "name": "G\u00e9n\u00e9ral Leclerc - Bi\u00e8vre", "is_installed": "OUI", "capacity": 25, "numdocksavailable": 20, "numbikesavailable": 5, "mechanical": 2, "ebike": 3, "is_renting": "OUI", "is_returning": "OUI", "duedate": "2024-06-16T04:52:39+00:00", "coordonnees_geo": {"lon": 2.3166695237159733, "lat": 48.782414428747316}, "nom_arrondissement_communes": "Bourg-la-Reine", "code_insee_commune": null}, {"stationcode": "24005", "name": "Edith Cavell - Volta", "is_installed": "OUI", "capacity": 33, "numdocksavailable": 26, "numbikesavailable": 7, "mechanical": 1, "ebike": 6, "is_renting": "OUI", "is_returning": "OUI", "duedate": "2024-06-16T04:50:32+00:00", "coordonnees_geo": {"lon": 2.269354350864887, "lat": 48.901616564286975}, "nom_arrondissement_communes": "Courbevoie", "code_insee_commune": null}, {"stationcode": "8052", "name": "Balzac - Champs Elys\u00e9es", "is_installed": "OUI", "capacity": 30, "numdocksavailable": 28, "numbikesavailable": 2, "mechanical": 2, "ebike": 0, "is_renting": "OUI", "is_returning": "OUI", "duedate": "2024-06-16T04:45:41+00:00", "coordonnees_geo": {"lon": 2.3001953959465, "lat": 48.872699639621}, "nom_arrondissement_communes": "Paris", "code_insee_commune": null}, {"stationcode": "31104", "name": "Mairie de Rosny-sous-Bois", "is_installed": "OUI", "capacity": 30, "numdocksavailable": 17, "numbikesavailable": 12, "mechanical": 7, "ebike": 5, "is_renting": "OUI", "is_returning": "OUI", "duedate": "2024-06-16T04:53:49+00:00", "coordonnees_geo": {"lon": 2.4865807592869, "lat": 48.871256519012}, "nom_arrondissement_communes": "Rosny-sous-Bois", "code_insee_commune": null}, {"stationcode": "15069", "name": "F\u00e9lix Faure - Convention", "is_installed": "OUI", "capacity": 44, "numdocksavailable": 3, "numbikesavailable": 39, "mechanical": 34, "ebike": 5, "is_renting": "OUI", "is_returning": "OUI", "duedate": "2024-06-16T04:53:32+00:00", "coordonnees_geo": {"lon": 2.288386600849503, "lat": 48.841249336041045}, "nom_arrondissement_communes": "Paris", "code_insee_commune": null}, {"stationcode": "11111", "name": "L\u00e9on Frot - Charonne", "is_installed": "OUI", "capacity": 19, "numdocksavailable": 8, "numbikesavailable": 10, "mechanical": 9, "ebike": 1, "is_renting": "OUI", "is_returning": "OUI", "duedate": "2024-06-16T04:54:31+00:00", "coordonnees_geo": {"lon": 2.387217085372007, "lat": 48.854963800335234}, "nom_arrondissement_communes": "Paris", "code_insee_commune": null}, {"stationcode": "13006", "name": "Dum\u00e9ril - Jeanne d'Arc", "is_installed": "OUI", "capacity": 40, "numdocksavailable": 1, "numbikesavailable": 38, "mechanical": 32, "ebike": 6, "is_renting": "OUI", "is_returning": "OUI", "duedate": "2024-06-16T04:53:13+00:00", "coordonnees_geo": {"lon": 2.357108449556404, "lat": 48.83815160808658}, "nom_arrondissement_communes": "Paris", "code_insee_commune": null}, {"stationcode": "15012", "name": "Cambronne - Mademoiselle", "is_installed": "OUI", "capacity": 67, "numdocksavailable": 37, "numbikesavailable": 30, "mechanical": 25, "ebike": 5, "is_renting": "OUI", "is_returning": "OUI", "duedate": "2024-06-16T04:53:59+00:00", "coordonnees_geo": {"lon": 2.30230766886348, "lat": 48.843277330035214}, "nom_arrondissement_communes": "Paris", "code_insee_commune": null}, {"stationcode": "34010", "name": "H\u00f4tel de Ville de Saint-Ouen", "is_installed": "OUI", "capacity": 48, "numdocksavailable": 20, "numbikesavailable": 27, "mechanical": 17, "ebike": 10, "is_renting": "OUI", "is_returning": "OUI", "duedate": "2024-06-16T04:53:40+00:00", "coordonnees_geo": {"lon": 2.3340076807601, "lat": 48.911380185786}, "nom_arrondissement_communes": "Saint-Ouen-sur-Seine", "code_insee_commune": null}, {"stationcode": "15053", "name": "Lecourbe - Convention", "is_installed": "OUI", "capacity": 46, "numdocksavailable": 6, "numbikesavailable": 38, "mechanical": 31, "ebike": 7, "is_renting": "OUI", "is_returning": "OUI", "duedate": "2024-06-16T04:54:16+00:00", "coordonnees_geo": {"lon": 2.2915197908878326, "lat": 48.83923319241899}, "nom_arrondissement_communes": "Paris", "code_insee_commune": null}, {"stationcode": "10003", "name": "Hauteville - Bonne Nouvelle", "is_installed": "OUI", "capacity": 17, "numdocksavailable": 1, "numbikesavailable": 15, "mechanical": 12, "ebike": 3, "is_renting": "OUI", "is_returning": "OUI", "duedate": "2024-06-16T04:49:08+00:00", "coordonnees_geo": {"lon": 2.3496496368327, "lat": 48.87077436024}, "nom_arrondissement_communes": "Paris", "code_insee_commune": null}, {"stationcode": "41103", "name": "Place de la vache noire", "is_installed": "OUI", "capacity": 25, "numdocksavailable": 15, "numbikesavailable": 9, "mechanical": 2, "ebike": 7, "is_renting": "OUI", "is_returning": "OUI", "duedate": "2024-06-16T04:47:40+00:00", "coordonnees_geo": {"lon": 2.327060401439667, "lat": 48.81040517059777}, "nom_arrondissement_communes": "Arcueil", "code_insee_commune": null}, {"stationcode": "41602", "name": "Place Charles Digeon", "is_installed": "OUI", "capacity": 32, "numdocksavailable": 21, "numbikesavailable": 10, "mechanical": 8, "ebike": 2, "is_renting": "OUI", "is_returning": "OUI", "duedate": "2024-06-16T04:53:46+00:00", "coordonnees_geo": {"lon": 2.418427169322968, "lat": 48.84354203133597}, "nom_arrondissement_communes": "Saint-Mand\u00e9", "code_insee_commune": null}, {"stationcode": "42303", "name": "Place Eustache Deschamps", "is_installed": "OUI", "capacity": 20, "numdocksavailable": 3, "numbikesavailable": 17, "mechanical": 12, "ebike": 5, "is_renting": "OUI", "is_returning": "OUI", "duedate": "2024-06-16T04:54:14+00:00", "coordonnees_geo": {"lon": 2.336637, "lat": 48.793855}, "nom_arrondissement_communes": "Cachan", "code_insee_commune": null}, {"stationcode": "48002", "name": "LCL Campus - Place Oscar Niemeyer", "is_installed": "OUI", "capacity": 37, "numdocksavailable": 14, "numbikesavailable": 21, "mechanical": 5, "ebike": 16, "is_renting": "OUI", "is_returning": "OUI", "duedate": "2024-06-16T04:54:12+00:00", "coordonnees_geo": {"lon": 2.363983690738678, "lat": 48.805342480621576}, "nom_arrondissement_communes": "Villejuif", "code_insee_commune": null}, {"stationcode": "20012", "name": "Buzenval - Vignoles", "is_installed": "OUI", "capacity": 17, "numdocksavailable": 14, "numbikesavailable": 2, "mechanical": 1, "ebike": 1, "is_renting": "OUI", "is_returning": "OUI", "duedate": "2024-06-16T04:46:49+00:00", "coordonnees_geo": {"lon": 2.400004081428051, "lat": 48.85385817168762}, "nom_arrondissement_communes": "Paris", "code_insee_commune": null}, {"stationcode": "35013", "name": "Guillaume Tell - Parc Henri Barbusse", "is_installed": "OUI", "capacity": 20, "numdocksavailable": 11, "numbikesavailable": 9, "mechanical": 1, "ebike": 8, "is_renting": "OUI", "is_returning": "OUI", "duedate": "2024-06-16T04:54:18+00:00", "coordonnees_geo": {"lon": 2.4198862910270695, "lat": 48.88958925894009}, "nom_arrondissement_communes": "Pantin", "code_insee_commune": null}, {"stationcode": "20020", "name": "Pyr\u00e9n\u00e9es - Charles Renouvier", "is_installed": "OUI", "capacity": 29, "numdocksavailable": 24, "numbikesavailable": 5, "mechanical": 2, "ebike": 3, "is_renting": "OUI", "is_returning": "OUI", "duedate": "2024-06-16T04:54:24+00:00", "coordonnees_geo": {"lon": 2.400421852042113, "lat": 48.86095933229224}, "nom_arrondissement_communes": "Paris", "code_insee_commune": null}, {"stationcode": "12008", "name": "Hector Malot - Daumesnil", "is_installed": "OUI", "capacity": 54, "numdocksavailable": 38, "numbikesavailable": 15, "mechanical": 14, "ebike": 1, "is_renting": "OUI", "is_returning": "OUI", "duedate": "2024-06-16T04:54:31+00:00", "coordonnees_geo": {"lon": 2.3770876228809357, "lat": 48.84693552991762}, "nom_arrondissement_communes": "Paris", "code_insee_commune": null}, {"stationcode": "12102", "name": "Bercy - Traversi\u00e9re", "is_installed": "OUI", "capacity": 30, "numdocksavailable": 11, "numbikesavailable": 18, "mechanical": 17, "ebike": 1, "is_renting": "OUI", "is_returning": "OUI", "duedate": "2024-06-16T04:54:33+00:00", "coordonnees_geo": {"lon": 2.3703800886869, "lat": 48.846192642574}, "nom_arrondissement_communes": "Paris", "code_insee_commune": null}, {"stationcode": "15024", "name": "Suffren - La Motte-Piquet", "is_installed": "OUI", "capacity": 23, "numdocksavailable": 16, "numbikesavailable": 5, "mechanical": 2, "ebike": 3, "is_renting": "OUI", "is_returning": "OUI", "duedate": "2024-06-16T04:52:19+00:00", "coordonnees_geo": {"lon": 2.3012199997902, "lat": 48.850881230919}, "nom_arrondissement_communes": "Paris", "code_insee_commune": null}, {"stationcode": "12119", "name": "Dom-P\u00e9rignon - Gravelle", "is_installed": "OUI", "capacity": 50, "numdocksavailable": 13, "numbikesavailable": 34, "mechanical": 21, "ebike": 13, "is_renting": "OUI", "is_returning": "OUI", "duedate": "2024-06-16T04:53:31+00:00", "coordonnees_geo": {"lon": 2.409880310297, "lat": 48.825481574435}, "nom_arrondissement_communes": "Paris", "code_insee_commune": null}, {"stationcode": "43007", "name": "H\u00f4tel de Ville de Vincennes", "is_installed": "OUI", "capacity": 27, "numdocksavailable": 22, "numbikesavailable": 5, "mechanical": 1, "ebike": 4, "is_renting": "OUI", "is_returning": "OUI", "duedate": "2024-06-16T04:54:16+00:00", "coordonnees_geo": {"lon": 2.4398955702781677, "lat": 48.84827609706963}, "nom_arrondissement_communes": "Vincennes", "code_insee_commune": null}, {"stationcode": "20032", "name": "Square des Amandiers", "is_installed": "OUI", "capacity": 12, "numdocksavailable": 5, "numbikesavailable": 7, "mechanical": 5, "ebike": 2, "is_renting": "OUI", "is_returning": "OUI", "duedate": "2024-06-16T04:54:25+00:00", "coordonnees_geo": {"lon": 2.3891324177384377, "lat": 48.86615630668046}, "nom_arrondissement_communes": "Paris", "code_insee_commune": null}, {"stationcode": "15050", "name": "Dominique Pado - Croix Nivert", "is_installed": "OUI", "capacity": 22, "numdocksavailable": 0, "numbikesavailable": 22, "mechanical": 16, "ebike": 6, "is_renting": "OUI", "is_returning": "OUI", "duedate": "2024-06-16T04:53:36+00:00", "coordonnees_geo": {"lon": 2.2897250577807426, "lat": 48.83648798164934}, "nom_arrondissement_communes": "Paris", "code_insee_commune": null}, {"stationcode": "13036", "name": "Olympiades", "is_installed": "OUI", "capacity": 36, "numdocksavailable": 26, "numbikesavailable": 9, "mechanical": 2, "ebike": 7, "is_renting": "OUI", "is_returning": "OUI", "duedate": "2024-06-16T04:47:53+00:00", "coordonnees_geo": {"lon": 2.3650860786438, "lat": 48.826764665199}, "nom_arrondissement_communes": "Paris", "code_insee_commune": null}, {"stationcode": "16017", "name": "Siam - La Pompe", "is_installed": "OUI", "capacity": 16, "numdocksavailable": 13, "numbikesavailable": 3, "mechanical": 0, "ebike": 3, "is_renting": "OUI", "is_returning": "OUI", "duedate": "2024-06-16T04:47:57+00:00", "coordonnees_geo": {"lon": 2.275346568555312, "lat": 48.861720329027264}, "nom_arrondissement_communes": "Paris", "code_insee_commune": null}, {"stationcode": "20013", "name": "Alexandre Dumas - Place de la R\u00e9union", "is_installed": "OUI", "capacity": 45, "numdocksavailable": 23, "numbikesavailable": 22, "mechanical": 11, "ebike": 11, "is_renting": "OUI", "is_returning": "OUI", "duedate": "2024-06-16T04:54:11+00:00", "coordonnees_geo": {"lon": 2.3997703687646292, "lat": 48.85533710742046}, "nom_arrondissement_communes": "Paris", "code_insee_commune": null}, {"stationcode": "7023", "name": "Bourdonnais - Tour Eiffel", "is_installed": "OUI", "capacity": 60, "numdocksavailable": 18, "numbikesavailable": 39, "mechanical": 35, "ebike": 4, "is_renting": "OUI", "is_returning": "OUI", "duedate": "2024-06-16T04:53:37+00:00", "coordonnees_geo": {"lon": 2.295599598447, "lat": 48.860897797941}, "nom_arrondissement_communes": "Paris", "code_insee_commune": null}, {"stationcode": "15045", "name": "Porte de la Plaine", "is_installed": "OUI", "capacity": 35, "numdocksavailable": 34, "numbikesavailable": 1, "mechanical": 0, "ebike": 1, "is_renting": "OUI", "is_returning": "OUI", "duedate": "2024-06-16T04:46:48+00:00", "coordonnees_geo": {"lon": 2.2924277186393742, "lat": 48.82805169605981}, "nom_arrondissement_communes": "Paris", "code_insee_commune": null}, {"stationcode": "15027", "name": "Duhamel - Andr\u00e9 Gide", "is_installed": "OUI", "capacity": 20, "numdocksavailable": 11, "numbikesavailable": 9, "mechanical": 1, "ebike": 8, "is_renting": "OUI", "is_returning": "OUI", "duedate": "2024-06-16T04:53:05+00:00", "coordonnees_geo": {"lon": 2.312707121097412, "lat": 48.8365662244334}, "nom_arrondissement_communes": "Paris", "code_insee_commune": null}, {"stationcode": "21023", "name": "Ancienne Mairie - Andr\u00e9 Morizet", "is_installed": "OUI", "capacity": 25, "numdocksavailable": 18, "numbikesavailable": 7, "mechanical": 5, "ebike": 2, "is_renting": "OUI", "is_returning": "OUI", "duedate": "2024-06-16T04:53:52+00:00", "coordonnees_geo": {"lon": 2.234077, "lat": 48.838311}, "nom_arrondissement_communes": "Boulogne-Billancourt", "code_insee_commune": null}, {"stationcode": "43004", "name": "Montreuil - R\u00e9publique", "is_installed": "OUI", "capacity": 25, "numdocksavailable": 19, "numbikesavailable": 5, "mechanical": 3, "ebike": 2, "is_renting": "OUI", "is_returning": "OUI", "duedate": "2024-06-16T04:47:03+00:00", "coordonnees_geo": {"lon": 2.4345204234123234, "lat": 48.85026349463687}, "nom_arrondissement_communes": "Vincennes", "code_insee_commune": null}, {"stationcode": "22701", "name": "G\u00e9n\u00e9ral Leclerc - R\u00e9publique", "is_installed": "OUI", "capacity": 30, "numdocksavailable": 3, "numbikesavailable": 27, "mechanical": 16, "ebike": 11, "is_renting": "OUI", "is_returning": "OUI", "duedate": "2024-06-16T04:51:48+00:00", "coordonnees_geo": {"lon": 2.2682306702811, "lat": 48.915885074177}, "nom_arrondissement_communes": "Bois-Colombes", "code_insee_commune": null}, {"stationcode": "31701", "name": "Mairie de Bagnolet", "is_installed": "OUI", "capacity": 28, "numdocksavailable": 3, "numbikesavailable": 22, "mechanical": 0, "ebike": 22, "is_renting": "OUI", "is_returning": "OUI", "duedate": "2024-06-16T04:49:56+00:00", "coordonnees_geo": {"lon": 2.4179587885737, "lat": 48.868421318555}, "nom_arrondissement_communes": "Bagnolet", "code_insee_commune": null}, {"stationcode": "22404", "name": "Pierre Brossolette - 12 F\u00e9vrier 1934", "is_installed": "OUI", "capacity": 25, "numdocksavailable": 12, "numbikesavailable": 13, "mechanical": 1, "ebike": 12, "is_renting": "OUI", "is_returning": "OUI", "duedate": "2024-06-16T04:49:42+00:00", "coordonnees_geo": {"lon": 2.3076123744249344, "lat": 48.8176962416867}, "nom_arrondissement_communes": "Malakoff", "code_insee_commune": null}, {"stationcode": "20014", "name": "Charonne - Alexandre Dumas", "is_installed": "OUI", "capacity": 35, "numdocksavailable": 30, "numbikesavailable": 3, "mechanical": 1, "ebike": 2, "is_renting": "OUI", "is_returning": "OUI", "duedate": "2024-06-16T04:44:49+00:00", "coordonnees_geo": {"lon": 2.3948693275452, "lat": 48.856077415056}, "nom_arrondissement_communes": "Paris", "code_insee_commune": null}, {"stationcode": "8007", "name": "Rome - Provence", "is_installed": "OUI", "capacity": 30, "numdocksavailable": 15, "numbikesavailable": 15, "mechanical": 14, "ebike": 1, "is_renting": "OUI", "is_returning": "OUI", "duedate": "2024-06-16T04:53:27+00:00", "coordonnees_geo": {"lon": 2.325570111724113, "lat": 48.874230055580306}, "nom_arrondissement_communes": "Paris", "code_insee_commune": null}, {"stationcode": "21218", "name": "Gabriel P\u00e9ri - Place de la Lib\u00e9ration", "is_installed": "OUI", "capacity": 18, "numdocksavailable": 6, "numbikesavailable": 11, "mechanical": 3, "ebike": 8, "is_renting": "OUI", "is_returning": "OUI", "duedate": "2024-06-16T04:49:30+00:00", "coordonnees_geo": {"lon": 2.3117361743705, "lat": 48.819828421929}, "nom_arrondissement_communes": "Montrouge", "code_insee_commune": null}, {"stationcode": "21207", "name": "Verdier - R\u00e9publique", "is_installed": "OUI", "capacity": 29, "numdocksavailable": 23, "numbikesavailable": 6, "mechanical": 1, "ebike": 5, "is_renting": "OUI", "is_returning": "OUI", "duedate": "2024-06-16T04:48:40+00:00", "coordonnees_geo": {"lon": 2.31739372015, "lat": 48.815403766277}, "nom_arrondissement_communes": "Montrouge", "code_insee_commune": null}]