[{"stationcode": "8549", "name": "George V - Christophe Colomb", "is_installed": "OUI", "capacity": 24, "numdocksavailable": 6, "numbikesavailable": 18, "mechanical": 6, "ebike": 12, "is_renting": "OUI", "is_returning": "OUI", "duedate": "2024-06-14T12:49:32+00:00", "coordonnees_geo": {"lon": 2.30104, "lat": 48.87046}, "nom_arrondissement_communes": "Paris", "code_insee_commune": null}, {"stationcode": "23902", "name": "Gallieni - Lyc\u00e9e Charles Petitet", "is_installed": "OUI", "capacity": 45, "numdocksavailable": 22, "numbikesavailable": 22, "mechanical": 17, "ebike": 5, "is_renting": "OUI", "is_returning": "OUI", "duedate": "2024-06-14T12:49:58+00:00", "coordonnees_geo": {"lon": 2.3308986340524, "lat": 48.927640283627}, "nom_arrondissement_communes": "Villeneuve-la-Garenne", "code_insee_commune": null}, {"stationcode": "13033", "name": "Porte d'Italie", "is_installed": "OUI", "capacity": 13, "numdocksavailable": 4, "numbikesavailable": 9, "mechanical": 7, "ebike": 2, "is_renting": "OUI", "is_returning": "OUI", "duedate": "2024-06-14T12:46:26+00:00", "coordonnees_geo": {"lon": 2.360236309468746, "lat": 48.817161987718954}, "nom_arrondissement_communes": "Paris", "code_insee_commune": null}, {"stationcode": "20122", "name": "Vitruve - Davout", "is_installed": "OUI", "capacity": 23, "numdocksavailable": 22, "numbikesavailable": 1, "mechanical": 1, "ebike": 0, "is_renting": "OUI", "is_returning": "OUI", "duedate": "2024-06-14T12:49:05+00:00", "coordonnees_geo": {"lon": 2.4091592812626543, "lat": 48.86053161154489}, "nom_arrondissement_communes": "Paris", "code_insee_commune": null}, {"stationcode": "4003", "name": "Quai aux Fleurs - Pont Saint-Louis", "is_installed": "OUI", "capacity": 21, "numdocksavailable": 12, "numbikesavailable": 9, "mechanical": 7, "ebike": 2, "is_renting": "OUI", "is_returning": "OUI", "duedate": "2024-06-14T12:44:47+00:00", "coordonnees_geo": {"lon": 2.352195717394352, "lat": 48.85291595620935}, "nom_arrondissement_communes": "Paris", "code_insee_commune": null}, {"stationcode": "14101", "name": "Gare Montparnasse - Edgar Quinet", "is_installed": "OUI", "capacity": 33, "numdocksavailable": 4, "numbikesavailable": 28, "mechanical": 10, "ebike": 18, "is_renting": "OUI", "is_returning": "OUI", "duedate": "2024-06-14T12:49:08+00:00", "coordonnees_geo": {"lon": 2.3233232282801, "lat": 48.841487851079}, "nom_arrondissement_communes": "Paris", "code_insee_commune": null}, {"stationcode": "17015", "name": "Place de L\u00e9vis", "is_installed": "OUI", "capacity": 48, "numdocksavailable": 43, "numbikesavailable": 5, "mechanical": 1, "ebike": 4, "is_renting": "OUI", "is_returning": "OUI", "duedate": "2024-06-14T12:48:41+00:00", "coordonnees_geo": {"lon": 2.3131933808326726, "lat": 48.883546851533254}, "nom_arrondissement_communes": "Paris", "code_insee_commune": null}, {"stationcode": "15023", "name": "La Motte-Picquet - Grenelle", "is_installed": "OUI", "capacity": 34, "numdocksavailable": 13, "numbikesavailable": 21, "mechanical": 21, "ebike": 0, "is_renting": "OUI", "is_returning": "OUI", "duedate": "2024-06-14T12:49:03+00:00", "coordonnees_geo": {"lon": 2.299347817897797, "lat": 48.84858321339195}, "nom_arrondissement_communes": "Paris", "code_insee_commune": null}, {"stationcode": "22501", "name": "Th\u00e9\u00e2tre de La Garenne", "is_installed": "OUI", "capacity": 20, "numdocksavailable": 18, "numbikesavailable": 2, "mechanical": 1, "ebike": 1, "is_renting": "OUI", "is_returning": "OUI", "duedate": "2024-06-14T12:42:31+00:00", "coordonnees_geo": {"lon": 2.2345951981176, "lat": 48.905658361454}, "nom_arrondissement_communes": "La Garenne-Colombes", "code_insee_commune": null}, {"stationcode": "4001", "name": "Arcole - Notre-Dame", "is_installed": "OUI", "capacity": 31, "numdocksavailable": 20, "numbikesavailable": 10, "mechanical": 8, "ebike": 2, "is_renting": "OUI", "is_returning": "OUI", "duedate": "2024-06-14T12:49:12+00:00", "coordonnees_geo": {"lon": 2.3493797332048, "lat": 48.853883541328}, "nom_arrondissement_communes": "Paris", "code_insee_commune": null}, {"stationcode": "23003", "name": "Pr\u00e9sident Wilson - Baudin", "is_installed": "OUI", "capacity": 28, "numdocksavailable": 18, "numbikesavailable": 10, "mechanical": 5, "ebike": 5, "is_renting": "OUI", "is_returning": "OUI", "duedate": "2024-06-14T12:46:34+00:00", "coordonnees_geo": {"lon": 2.2849336266517644, "lat": 48.89826887103676}, "nom_arrondissement_communes": "Levallois-Perret", "code_insee_commune": null}, {"stationcode": "14131", "name": "Jourdan - Monticelli", "is_installed": "OUI", "capacity": 30, "numdocksavailable": 28, "numbikesavailable": 1, "mechanical": 0, "ebike": 1, "is_renting": "OUI", "is_returning": "OUI", "duedate": "2024-06-14T12:45:26+00:00", "coordonnees_geo": {"lon": 2.329095, "lat": 48.822032}, "nom_arrondissement_communes": "Paris", "code_insee_commune": null}, {"stationcode": "17023", "name": "Porte d'Asni\u00e8res", "is_installed": "OUI", "capacity": 36, "numdocksavailable": 20, "numbikesavailable": 15, "mechanical": 11, "ebike": 4, "is_renting": "OUI", "is_returning": "OUI", "duedate": "2024-06-14T12:49:43+00:00", "coordonnees_geo": {"lon": 2.3036286234855656, "lat": 48.89035817610495}, "nom_arrondissement_communes": "Paris", "code_insee_commune": null}, {"stationcode": "4016", "name": "Lobau - H\u00f4tel de Ville", "is_installed": "OUI", "capacity": 60, "numdocksavailable": 0, "numbikesavailable": 58, "mechanical": 48, "ebike": 10, "is_renting": "OUI", "is_returning": "OUI", "duedate": "2024-06-14T12:49:51+00:00", "coordonnees_geo": {"lon": 2.3532536, "lat": 48.8562118}, "nom_arrondissement_communes": "Paris", "code_insee_commune": null}, {"stationcode": "17003", "name": "Jacques Kellner - Saint-Ouen", "is_installed": "OUI", "capacity": 45, "numdocksavailable": 37, "numbikesavailable": 8, "mechanical": 5, "ebike": 3, "is_renting": "OUI", "is_returning": "OUI", "duedate": "2024-06-14T12:47:49+00:00", "coordonnees_geo": {"lon": 2.327897409164145, "lat": 48.895809485802886}, "nom_arrondissement_communes": "Paris", "code_insee_commune": null}, {"stationcode": "42501", "name": "Raspail - Albert Schweitzer", "is_installed": "OUI", "capacity": 28, "numdocksavailable": 15, "numbikesavailable": 13, "mechanical": 10, "ebike": 3, "is_renting": "OUI", "is_returning": "OUI", "duedate": "2024-06-14T12:47:33+00:00", "coordonnees_geo": {"lon": 2.34395871, "lat": 48.81031545}, "nom_arrondissement_communes": "Gentilly", "code_insee_commune": null}, {"stationcode": "6008", "name": "Assas - Luxembourg", "is_installed": "OUI", "capacity": 33, "numdocksavailable": 9, "numbikesavailable": 24, "mechanical": 9, "ebike": 15, "is_renting": "OUI", "is_returning": "OUI", "duedate": "2024-06-14T12:49:34+00:00", "coordonnees_geo": {"lon": 2.3334283818759, "lat": 48.843734468779}, "nom_arrondissement_communes": "Paris", "code_insee_commune": null}, {"stationcode": "13109", "name": "Brillat-Savarin - K\u00fcss", "is_installed": "OUI", "capacity": 21, "numdocksavailable": 16, "numbikesavailable": 5, "mechanical": 5, "ebike": 0, "is_renting": "OUI", "is_returning": "OUI", "duedate": "2024-06-14T12:50:00+00:00", "coordonnees_geo": {"lon": 2.350422, "lat": 48.822203}, "nom_arrondissement_communes": "Paris", "code_insee_commune": null}, {"stationcode": "43001", "name": "Paris - Laiti\u00e8res", "is_installed": "OUI", "capacity": 22, "numdocksavailable": 14, "numbikesavailable": 7, "mechanical": 0, "ebike": 7, "is_renting": "OUI", "is_returning": "OUI", "duedate": "2024-06-14T12:46:44+00:00", "coordonnees_geo": {"lon": 2.4207553267478947, "lat": 48.84630274151258}, "nom_arrondissement_communes": "Vincennes", "code_insee_commune": null}, {"stationcode": "13106", "name": "Bobillot - Paulin Mery", "is_installed": "OUI", "capacity": 23, "numdocksavailable": 17, "numbikesavailable": 4, "mechanical": 1, "ebike": 3, "is_renting": "OUI", "is_returning": "OUI", "duedate": "2024-06-14T12:47:53+00:00", "coordonnees_geo": {"lon": 2.3543356766748507, "lat": 48.829899841747384}, "nom_arrondissement_communes": "Paris", "code_insee_commune": null}, {"stationcode": "9114", "name": "Faubourg Poissonni\u00e8re - Dunkerque", "is_installed": "OUI", "capacity": 30, "numdocksavailable": 29, "numbikesavailable": 1, "mechanical": 0, "ebike": 1, "is_renting": "OUI", "is_returning": "OUI", "duedate": "2024-06-14T12:48:57+00:00", "coordonnees_geo": {"lon": 2.349934279918671, "lat": 48.880883445404436}, "nom_arrondissement_communes": "Paris", "code_insee_commune": null}, {"stationcode": "16011", "name": "Victor Hugo - La Pompe", "is_installed": "OUI", "capacity": 41, "numdocksavailable": 35, "numbikesavailable": 6, "mechanical": 0, "ebike": 6, "is_renting": "OUI", "is_returning": "OUI", "duedate": "2024-06-14T12:45:59+00:00", "coordonnees_geo": {"lon": 2.28146318346262, "lat": 48.86795222470859}, "nom_arrondissement_communes": "Paris", "code_insee_commune": null}, {"stationcode": "35007", "name": "Benjamin Delessert - Jean Lolive", "is_installed": "OUI", "capacity": 21, "numdocksavailable": 19, "numbikesavailable": 2, "mechanical": 1, "ebike": 1, "is_renting": "OUI", "is_returning": "OUI", "duedate": "2024-06-14T12:45:49+00:00", "coordonnees_geo": {"lon": 2.417981922626496, "lat": 48.89392043619345}, "nom_arrondissement_communes": "Pantin", "code_insee_commune": null}, {"stationcode": "44101", "name": "Place Mongolfier", "is_installed": "OUI", "capacity": 39, "numdocksavailable": 4, "numbikesavailable": 35, "mechanical": 33, "ebike": 2, "is_renting": "OUI", "is_returning": "OUI", "duedate": "2024-06-14T12:49:43+00:00", "coordonnees_geo": {"lon": 2.4592879414558415, "lat": 48.815160030060376}, "nom_arrondissement_communes": "Saint-Maurice", "code_insee_commune": null}, {"stationcode": "10165", "name": "Gare de l'Est - Place du 11 Novembre 1918", "is_installed": "OUI", "capacity": 40, "numdocksavailable": 24, "numbikesavailable": 12, "mechanical": 4, "ebike": 8, "is_renting": "OUI", "is_returning": "OUI", "duedate": "2024-06-14T12:46:36+00:00", "coordonnees_geo": {"lon": 2.3585464, "lat": 48.876327}, "nom_arrondissement_communes": "Paris", "code_insee_commune": null}, {"stationcode": "6027", "name": "Blaise-Desgoffe - Vaugirard", "is_installed": "OUI", "capacity": 32, "numdocksavailable": 19, "numbikesavailable": 12, "mechanical": 7, "ebike": 5, "is_renting": "OUI", "is_returning": "OUI", "duedate": "2024-06-14T12:48:30+00:00", "coordonnees_geo": {"lon": 2.3242672160268, "lat": 48.846128877747}, "nom_arrondissement_communes": "Paris", "code_insee_commune": null}, {"stationcode": "18007", "name": "Goutte d'or - Barb\u00e8s", "is_installed": "OUI", "capacity": 20, "numdocksavailable": 15, "numbikesavailable": 4, "mechanical": 0, "ebike": 4, "is_renting": "OUI", "is_returning": "OUI", "duedate": "2024-06-14T12:49:18+00:00", "coordonnees_geo": {"lon": 2.3496962338686, "lat": 48.885124323627}, "nom_arrondissement_communes": "Paris", "code_insee_commune": null}, {"stationcode": "15005", "name": "Place Jacques et Th\u00e9r\u00e8se Tr\u00e9fou\u00ebl", "is_installed": "OUI", "capacity": 43, "numdocksavailable": 13, "numbikesavailable": 27, "mechanical": 22, "ebike": 5, "is_renting": "OUI", "is_returning": "OUI", "duedate": "2024-06-14T12:48:39+00:00", "coordonnees_geo": {"lon": 2.3125657439232, "lat": 48.842726498317}, "nom_arrondissement_communes": "Paris", "code_insee_commune": null}, {"stationcode": "18006", "name": "Square Louise Michel", "is_installed": "OUI", "capacity": 36, "numdocksavailable": 30, "numbikesavailable": 4, "mechanical": 0, "ebike": 4, "is_renting": "OUI", "is_returning": "OUI", "duedate": "2024-06-14T12:42:08+00:00", "coordonnees_geo": {"lon": 2.3441386967897, "lat": 48.884687354509}, "nom_arrondissement_communes": "Paris", "code_insee_commune": null}, {"stationcode": "21401", "name": "Mairie de Clamart", "is_installed": "OUI", "capacity": 33, "numdocksavailable": 29, "numbikesavailable": 3, "mechanical": 0, "ebike": 3, "is_renting": "OUI", "is_returning": "OUI", "duedate": "2024-06-14T12:49:04+00:00", "coordonnees_geo": {"lon": 2.262151, "lat": 48.800612}, "nom_arrondissement_communes": "Clamart", "code_insee_commune": null}, {"stationcode": "13044", "name": "Place Jeanne d'Arc", "is_installed": "OUI", "capacity": 36, "numdocksavailable": 27, "numbikesavailable": 9, "mechanical": 2, "ebike": 7, "is_renting": "OUI", "is_returning": "OUI", "duedate": "2024-06-14T12:49:08+00:00", "coordonnees_geo": {"lon": 2.369126, "lat": 48.829575}, "nom_arrondissement_communes": "Paris", "code_insee_commune": null}, {"stationcode": "9027", "name": "Douai - Pierre Fontaine", "is_installed": "OUI", "capacity": 25, "numdocksavailable": 23, "numbikesavailable": 2, "mechanical": 0, "ebike": 2, "is_renting": "OUI", "is_returning": "OUI", "duedate": "2024-06-14T12:49:42+00:00", "coordonnees_geo": {"lon": 2.33324121683836, "lat": 48.88229101148092}, "nom_arrondissement_communes": "Paris", "code_insee_commune": null}, {"stationcode": "16001", "name": "Portugais - Kl\u00e9ber", "is_installed": "OUI", "capacity": 26, "numdocksavailable": 22, "numbikesavailable": 4, "mechanical": 2, "ebike": 2, "is_renting": "OUI", "is_returning": "OUI", "duedate": "2024-06-14T12:45:04+00:00", "coordonnees_geo": {"lon": 2.2937349, "lat": 48.8712148}, "nom_arrondissement_communes": "Paris", "code_insee_commune": null}, {"stationcode": "8037", "name": "Monceau - Malesherbes", "is_installed": "OUI", "capacity": 38, "numdocksavailable": 30, "numbikesavailable": 7, "mechanical": 5, "ebike": 2, "is_renting": "OUI", "is_returning": "OUI", "duedate": "2024-06-14T12:49:14+00:00", "coordonnees_geo": {"lon": 2.3145456, "lat": 48.8795079}, "nom_arrondissement_communes": "Paris", "code_insee_commune": null}, {"stationcode": "11017", "name": "Charonne - Bureau", "is_installed": "OUI", "capacity": 47, "numdocksavailable": 43, "numbikesavailable": 3, "mechanical": 0, "ebike": 3, "is_renting": "OUI", "is_returning": "OUI", "duedate": "2024-06-14T12:46:49+00:00", "coordonnees_geo": {"lon": 2.396093, "lat": 48.854176}, "nom_arrondissement_communes": "Paris", "code_insee_commune": null}, {"stationcode": "33015", "name": "Charles Tillon - Cimeti\u00e8re Communal", "is_installed": "OUI", "capacity": 30, "numdocksavailable": 22, "numbikesavailable": 5, "mechanical": 2, "ebike": 3, "is_renting": "OUI", "is_returning": "OUI", "duedate": "2024-06-14T12:44:43+00:00", "coordonnees_geo": {"lon": 2.3935630917549138, "lat": 48.91844023641836}, "nom_arrondissement_communes": "Aubervilliers", "code_insee_commune": null}, {"stationcode": "7017", "name": "La Motte-Picquet - La Tour Maubourg", "is_installed": "OUI", "capacity": 40, "numdocksavailable": 9, "numbikesavailable": 29, "mechanical": 25, "ebike": 4, "is_renting": "OUI", "is_returning": "OUI", "duedate": "2024-06-14T12:49:20+00:00", "coordonnees_geo": {"lon": 2.3096215831203, "lat": 48.856926701847}, "nom_arrondissement_communes": "Paris", "code_insee_commune": null}, {"stationcode": "15311", "name": "Quai du Pr\u00e9sident Roosevelt - Pont Aval", "is_installed": "OUI", "capacity": 30, "numdocksavailable": 5, "numbikesavailable": 25, "mechanical": 16, "ebike": 9, "is_renting": "OUI", "is_returning": "OUI", "duedate": "2024-06-14T12:49:09+00:00", "coordonnees_geo": {"lon": 2.2656820714473724, "lat": 48.8343883676388}, "nom_arrondissement_communes": "Paris", "code_insee_commune": null}, {"stationcode": "35006", "name": "Delizy - Louis Nadot", "is_installed": "OUI", "capacity": 22, "numdocksavailable": 11, "numbikesavailable": 8, "mechanical": 3, "ebike": 5, "is_renting": "OUI", "is_returning": "OUI", "duedate": "2024-06-14T12:49:24+00:00", "coordonnees_geo": {"lon": 2.4094578623771667, "lat": 48.896212845581346}, "nom_arrondissement_communes": "Pantin", "code_insee_commune": null}, {"stationcode": "22015", "name": "\u00cele de la Jatte", "is_installed": "OUI", "capacity": 23, "numdocksavailable": 8, "numbikesavailable": 14, "mechanical": 6, "ebike": 8, "is_renting": "OUI", "is_returning": "OUI", "duedate": "2024-06-14T12:49:06+00:00", "coordonnees_geo": {"lon": 2.2666339203715324, "lat": 48.894036161302104}, "nom_arrondissement_communes": "Neuilly-sur-Seine", "code_insee_commune": null}, {"stationcode": "12018", "name": "Saint-Mand\u00e9 - Fabre d'Eglantine", "is_installed": "OUI", "capacity": 34, "numdocksavailable": 9, "numbikesavailable": 23, "mechanical": 3, "ebike": 20, "is_renting": "OUI", "is_returning": "OUI", "duedate": "2024-06-14T12:48:56+00:00", "coordonnees_geo": {"lon": 2.3965022, "lat": 48.8453579}, "nom_arrondissement_communes": "Paris", "code_insee_commune": null}, {"stationcode": "17111", "name": "Lemercier - Cardinet", "is_installed": "OUI", "capacity": 24, "numdocksavailable": 17, "numbikesavailable": 6, "mechanical": 5, "ebike": 1, "is_renting": "OUI", "is_returning": "OUI", "duedate": "2024-06-14T12:49:25+00:00", "coordonnees_geo": {"lon": 2.317377626895905, "lat": 48.890097168851746}, "nom_arrondissement_communes": "Paris", "code_insee_commune": null}, {"stationcode": "44005", "name": "Place Saint-Just", "is_installed": "OUI", "capacity": 22, "numdocksavailable": 14, "numbikesavailable": 8, "mechanical": 1, "ebike": 7, "is_renting": "OUI", "is_returning": "OUI", "duedate": "2024-06-14T12:47:48+00:00", "coordonnees_geo": {"lon": 2.3895226791501045, "lat": 48.790379518724265}, "nom_arrondissement_communes": "Vitry-sur-Seine", "code_insee_commune": null}, {"stationcode": "17119", "name": "Toqueville - Cardinet", "is_installed": "OUI", "capacity": 33, "numdocksavailable": 31, "numbikesavailable": 2, "mechanical": 0, "ebike": 2, "is_renting": "OUI", "is_returning": "OUI", "duedate": "2024-06-14T12:45:54+00:00", "coordonnees_geo": {"lon": 2.3109393194317818, "lat": 48.88490187110713}, "nom_arrondissement_communes": "Paris", "code_insee_commune": null}, {"stationcode": "51002", "name": "Placette Gr\u00e9goire Collas", "is_installed": "OUI", "capacity": 25, "numdocksavailable": 22, "numbikesavailable": 3, "mechanical": 2, "ebike": 1, "is_renting": "OUI", "is_returning": "OUI", "duedate": "2024-06-14T12:46:37+00:00", "coordonnees_geo": {"lon": 2.2487476095557213, "lat": 48.94342014002797}, "nom_arrondissement_communes": "Argenteuil", "code_insee_commune": null}, {"stationcode": "4021", "name": "Centre Georges Pompidou", "is_installed": "OUI", "capacity": 26, "numdocksavailable": 4, "numbikesavailable": 21, "mechanical": 6, "ebike": 15, "is_renting": "OUI", "is_returning": "OUI", "duedate": "2024-06-14T12:49:57+00:00", "coordonnees_geo": {"lon": 2.352581, "lat": 48.861419}, "nom_arrondissement_communes": "Paris", "code_insee_commune": null}, {"stationcode": "12026", "name": "Place Ginette Hamelin", "is_installed": "OUI", "capacity": 51, "numdocksavailable": 4, "numbikesavailable": 47, "mechanical": 42, "ebike": 5, "is_renting": "OUI", "is_returning": "OUI", "duedate": "2024-06-14T12:49:27+00:00", "coordonnees_geo": {"lon": 2.382064, "lat": 48.837853}, "nom_arrondissement_communes": "Paris", "code_insee_commune": null}, {"stationcode": "17123", "name": "Mstislav Rostropovitch - Berthier", "is_installed": "OUI", "capacity": 18, "numdocksavailable": 13, "numbikesavailable": 5, "mechanical": 3, "ebike": 2, "is_renting": "OUI", "is_returning": "OUI", "duedate": "2024-06-14T12:47:17+00:00", "coordonnees_geo": {"lon": 2.309234105050564, "lat": 48.892120821173975}, "nom_arrondissement_communes": "Paris", "code_insee_commune": null}, {"stationcode": "13009", "name": "Auguste Blanqui - Corvisart", "is_installed": "OUI", "capacity": 26, "numdocksavailable": 25, "numbikesavailable": 1, "mechanical": 1, "ebike": 0, "is_renting": "OUI", "is_returning": "OUI", "duedate": "2024-06-14T12:42:30+00:00", "coordonnees_geo": {"lon": 2.3502726, "lat": 48.8300989}, "nom_arrondissement_communes": "Paris", "code_insee_commune": null}, {"stationcode": "27005", "name": "Gare du Stade", "is_installed": "OUI", "capacity": 20, "numdocksavailable": 9, "numbikesavailable": 9, "mechanical": 9, "ebike": 0, "is_renting": "OUI", "is_returning": "OUI", "duedate": "2024-06-14T12:49:49+00:00", "coordonnees_geo": {"lon": 2.2603778, "lat": 48.9312676}, "nom_arrondissement_communes": "Colombes", "code_insee_commune": null}, {"stationcode": "9024", "name": "Taitbout - La Fayette", "is_installed": "OUI", "capacity": 53, "numdocksavailable": 22, "numbikesavailable": 30, "mechanical": 18, "ebike": 12, "is_renting": "OUI", "is_returning": "OUI", "duedate": "2024-06-14T12:49:36+00:00", "coordonnees_geo": {"lon": 2.3352625966072, "lat": 48.8733298892}, "nom_arrondissement_communes": "Paris", "code_insee_commune": null}, {"stationcode": "8201", "name": "Ars\u00e8ne Houssaye - Friedland", "is_installed": "OUI", "capacity": 29, "numdocksavailable": 22, "numbikesavailable": 7, "mechanical": 1, "ebike": 6, "is_renting": "OUI", "is_returning": "OUI", "duedate": "2024-06-14T12:45:30+00:00", "coordonnees_geo": {"lon": 2.2994716674148, "lat": 48.874510616163}, "nom_arrondissement_communes": "Paris", "code_insee_commune": null}, {"stationcode": "9102", "name": "Londres - Place d'Estienne d'Orves", "is_installed": "OUI", "capacity": 25, "numdocksavailable": 11, "numbikesavailable": 13, "mechanical": 9, "ebike": 4, "is_renting": "OUI", "is_returning": "OUI", "duedate": "2024-06-14T12:50:00+00:00", "coordonnees_geo": {"lon": 2.3305362090468407, "lat": 48.876693805756986}, "nom_arrondissement_communes": "Paris", "code_insee_commune": null}, {"stationcode": "8116", "name": "Champs-Elysees - Bassano", "is_installed": "OUI", "capacity": 25, "numdocksavailable": 25, "numbikesavailable": 0, "mechanical": 0, "ebike": 0, "is_renting": "NON", "is_returning": "NON", "duedate": "2021-02-21T19:09:18+00:00", "coordonnees_geo": {"lon": 2.300238981843, "lat": 48.871811807816}, "nom_arrondissement_communes": "Paris", "code_insee_commune": null}, {"stationcode": "18030", "name": "Joseph Dijon - Ornano", "is_installed": "OUI", "capacity": 37, "numdocksavailable": 32, "numbikesavailable": 4, "mechanical": 1, "ebike": 3, "is_renting": "OUI", "is_returning": "OUI", "duedate": "2024-06-14T12:49:35+00:00", "coordonnees_geo": {"lon": 2.3476678133010864, "lat": 48.89374453351521}, "nom_arrondissement_communes": "Paris", "code_insee_commune": null}, {"stationcode": "92006", "name": "Place Nelson Mandela", "is_installed": "OUI", "capacity": 30, "numdocksavailable": 24, "numbikesavailable": 4, "mechanical": 2, "ebike": 2, "is_renting": "OUI", "is_returning": "OUI", "duedate": "2024-06-14T12:42:12+00:00", "coordonnees_geo": {"lon": 2.2182820737361912, "lat": 48.897874318180556}, "nom_arrondissement_communes": "Nanterre", "code_insee_commune": null}, {"stationcode": "5024", "name": "Place Monge", "is_installed": "OUI", "capacity": 21, "numdocksavailable": 10, "numbikesavailable": 10, "mechanical": 1, "ebike": 9, "is_renting": "OUI", "is_returning": "OUI", "duedate": "2024-06-14T12:49:53+00:00", "coordonnees_geo": {"lon": 2.3524079471827, "lat": 48.842761803051}, "nom_arrondissement_communes": "Paris", "code_insee_commune": null}, {"stationcode": "31005", "name": "Square Denise Buisson", "is_installed": "OUI", "capacity": 45, "numdocksavailable": 41, "numbikesavailable": 2, "mechanical": 2, "ebike": 0, "is_renting": "OUI", "is_returning": "OUI", "duedate": "2024-06-14T12:48:20+00:00", "coordonnees_geo": {"lon": 2.426436245441437, "lat": 48.8562322730982}, "nom_arrondissement_communes": "Montreuil", "code_insee_commune": null}, {"stationcode": "12038", "name": "Picpus - Louis Braille", "is_installed": "OUI", "capacity": 44, "numdocksavailable": 39, "numbikesavailable": 5, "mechanical": 3, "ebike": 2, "is_renting": "OUI", "is_returning": "OUI", "duedate": "2024-06-14T12:49:44+00:00", "coordonnees_geo": {"lon": 2.4005256685521, "lat": 48.839988788912}, "nom_arrondissement_communes": "Paris", "code_insee_commune": null}, {"stationcode": "12005", "name": "Crozatier - Faubourg Saint-Antoine", "is_installed": "OUI", "capacity": 42, "numdocksavailable": 7, "numbikesavailable": 33, "mechanical": 29, "ebike": 4, "is_renting": "OUI", "is_returning": "OUI", "duedate": "2024-06-14T12:49:00+00:00", "coordonnees_geo": {"lon": 2.378901366211, "lat": 48.850440013405}, "nom_arrondissement_communes": "Paris", "code_insee_commune": null}, {"stationcode": "13516", "name": "Glaci\u00e8re - Soeur Catherine Marie", "is_installed": "OUI", "capacity": 40, "numdocksavailable": 36, "numbikesavailable": 2, "mechanical": 1, "ebike": 1, "is_renting": "OUI", "is_returning": "OUI", "duedate": "2024-06-14T12:47:57+00:00", "coordonnees_geo": {"lon": 2.343570403754711, "lat": 48.829522989420596}, "nom_arrondissement_communes": "Paris", "code_insee_commune": null}, {"stationcode": "12155", "name": "Rottembourg - G\u00e9n\u00e9ral Michel Bizot", "is_installed": "OUI", "capacity": 43, "numdocksavailable": 23, "numbikesavailable": 19, "mechanical": 17, "ebike": 2, "is_renting": "OUI", "is_returning": "OUI", "duedate": "2024-06-14T12:48:49+00:00", "coordonnees_geo": {"lon": 2.4044052511453633, "lat": 48.83787825992554}, "nom_arrondissement_communes": "Paris", "code_insee_commune": null}, {"stationcode": "9011", "name": "Geoffroy - Marie", "is_installed": "OUI", "capacity": 20, "numdocksavailable": 1, "numbikesavailable": 19, "mechanical": 9, "ebike": 10, "is_renting": "OUI", "is_returning": "OUI", "duedate": "2024-06-14T12:48:33+00:00", "coordonnees_geo": {"lon": 2.344513876337893, "lat": 48.873781940593325}, "nom_arrondissement_communes": "Paris", "code_insee_commune": null}, {"stationcode": "13025", "name": "Place de Rungis", "is_installed": "OUI", "capacity": 32, "numdocksavailable": 25, "numbikesavailable": 4, "mechanical": 2, "ebike": 2, "is_renting": "OUI", "is_returning": "OUI", "duedate": "2024-06-14T12:49:38+00:00", "coordonnees_geo": {"lon": 2.347382729482953, "lat": 48.82245594764965}, "nom_arrondissement_communes": "Paris", "code_insee_commune": null}, {"stationcode": "9034", "name": "Godot de Mauroy - Madeleine", "is_installed": "OUI", "capacity": 22, "numdocksavailable": 5, "numbikesavailable": 17, "mechanical": 7, "ebike": 10, "is_renting": "OUI", "is_returning": "OUI", "duedate": "2024-06-14T12:47:53+00:00", "coordonnees_geo": {"lon": 2.326347, "lat": 48.869789}, "nom_arrondissement_communes": "Paris", "code_insee_commune": null}, {"stationcode": "12035", "name": "Madagascar - Meuniers", "is_installed": "OUI", "capacity": 33, "numdocksavailable": 24, "numbikesavailable": 8, "mechanical": 5, "ebike": 3, "is_renting": "OUI", "is_returning": "OUI", "duedate": "2024-06-14T12:47:53+00:00", "coordonnees_geo": {"lon": 2.3970650508999825, "lat": 48.83460464474706}, "nom_arrondissement_communes": "Paris", "code_insee_commune": null}, {"stationcode": "10021", "name": "March\u00e9 Saint-Quentin", "is_installed": "OUI", "capacity": 15, "numdocksavailable": 13, "numbikesavailable": 1, "mechanical": 0, "ebike": 1, "is_renting": "OUI", "is_returning": "OUI", "duedate": "2024-06-14T12:44:46+00:00", "coordonnees_geo": {"lon": 2.3545114456374, "lat": 48.877356057652}, "nom_arrondissement_communes": "Paris", "code_insee_commune": null}, {"stationcode": "41211", "name": "Louis Xavier de Ricard - Ancienne Mairie", "is_installed": "OUI", "capacity": 34, "numdocksavailable": 31, "numbikesavailable": 3, "mechanical": 1, "ebike": 2, "is_renting": "OUI", "is_returning": "OUI", "duedate": "2024-06-14T12:49:16+00:00", "coordonnees_geo": {"lon": 2.472420372068882, "lat": 48.84629899065091}, "nom_arrondissement_communes": "Fontenay-sous-Bois", "code_insee_commune": null}, {"stationcode": "12101", "name": "Charenton - Prague", "is_installed": "OUI", "capacity": 26, "numdocksavailable": 10, "numbikesavailable": 16, "mechanical": 14, "ebike": 2, "is_renting": "OUI", "is_returning": "OUI", "duedate": "2024-06-14T12:49:51+00:00", "coordonnees_geo": {"lon": 2.3763584494312, "lat": 48.848175129981}, "nom_arrondissement_communes": "Paris", "code_insee_commune": null}, {"stationcode": "5001", "name": "Harpe - Saint-Germain", "is_installed": "OUI", "capacity": 45, "numdocksavailable": 8, "numbikesavailable": 37, "mechanical": 23, "ebike": 14, "is_renting": "OUI", "is_returning": "OUI", "duedate": "2024-06-14T12:49:15+00:00", "coordonnees_geo": {"lon": 2.3436703160405, "lat": 48.851518815017}, "nom_arrondissement_communes": "Paris", "code_insee_commune": null}, {"stationcode": "15129", "name": "H\u00f4pital Necker", "is_installed": "OUI", "capacity": 40, "numdocksavailable": 25, "numbikesavailable": 15, "mechanical": 14, "ebike": 1, "is_renting": "OUI", "is_returning": "OUI", "duedate": "2024-06-14T12:46:57+00:00", "coordonnees_geo": {"lon": 2.313245013356209, "lat": 48.846043490118454}, "nom_arrondissement_communes": "Paris", "code_insee_commune": null}, {"stationcode": "20015", "name": "Bagnolet - Orteaux", "is_installed": "OUI", "capacity": 36, "numdocksavailable": 35, "numbikesavailable": 1, "mechanical": 0, "ebike": 1, "is_renting": "OUI", "is_returning": "OUI", "duedate": "2024-06-14T12:47:57+00:00", "coordonnees_geo": {"lon": 2.3984125256538396, "lat": 48.85708641027236}, "nom_arrondissement_communes": "Paris", "code_insee_commune": null}, {"stationcode": "51001", "name": "Gare d'Argenteuil", "is_installed": "OUI", "capacity": 40, "numdocksavailable": 27, "numbikesavailable": 13, "mechanical": 12, "ebike": 1, "is_renting": "OUI", "is_returning": "OUI", "duedate": "2024-06-14T12:49:58+00:00", "coordonnees_geo": {"lon": 2.256898172199726, "lat": 48.947022436806705}, "nom_arrondissement_communes": "Argenteuil", "code_insee_commune": null}, {"stationcode": "8027", "name": "Mairie du 8\u00e8me", "is_installed": "OUI", "capacity": 14, "numdocksavailable": 9, "numbikesavailable": 4, "mechanical": 2, "ebike": 2, "is_renting": "OUI", "is_returning": "OUI", "duedate": "2024-06-14T12:49:26+00:00", "coordonnees_geo": {"lon": 2.318264, "lat": 48.877932}, "nom_arrondissement_communes": "Paris", "code_insee_commune": null}, {"stationcode": "15039", "name": "Abb\u00e9 Groult - Convention", "is_installed": "OUI", "capacity": 12, "numdocksavailable": 9, "numbikesavailable": 4, "mechanical": 3, "ebike": 1, "is_renting": "OUI", "is_returning": "OUI", "duedate": "2024-06-14T12:49:10+00:00", "coordonnees_geo": {"lon": 2.302064039509349, "lat": 48.83596927866069}, "nom_arrondissement_communes": "Paris", "code_insee_commune": null}, {"stationcode": "15006", "name": "Cherche-Midi - H\u00f4pital Necker", "is_installed": "OUI", "capacity": 38, "numdocksavailable": 22, "numbikesavailable": 16, "mechanical": 8, "ebike": 8, "is_renting": "OUI", "is_returning": "OUI", "duedate": "2024-06-14T12:49:30+00:00", "coordonnees_geo": {"lon": 2.317914068698883, "lat": 48.84461063309956}, "nom_arrondissement_communes": "Paris", "code_insee_commune": null}, {"stationcode": "21402", "name": "Place Aim\u00e9 C\u00e9saire", "is_installed": "OUI", "capacity": 27, "numdocksavailable": 26, "numbikesavailable": 1, "mechanical": 0, "ebike": 1, "is_renting": "OUI", "is_returning": "OUI", "duedate": "2024-06-14T12:49:19+00:00", "coordonnees_geo": {"lon": 2.2429127991199493, "lat": 48.783194713067815}, "nom_arrondissement_communes": "Clamart", "code_insee_commune": null}, {"stationcode": "41403", "name": "Gare RER - Malleret-Joinville", "is_installed": "OUI", "capacity": 20, "numdocksavailable": 8, "numbikesavailable": 12, "mechanical": 11, "ebike": 1, "is_renting": "OUI", "is_returning": "OUI", "duedate": "2024-06-14T12:48:36+00:00", "coordonnees_geo": {"lon": 2.42531, "lat": 48.802936}, "nom_arrondissement_communes": "Alfortville", "code_insee_commune": null}, {"stationcode": "13018", "name": "Bruant - Vincent Auriol", "is_installed": "OUI", "capacity": 25, "numdocksavailable": 6, "numbikesavailable": 18, "mechanical": 14, "ebike": 4, "is_renting": "OUI", "is_returning": "OUI", "duedate": "2024-06-14T12:49:27+00:00", "coordonnees_geo": {"lon": 2.3668264996271, "lat": 48.834848452929}, "nom_arrondissement_communes": "Paris", "code_insee_commune": null}, {"stationcode": "23102", "name": "H\u00f4tel de Ville de S\u00e8vres", "is_installed": "OUI", "capacity": 32, "numdocksavailable": 30, "numbikesavailable": 1, "mechanical": 0, "ebike": 1, "is_renting": "OUI", "is_returning": "OUI", "duedate": "2024-06-14T12:41:14+00:00", "coordonnees_geo": {"lon": 2.2131047397851944, "lat": 48.824363561288756}, "nom_arrondissement_communes": "S\u00e8vres", "code_insee_commune": null}, {"stationcode": "33014", "name": "Parc Eli Lotar", "is_installed": "OUI", "capacity": 20, "numdocksavailable": 6, "numbikesavailable": 14, "mechanical": 2, "ebike": 12, "is_renting": "OUI", "is_returning": "OUI", "duedate": "2024-06-14T12:49:38+00:00", "coordonnees_geo": {"lon": 2.3727085813879967, "lat": 48.91844993053703}, "nom_arrondissement_communes": "Aubervilliers", "code_insee_commune": null}, {"stationcode": "9007", "name": "Condorcet - Turgot", "is_installed": "OUI", "capacity": 20, "numdocksavailable": 15, "numbikesavailable": 4, "mechanical": 0, "ebike": 4, "is_renting": "OUI", "is_returning": "OUI", "duedate": "2024-06-14T12:48:53+00:00", "coordonnees_geo": {"lon": 2.345232367515564, "lat": 48.87985155789093}, "nom_arrondissement_communes": "Paris", "code_insee_commune": null}, {"stationcode": "13052", "name": "Leredde - Tolbiac", "is_installed": "OUI", "capacity": 44, "numdocksavailable": 6, "numbikesavailable": 38, "mechanical": 31, "ebike": 7, "is_renting": "OUI", "is_returning": "OUI", "duedate": "2024-06-14T12:48:30+00:00", "coordonnees_geo": {"lon": 2.3744382709265, "lat": 48.82887629664}, "nom_arrondissement_communes": "Paris", "code_insee_commune": null}, {"stationcode": "15036", "name": "Croix Nivert - Square Saint-Lambert", "is_installed": "OUI", "capacity": 47, "numdocksavailable": 7, "numbikesavailable": 39, "mechanical": 38, "ebike": 1, "is_renting": "OUI", "is_returning": "OUI", "duedate": "2024-06-14T12:48:35+00:00", "coordonnees_geo": {"lon": 2.295200452208519, "lat": 48.8430515215905}, "nom_arrondissement_communes": "Paris", "code_insee_commune": null}, {"stationcode": "20105", "name": "Beno\u00eet Frachon - R\u00e9publique", "is_installed": "OUI", "capacity": 30, "numdocksavailable": 19, "numbikesavailable": 11, "mechanical": 10, "ebike": 1, "is_renting": "OUI", "is_returning": "OUI", "duedate": "2024-06-14T12:47:59+00:00", "coordonnees_geo": {"lon": 2.415605485439301, "lat": 48.85230729014318}, "nom_arrondissement_communes": "Paris", "code_insee_commune": null}, {"stationcode": "33103", "name": "Jean Jaur\u00e8s - Jules Jacquemin", "is_installed": "OUI", "capacity": 24, "numdocksavailable": 21, "numbikesavailable": 2, "mechanical": 0, "ebike": 2, "is_renting": "OUI", "is_returning": "OUI", "duedate": "2024-06-14T12:49:36+00:00", "coordonnees_geo": {"lon": 2.4082902455152104, "lat": 48.88433053604843}, "nom_arrondissement_communes": "Le Pr\u00e9-Saint-Gervais", "code_insee_commune": null}, {"stationcode": "14011", "name": "Place des Droits de l'Enfant", "is_installed": "OUI", "capacity": 24, "numdocksavailable": 18, "numbikesavailable": 5, "mechanical": 1, "ebike": 4, "is_renting": "OUI", "is_returning": "OUI", "duedate": "2024-06-14T12:49:48+00:00", "coordonnees_geo": {"lon": 2.3319217, "lat": 48.8274804}, "nom_arrondissement_communes": "Paris", "code_insee_commune": null}, {"stationcode": "14031", "name": "Didot - Place de Moro-Giafferi", "is_installed": "OUI", "capacity": 22, "numdocksavailable": 20, "numbikesavailable": 2, "mechanical": 0, "ebike": 2, "is_renting": "OUI", "is_returning": "OUI", "duedate": "2024-06-14T12:46:45+00:00", "coordonnees_geo": {"lon": 2.3215, "lat": 48.8337}, "nom_arrondissement_communes": "Paris", "code_insee_commune": null}, {"stationcode": "16019", "name": "Porte de la Muette", "is_installed": "OUI", "capacity": 36, "numdocksavailable": 13, "numbikesavailable": 22, "mechanical": 3, "ebike": 19, "is_renting": "OUI", "is_returning": "OUI", "duedate": "2024-06-14T12:45:32+00:00", "coordonnees_geo": {"lon": 2.2687188170157406, "lat": 48.86302317841182}, "nom_arrondissement_communes": "Paris", "code_insee_commune": null}, {"stationcode": "33012", "name": "Landy - Heurtault", "is_installed": "OUI", "capacity": 30, "numdocksavailable": 23, "numbikesavailable": 6, "mechanical": 3, "ebike": 3, "is_renting": "OUI", "is_returning": "OUI", "duedate": "2024-06-14T12:49:11+00:00", "coordonnees_geo": {"lon": 2.375951372087002, "lat": 48.915096534520316}, "nom_arrondissement_communes": "Aubervilliers", "code_insee_commune": null}, {"stationcode": "10019", "name": "Paradis - Hauteville", "is_installed": "OUI", "capacity": 31, "numdocksavailable": 15, "numbikesavailable": 14, "mechanical": 8, "ebike": 6, "is_renting": "OUI", "is_returning": "OUI", "duedate": "2024-06-14T12:48:48+00:00", "coordonnees_geo": {"lon": 2.3522757401923404, "lat": 48.874999954666755}, "nom_arrondissement_communes": "Paris", "code_insee_commune": null}, {"stationcode": "11033", "name": "Br\u00e9guet - Sabin", "is_installed": "OUI", "capacity": 33, "numdocksavailable": 10, "numbikesavailable": 22, "mechanical": 21, "ebike": 1, "is_renting": "OUI", "is_returning": "OUI", "duedate": "2024-06-14T12:46:13+00:00", "coordonnees_geo": {"lon": 2.3706749462105, "lat": 48.856931678257}, "nom_arrondissement_communes": "Paris", "code_insee_commune": null}, {"stationcode": "41203", "name": "Stalingrad - Rigollots", "is_installed": "OUI", "capacity": 51, "numdocksavailable": 49, "numbikesavailable": 2, "mechanical": 0, "ebike": 2, "is_renting": "OUI", "is_returning": "OUI", "duedate": "2024-06-14T12:48:25+00:00", "coordonnees_geo": {"lon": 2.45557576417923, "lat": 48.84997403844251}, "nom_arrondissement_communes": "Fontenay-sous-Bois", "code_insee_commune": null}, {"stationcode": "10024", "name": "Buisson Saint-Louis - Saint-Maur", "is_installed": "OUI", "capacity": 19, "numdocksavailable": 14, "numbikesavailable": 4, "mechanical": 1, "ebike": 3, "is_renting": "OUI", "is_returning": "OUI", "duedate": "2024-06-14T12:44:59+00:00", "coordonnees_geo": {"lon": 2.372252832879, "lat": 48.871746849303}, "nom_arrondissement_communes": "Paris", "code_insee_commune": null}, {"stationcode": "18039", "name": "Jardins d'Eole", "is_installed": "OUI", "capacity": 20, "numdocksavailable": 19, "numbikesavailable": 1, "mechanical": 1, "ebike": 0, "is_renting": "OUI", "is_returning": "OUI", "duedate": "2024-06-14T12:42:37+00:00", "coordonnees_geo": {"lon": 2.3668488, "lat": 48.8869703}, "nom_arrondissement_communes": "Paris", "code_insee_commune": null}, {"stationcode": "16005", "name": "Raymond Poincar\u00e9 - Place Victor Hugo", "is_installed": "OUI", "capacity": 25, "numdocksavailable": 21, "numbikesavailable": 3, "mechanical": 1, "ebike": 2, "is_renting": "OUI", "is_returning": "OUI", "duedate": "2024-06-14T12:45:36+00:00", "coordonnees_geo": {"lon": 2.285074541420228, "lat": 48.870306124369975}, "nom_arrondissement_communes": "Paris", "code_insee_commune": null}, {"stationcode": "12036", "name": "Reuilly - Place Felix Eboue", "is_installed": "OUI", "capacity": 42, "numdocksavailable": 26, "numbikesavailable": 16, "mechanical": 11, "ebike": 5, "is_renting": "OUI", "is_returning": "OUI", "duedate": "2024-06-14T12:46:41+00:00", "coordonnees_geo": {"lon": 2.394630398715453, "lat": 48.84030274499962}, "nom_arrondissement_communes": "Paris", "code_insee_commune": null}, {"stationcode": "14026", "name": "Plantes - Moulin Vert", "is_installed": "OUI", "capacity": 45, "numdocksavailable": 36, "numbikesavailable": 5, "mechanical": 2, "ebike": 3, "is_renting": "OUI", "is_returning": "OUI", "duedate": "2024-06-14T12:42:44+00:00", "coordonnees_geo": {"lon": 2.3232302069664006, "lat": 48.83005755305626}, "nom_arrondissement_communes": "Paris", "code_insee_commune": null}, {"stationcode": "16105", "name": "Crevaux - Bugeaud", "is_installed": "OUI", "capacity": 31, "numdocksavailable": 27, "numbikesavailable": 3, "mechanical": 1, "ebike": 2, "is_renting": "OUI", "is_returning": "OUI", "duedate": "2024-06-14T12:41:09+00:00", "coordonnees_geo": {"lon": 2.281149007691853, "lat": 48.870809428669546}, "nom_arrondissement_communes": "Paris", "code_insee_commune": null}, {"stationcode": "16012", "name": "Flandrin - Longchamp", "is_installed": "OUI", "capacity": 42, "numdocksavailable": 40, "numbikesavailable": 2, "mechanical": 0, "ebike": 2, "is_renting": "OUI", "is_returning": "OUI", "duedate": "2024-06-14T12:40:16+00:00", "coordonnees_geo": {"lon": 2.274354539176829, "lat": 48.86877849178477}, "nom_arrondissement_communes": "Paris", "code_insee_commune": null}]