[{"stationcode": "11048", "name": "Place Mireille Havet", "is_installed": "OUI", "capacity": 43, "numdocksavailable": 26, "numbikesavailable": 15, "mechanical": 9, "ebike": 6, "is_renting": "OUI", "is_returning": "OUI", "duedate": "2024-06-16T06:51:34+00:00", "coordonnees_geo": {"lon": 2.383756, "lat": 48.850533}, "nom_arrondissement_communes": "Paris", "code_insee_commune": null}, {"stationcode": "2101", "name": "Bachaumont - Montmartre", "is_installed": "OUI", "capacity": 33, "numdocksavailable": 24, "numbikesavailable": 8, "mechanical": 6, "ebike": 2, "is_renting": "OUI", "is_returning": "OUI", "duedate": "2024-06-16T06:53:04+00:00", "coordonnees_geo": {"lon": 2.3449775576591496, "lat": 48.86617395079137}, "nom_arrondissement_communes": "Paris", "code_insee_commune": null}, {"stationcode": "5030", "name": "Sorbonne - Ecoles", "is_installed": "OUI", "capacity": 50, "numdocksavailable": 25, "numbikesavailable": 25, "mechanical": 22, "ebike": 3, "is_renting": "OUI", "is_returning": "OUI", "duedate": "2024-06-16T06:54:35+00:00", "coordonnees_geo": {"lon": 2.3434996604919, "lat": 48.849686566191}, "nom_arrondissement_communes": "Paris", "code_insee_commune": null}, {"stationcode": "9015", "name": "Lamartine - Faubourg Montmartre", "is_installed": "OUI", "capacity": 32, "numdocksavailable": 14, "numbikesavailable": 18, "mechanical": 12, "ebike": 6, "is_renting": "OUI", "is_returning": "OUI", "duedate": "2024-06-16T06:51:57+00:00", "coordonnees_geo": {"lon": 2.339765690267086, "lat": 48.87661398289084}, "nom_arrondissement_communes": "Paris", "code_insee_commune": null}, {"stationcode": "19021", "name": "Mairie du 19\u00e8me", "is_installed": "OUI", "capacity": 27, "numdocksavailable": 25, "numbikesavailable": 2, "mechanical": 0, "ebike": 2, "is_renting": "OUI", "is_returning": "OUI", "duedate": "2024-06-16T06:53:39+00:00", "coordonnees_geo": {"lon": 2.3812624812126164, "lat": 48.88256264247959}, "nom_arrondissement_communes": "Paris", "code_insee_commune": null}, {"stationcode": "17104", "name": "Jardin Marguerite Long", "is_installed": "OUI", "capacity": 22, "numdocksavailable": 16, "numbikesavailable": 6, "mechanical": 6, "ebike": 0, "is_renting": "OUI", "is_returning": "OUI", "duedate": "2024-06-16T06:54:27+00:00", "coordonnees_geo": {"lon": 2.2836575657129288, "lat": 48.8816985773914}, "nom_arrondissement_communes": "Paris", "code_insee_commune": null}, {"stationcode": "22002", "name": "Argenson - Ch\u00e2teau", "is_installed": "OUI", "capacity": 25, "numdocksavailable": 16, "numbikesavailable": 7, "mechanical": 6, "ebike": 1, "is_renting": "OUI", "is_returning": "OUI", "duedate": "2024-06-16T06:52:14+00:00", "coordonnees_geo": {"lon": 2.2642001509666447, "lat": 48.888559314669514}, "nom_arrondissement_communes": "Neuilly-sur-Seine", "code_insee_commune": null}, {"stationcode": "13022", "name": "Butte aux Cailles - Esperance", "is_installed": "OUI", "capacity": 36, "numdocksavailable": 22, "numbikesavailable": 11, "mechanical": 3, "ebike": 8, "is_renting": "OUI", "is_returning": "OUI", "duedate": "2024-06-16T06:53:10+00:00", "coordonnees_geo": {"lon": 2.3492151126265526, "lat": 48.82758774190948}, "nom_arrondissement_communes": "Paris", "code_insee_commune": null}, {"stationcode": "20045", "name": "Louis Ganne - Davout", "is_installed": "OUI", "capacity": 30, "numdocksavailable": 12, "numbikesavailable": 18, "mechanical": 15, "ebike": 3, "is_renting": "OUI", "is_returning": "OUI", "duedate": "2024-06-16T06:51:42+00:00", "coordonnees_geo": {"lon": 2.409725748002529, "lat": 48.86338720692607}, "nom_arrondissement_communes": "Paris", "code_insee_commune": null}, {"stationcode": "13019", "name": "Fernand Braudel - Vincent Auriol", "is_installed": "OUI", "capacity": 36, "numdocksavailable": 16, "numbikesavailable": 19, "mechanical": 19, "ebike": 0, "is_renting": "OUI", "is_returning": "OUI", "duedate": "2024-06-16T06:54:26+00:00", "coordonnees_geo": {"lon": 2.3723404482007027, "lat": 48.83637852318147}, "nom_arrondissement_communes": "Paris", "code_insee_commune": null}, {"stationcode": "11044", "name": "Square du Bataclan", "is_installed": "OUI", "capacity": 20, "numdocksavailable": 6, "numbikesavailable": 7, "mechanical": 4, "ebike": 3, "is_renting": "OUI", "is_returning": "OUI", "duedate": "2024-06-16T06:50:14+00:00", "coordonnees_geo": {"lon": 2.3711327, "lat": 48.8633762}, "nom_arrondissement_communes": "Paris", "code_insee_commune": null}, {"stationcode": "23302", "name": "Parc de Sceaux - Centre-Ville", "is_installed": "OUI", "capacity": 33, "numdocksavailable": 33, "numbikesavailable": 0, "mechanical": 0, "ebike": 0, "is_renting": "NON", "is_returning": "NON", "duedate": "2024-06-07T14:37:22+00:00", "coordonnees_geo": {"lon": 2.2957214713097, "lat": 48.77695298261}, "nom_arrondissement_communes": "Sceaux", "code_insee_commune": null}, {"stationcode": "8029", "name": "Place du Canada", "is_installed": "OUI", "capacity": 58, "numdocksavailable": 51, "numbikesavailable": 4, "mechanical": 1, "ebike": 3, "is_renting": "OUI", "is_returning": "OUI", "duedate": "2024-06-16T06:53:33+00:00", "coordonnees_geo": {"lon": 2.3101937879648, "lat": 48.865346269363}, "nom_arrondissement_communes": "Paris", "code_insee_commune": null}, {"stationcode": "11110", "name": "Roquette - Folie Regnault", "is_installed": "OUI", "capacity": 52, "numdocksavailable": 45, "numbikesavailable": 6, "mechanical": 2, "ebike": 4, "is_renting": "OUI", "is_returning": "OUI", "duedate": "2024-06-16T06:47:53+00:00", "coordonnees_geo": {"lon": 2.386553623578705, "lat": 48.859246959155485}, "nom_arrondissement_communes": "Paris", "code_insee_commune": null}, {"stationcode": "21017", "name": "Place Marcel Sembat", "is_installed": "OUI", "capacity": 56, "numdocksavailable": 15, "numbikesavailable": 41, "mechanical": 39, "ebike": 2, "is_renting": "OUI", "is_returning": "OUI", "duedate": "2024-06-16T06:52:18+00:00", "coordonnees_geo": {"lon": 2.2441747784614567, "lat": 48.83328865030686}, "nom_arrondissement_communes": "Boulogne-Billancourt", "code_insee_commune": null}, {"stationcode": "12120", "name": "Lac Daumesnil - Saint-Maurice", "is_installed": "OUI", "capacity": 50, "numdocksavailable": 35, "numbikesavailable": 13, "mechanical": 3, "ebike": 10, "is_renting": "OUI", "is_returning": "OUI", "duedate": "2024-06-16T06:53:01+00:00", "coordonnees_geo": {"lon": 2.4183654785156246, "lat": 48.82774555743318}, "nom_arrondissement_communes": "Paris", "code_insee_commune": null}, {"stationcode": "18014", "name": "L\u00e9on - Doudeauville", "is_installed": "OUI", "capacity": 13, "numdocksavailable": 6, "numbikesavailable": 6, "mechanical": 3, "ebike": 3, "is_renting": "OUI", "is_returning": "OUI", "duedate": "2024-06-16T06:53:43+00:00", "coordonnees_geo": {"lon": 2.353573372638597, "lat": 48.88832421845225}, "nom_arrondissement_communes": "Paris", "code_insee_commune": null}, {"stationcode": "13110", "name": "Moulin de la Pointe", "is_installed": "OUI", "capacity": 22, "numdocksavailable": 7, "numbikesavailable": 15, "mechanical": 3, "ebike": 12, "is_renting": "OUI", "is_returning": "OUI", "duedate": "2024-06-16T06:54:08+00:00", "coordonnees_geo": {"lon": 2.3563179373741145, "lat": 48.82092946051445}, "nom_arrondissement_communes": "Paris", "code_insee_commune": null}, {"stationcode": "42011", "name": "Quai Marcel Boyer - Victor Hugo", "is_installed": "OUI", "capacity": 29, "numdocksavailable": 2, "numbikesavailable": 26, "mechanical": 17, "ebike": 9, "is_renting": "OUI", "is_returning": "OUI", "duedate": "2024-06-16T06:54:39+00:00", "coordonnees_geo": {"lon": 2.392039597034455, "lat": 48.82255636666729}, "nom_arrondissement_communes": "Ivry-sur-Seine", "code_insee_commune": null}, {"stationcode": "23005", "name": "Gare de Clichy-Levallois", "is_installed": "OUI", "capacity": 26, "numdocksavailable": 4, "numbikesavailable": 20, "mechanical": 12, "ebike": 8, "is_renting": "OUI", "is_returning": "OUI", "duedate": "2024-06-16T06:54:22+00:00", "coordonnees_geo": {"lon": 2.2984680533409123, "lat": 48.89679827481989}, "nom_arrondissement_communes": "Levallois-Perret", "code_insee_commune": null}, {"stationcode": "48009", "name": "R\u00e9publique - Auguste Perret", "is_installed": "OUI", "capacity": 30, "numdocksavailable": 22, "numbikesavailable": 7, "mechanical": 0, "ebike": 7, "is_renting": "OUI", "is_returning": "OUI", "duedate": "2024-06-16T06:49:28+00:00", "coordonnees_geo": {"lon": 2.3518594354391094, "lat": 48.78695280952244}, "nom_arrondissement_communes": "Villejuif", "code_insee_commune": null}, {"stationcode": "9013", "name": "Mairie du 9\u00e8me", "is_installed": "OUI", "capacity": 24, "numdocksavailable": 14, "numbikesavailable": 10, "mechanical": 8, "ebike": 2, "is_renting": "OUI", "is_returning": "OUI", "duedate": "2024-06-16T06:52:37+00:00", "coordonnees_geo": {"lon": 2.340753448052758, "lat": 48.87326713758289}, "nom_arrondissement_communes": "Paris", "code_insee_commune": null}, {"stationcode": "31017", "name": "Jean Moulin - Paul Doumer", "is_installed": "OUI", "capacity": 20, "numdocksavailable": 20, "numbikesavailable": 0, "mechanical": 0, "ebike": 0, "is_renting": "OUI", "is_returning": "OUI", "duedate": "2024-06-16T06:54:08+00:00", "coordonnees_geo": {"lon": 2.45533436536789, "lat": 48.8622179854695}, "nom_arrondissement_communes": "Montreuil", "code_insee_commune": null}, {"stationcode": "18114", "name": "V\u00e9ron - Lepic", "is_installed": "OUI", "capacity": 23, "numdocksavailable": 13, "numbikesavailable": 9, "mechanical": 6, "ebike": 3, "is_renting": "OUI", "is_returning": "OUI", "duedate": "2024-06-16T06:48:54+00:00", "coordonnees_geo": {"lon": 2.334559857845307, "lat": 48.88526123395252}, "nom_arrondissement_communes": "Paris", "code_insee_commune": null}, {"stationcode": "21951", "name": "Place Centrale", "is_installed": "OUI", "capacity": 22, "numdocksavailable": 21, "numbikesavailable": 1, "mechanical": 0, "ebike": 1, "is_renting": "OUI", "is_returning": "OUI", "duedate": "2024-06-16T06:46:44+00:00", "coordonnees_geo": {"lon": 2.2278830409049992, "lat": 48.78740167690531}, "nom_arrondissement_communes": "Meudon", "code_insee_commune": null}, {"stationcode": "19113", "name": "Pr\u00e9 Saint-Gervais - Lilas", "is_installed": "OUI", "capacity": 28, "numdocksavailable": 7, "numbikesavailable": 21, "mechanical": 1, "ebike": 20, "is_renting": "OUI", "is_returning": "OUI", "duedate": "2024-06-16T06:50:51+00:00", "coordonnees_geo": {"lon": 2.3959073424339, "lat": 48.877870626988}, "nom_arrondissement_communes": "Paris", "code_insee_commune": null}, {"stationcode": "14128", "name": "Gergovie - Vercing\u00e9torix", "is_installed": "OUI", "capacity": 29, "numdocksavailable": 21, "numbikesavailable": 8, "mechanical": 2, "ebike": 6, "is_renting": "OUI", "is_returning": "OUI", "duedate": "2024-06-16T06:54:39+00:00", "coordonnees_geo": {"lon": 2.313154547426182, "lat": 48.83453413883994}, "nom_arrondissement_communes": "Paris", "code_insee_commune": null}, {"stationcode": "10039", "name": "Sambre et Meuse - Villette", "is_installed": "OUI", "capacity": 25, "numdocksavailable": 18, "numbikesavailable": 5, "mechanical": 1, "ebike": 4, "is_renting": "OUI", "is_returning": "OUI", "duedate": "2024-06-16T06:49:15+00:00", "coordonnees_geo": {"lon": 2.3738072379951, "lat": 48.874405666217}, "nom_arrondissement_communes": "Paris", "code_insee_commune": null}, {"stationcode": "31101", "name": "Jules Guesde - Laennec", "is_installed": "OUI", "capacity": 19, "numdocksavailable": 3, "numbikesavailable": 16, "mechanical": 1, "ebike": 15, "is_renting": "OUI", "is_returning": "OUI", "duedate": "2024-06-16T06:53:50+00:00", "coordonnees_geo": {"lon": 2.5006942078471184, "lat": 48.87628983900398}, "nom_arrondissement_communes": "Rosny-sous-Bois", "code_insee_commune": null}, {"stationcode": "31026", "name": "Demi-Lune - Aristide Briand", "is_installed": "OUI", "capacity": 20, "numdocksavailable": 13, "numbikesavailable": 7, "mechanical": 0, "ebike": 7, "is_renting": "OUI", "is_returning": "OUI", "duedate": "2024-06-16T06:50:16+00:00", "coordonnees_geo": {"lon": 2.4562818557024, "lat": 48.87626381919953}, "nom_arrondissement_communes": "Montreuil", "code_insee_commune": null}, {"stationcode": "12150", "name": "Bastille - Quai de la Rap\u00e9e", "is_installed": "OUI", "capacity": 27, "numdocksavailable": 15, "numbikesavailable": 11, "mechanical": 10, "ebike": 1, "is_renting": "OUI", "is_returning": "OUI", "duedate": "2024-06-16T06:52:35+00:00", "coordonnees_geo": {"lon": 2.3669364675879, "lat": 48.84682410855}, "nom_arrondissement_communes": "Paris", "code_insee_commune": null}, {"stationcode": "19124", "name": "Alexander Fleming - Belv\u00e9d\u00e8re", "is_installed": "OUI", "capacity": 31, "numdocksavailable": 21, "numbikesavailable": 10, "mechanical": 2, "ebike": 8, "is_renting": "OUI", "is_returning": "OUI", "duedate": "2024-06-16T06:54:34+00:00", "coordonnees_geo": {"lon": 2.4030599377642674, "lat": 48.88179064200294}, "nom_arrondissement_communes": "Paris", "code_insee_commune": null}, {"stationcode": "15019", "name": "Paul Barruel - Vaugirard", "is_installed": "OUI", "capacity": 39, "numdocksavailable": 30, "numbikesavailable": 8, "mechanical": 4, "ebike": 4, "is_renting": "OUI", "is_returning": "OUI", "duedate": "2024-06-16T06:52:48+00:00", "coordonnees_geo": {"lon": 2.3044332861900334, "lat": 48.84014918546239}, "nom_arrondissement_communes": "Paris", "code_insee_commune": null}, {"stationcode": "7024", "name": "Rapp - Place du G\u00e9n\u00e9ral Gouraud", "is_installed": "OUI", "capacity": 31, "numdocksavailable": 3, "numbikesavailable": 27, "mechanical": 24, "ebike": 3, "is_renting": "OUI", "is_returning": "OUI", "duedate": "2024-06-16T06:54:31+00:00", "coordonnees_geo": {"lon": 2.3004072904587, "lat": 48.858102885107}, "nom_arrondissement_communes": "Paris", "code_insee_commune": null}, {"stationcode": "11031", "name": "Jacquard - Ternaux", "is_installed": "OUI", "capacity": 0, "numdocksavailable": 0, "numbikesavailable": 0, "mechanical": 0, "ebike": 0, "is_renting": "NON", "is_returning": "NON", "duedate": "2024-03-27T06:55:09+00:00", "coordonnees_geo": {"lon": 2.373162, "lat": 48.8646605}, "nom_arrondissement_communes": "Paris", "code_insee_commune": null}, {"stationcode": "13515", "name": "Auguste Blanqui - Glaci\u00e8re", "is_installed": "OUI", "capacity": 60, "numdocksavailable": 44, "numbikesavailable": 12, "mechanical": 3, "ebike": 9, "is_renting": "OUI", "is_returning": "OUI", "duedate": "2024-06-16T06:54:08+00:00", "coordonnees_geo": {"lon": 2.343822196126, "lat": 48.831151602964}, "nom_arrondissement_communes": "Paris", "code_insee_commune": null}, {"stationcode": "16007", "name": "Longchamp - Place d'I\u00e9na", "is_installed": "OUI", "capacity": 40, "numdocksavailable": 31, "numbikesavailable": 9, "mechanical": 3, "ebike": 6, "is_renting": "OUI", "is_returning": "OUI", "duedate": "2024-06-16T06:53:56+00:00", "coordonnees_geo": {"lon": 2.2926748171448708, "lat": 48.86491723343388}, "nom_arrondissement_communes": "Paris", "code_insee_commune": null}, {"stationcode": "10110", "name": "Louis Blanc - Jemmapes", "is_installed": "OUI", "capacity": 31, "numdocksavailable": 10, "numbikesavailable": 17, "mechanical": 5, "ebike": 12, "is_renting": "OUI", "is_returning": "OUI", "duedate": "2024-06-16T06:54:08+00:00", "coordonnees_geo": {"lon": 2.368448562920093, "lat": 48.879330755297346}, "nom_arrondissement_communes": "Paris", "code_insee_commune": null}, {"stationcode": "15131", "name": "Charles Lecocq - Lecourbe", "is_installed": "OUI", "capacity": 30, "numdocksavailable": 9, "numbikesavailable": 21, "mechanical": 18, "ebike": 3, "is_renting": "OUI", "is_returning": "OUI", "duedate": "2024-06-16T06:54:24+00:00", "coordonnees_geo": {"lon": 2.294867, "lat": 48.84044}, "nom_arrondissement_communes": "Paris", "code_insee_commune": null}, {"stationcode": "9036", "name": "Ath\u00e8nes - Clichy", "is_installed": "OUI", "capacity": 20, "numdocksavailable": 18, "numbikesavailable": 1, "mechanical": 0, "ebike": 1, "is_renting": "OUI", "is_returning": "OUI", "duedate": "2024-06-16T06:53:35+00:00", "coordonnees_geo": {"lon": 2.32956021945824, "lat": 48.878113787876}, "nom_arrondissement_communes": "Paris", "code_insee_commune": null}, {"stationcode": "21118", "name": "Neuilly - Petit", "is_installed": "OUI", "capacity": 16, "numdocksavailable": 0, "numbikesavailable": 16, "mechanical": 6, "ebike": 10, "is_renting": "OUI", "is_returning": "OUI", "duedate": "2024-06-16T06:50:18+00:00", "coordonnees_geo": {"lon": 2.29627937078476, "lat": 48.898965361341254}, "nom_arrondissement_communes": "Clichy", "code_insee_commune": null}, {"stationcode": "20039", "name": "Belleville - Couronnes", "is_installed": "OUI", "capacity": 50, "numdocksavailable": 30, "numbikesavailable": 19, "mechanical": 8, "ebike": 11, "is_renting": "OUI", "is_returning": "OUI", "duedate": "2024-06-16T06:52:46+00:00", "coordonnees_geo": {"lon": 2.3809862136841, "lat": 48.868831082877}, "nom_arrondissement_communes": "Paris", "code_insee_commune": null}, {"stationcode": "5034", "name": "Censier - Santeuil", "is_installed": "OUI", "capacity": 69, "numdocksavailable": 3, "numbikesavailable": 65, "mechanical": 62, "ebike": 3, "is_renting": "OUI", "is_returning": "OUI", "duedate": "2024-06-16T06:54:27+00:00", "coordonnees_geo": {"lon": 2.3537524044513702, "lat": 48.840658921385234}, "nom_arrondissement_communes": "Paris", "code_insee_commune": null}, {"stationcode": "22013", "name": "Mairie de Neuilly sur Seine", "is_installed": "OUI", "capacity": 31, "numdocksavailable": 21, "numbikesavailable": 10, "mechanical": 3, "ebike": 7, "is_renting": "OUI", "is_returning": "OUI", "duedate": "2024-06-16T06:53:39+00:00", "coordonnees_geo": {"lon": 2.2677031159400944, "lat": 48.88494728765838}, "nom_arrondissement_communes": "Neuilly-sur-Seine", "code_insee_commune": null}, {"stationcode": "21115", "name": "Chanc\u00e9 Milly - Cimeti\u00e8re Communal Sud", "is_installed": "OUI", "capacity": 32, "numdocksavailable": 16, "numbikesavailable": 16, "mechanical": 10, "ebike": 6, "is_renting": "OUI", "is_returning": "OUI", "duedate": "2024-06-16T06:48:12+00:00", "coordonnees_geo": {"lon": 2.303922325372696, "lat": 48.89687189382465}, "nom_arrondissement_communes": "Clichy", "code_insee_commune": null}, {"stationcode": "19025", "name": "Botzaris - Crim\u00e9e", "is_installed": "OUI", "capacity": 21, "numdocksavailable": 12, "numbikesavailable": 8, "mechanical": 2, "ebike": 6, "is_renting": "OUI", "is_returning": "OUI", "duedate": "2024-06-16T06:51:46+00:00", "coordonnees_geo": {"lon": 2.3887913337477067, "lat": 48.87959698690176}, "nom_arrondissement_communes": "Paris", "code_insee_commune": null}, {"stationcode": "10153", "name": "Gare du Nord - Denain", "is_installed": "OUI", "capacity": 20, "numdocksavailable": 13, "numbikesavailable": 6, "mechanical": 4, "ebike": 2, "is_renting": "OUI", "is_returning": "OUI", "duedate": "2024-06-16T06:53:27+00:00", "coordonnees_geo": {"lon": 2.3544725775719, "lat": 48.879595787608}, "nom_arrondissement_communes": "Paris", "code_insee_commune": null}, {"stationcode": "15072", "name": "Place Fernand Forest", "is_installed": "OUI", "capacity": 33, "numdocksavailable": 13, "numbikesavailable": 18, "mechanical": 17, "ebike": 1, "is_renting": "OUI", "is_returning": "OUI", "duedate": "2024-06-16T06:50:40+00:00", "coordonnees_geo": {"lon": 2.2818631678819656, "lat": 48.849269143835926}, "nom_arrondissement_communes": "Paris", "code_insee_commune": null}, {"stationcode": "16014", "name": "Eylau - Trocad\u00e9ro", "is_installed": "OUI", "capacity": 24, "numdocksavailable": 22, "numbikesavailable": 2, "mechanical": 0, "ebike": 2, "is_renting": "OUI", "is_returning": "OUI", "duedate": "2024-06-16T06:54:04+00:00", "coordonnees_geo": {"lon": 2.2864209115505, "lat": 48.863354122371}, "nom_arrondissement_communes": "Paris", "code_insee_commune": null}, {"stationcode": "42304", "name": "Marc Sangnier - Division Leclerc", "is_installed": "OUI", "capacity": 24, "numdocksavailable": 6, "numbikesavailable": 17, "mechanical": 13, "ebike": 4, "is_renting": "OUI", "is_returning": "OUI", "duedate": "2024-06-16T06:52:14+00:00", "coordonnees_geo": {"lon": 2.329955510795116, "lat": 48.78599652305309}, "nom_arrondissement_communes": "Cachan", "code_insee_commune": null}, {"stationcode": "21307", "name": "Victor Cresson - Telles de la Poterie", "is_installed": "OUI", "capacity": 31, "numdocksavailable": 2, "numbikesavailable": 28, "mechanical": 25, "ebike": 3, "is_renting": "OUI", "is_returning": "OUI", "duedate": "2024-06-16T06:54:13+00:00", "coordonnees_geo": {"lon": 2.2686498274964, "lat": 48.822698842979}, "nom_arrondissement_communes": "Issy-les-Moulineaux", "code_insee_commune": null}, {"stationcode": "31021", "name": "R\u00e9sistance - Hoche", "is_installed": "OUI", "capacity": 29, "numdocksavailable": 17, "numbikesavailable": 12, "mechanical": 0, "ebike": 12, "is_renting": "OUI", "is_returning": "OUI", "duedate": "2024-06-16T06:52:28+00:00", "coordonnees_geo": {"lon": 2.435784414410591, "lat": 48.864273423741956}, "nom_arrondissement_communes": "Montreuil", "code_insee_commune": null}, {"stationcode": "15123", "name": "Commerce - Letellier", "is_installed": "OUI", "capacity": 44, "numdocksavailable": 5, "numbikesavailable": 38, "mechanical": 36, "ebike": 2, "is_renting": "OUI", "is_returning": "OUI", "duedate": "2024-06-16T06:54:11+00:00", "coordonnees_geo": {"lon": 2.2966245196598805, "lat": 48.84797660373612}, "nom_arrondissement_communes": "Paris", "code_insee_commune": null}, {"stationcode": "21030", "name": "Fessart - Ch\u00e2teau", "is_installed": "OUI", "capacity": 20, "numdocksavailable": 10, "numbikesavailable": 10, "mechanical": 7, "ebike": 3, "is_renting": "OUI", "is_returning": "OUI", "duedate": "2024-06-16T06:50:57+00:00", "coordonnees_geo": {"lon": 2.23989, "lat": 48.84245}, "nom_arrondissement_communes": "Boulogne-Billancourt", "code_insee_commune": null}, {"stationcode": "16024", "name": "Ranelagh - Maison de la Radio", "is_installed": "OUI", "capacity": 22, "numdocksavailable": 4, "numbikesavailable": 18, "mechanical": 16, "ebike": 2, "is_renting": "OUI", "is_returning": "OUI", "duedate": "2024-06-16T06:51:17+00:00", "coordonnees_geo": {"lon": 2.280449643731117, "lat": 48.85293603169479}, "nom_arrondissement_communes": "Paris", "code_insee_commune": null}, {"stationcode": "22604", "name": "H\u00f4tel de Ville de Fontenay-aux-Roses", "is_installed": "OUI", "capacity": 34, "numdocksavailable": 27, "numbikesavailable": 7, "mechanical": 2, "ebike": 5, "is_renting": "OUI", "is_returning": "OUI", "duedate": "2024-06-16T06:49:40+00:00", "coordonnees_geo": {"lon": 2.2871455930319455, "lat": 48.790844603480856}, "nom_arrondissement_communes": "Fontenay-aux-Roses", "code_insee_commune": null}, {"stationcode": "20009", "name": "Docteurs D\u00e9j\u00e9rine - Pte de Montreuil", "is_installed": "OUI", "capacity": 20, "numdocksavailable": 14, "numbikesavailable": 6, "mechanical": 0, "ebike": 6, "is_renting": "OUI", "is_returning": "OUI", "duedate": "2024-06-16T06:44:47+00:00", "coordonnees_geo": {"lon": 2.41208288897222, "lat": 48.85398448133697}, "nom_arrondissement_communes": "Paris", "code_insee_commune": null}, {"stationcode": "10012", "name": "Vinaigriers - Magenta", "is_installed": "OUI", "capacity": 25, "numdocksavailable": 4, "numbikesavailable": 20, "mechanical": 20, "ebike": 0, "is_renting": "OUI", "is_returning": "OUI", "duedate": "2024-06-16T06:54:08+00:00", "coordonnees_geo": {"lon": 2.3593052, "lat": 48.8731167}, "nom_arrondissement_communes": "Paris", "code_insee_commune": null}, {"stationcode": "8001", "name": "Petit Palais", "is_installed": "OUI", "capacity": 46, "numdocksavailable": 42, "numbikesavailable": 4, "mechanical": 2, "ebike": 2, "is_renting": "OUI", "is_returning": "OUI", "duedate": "2024-06-16T06:50:34+00:00", "coordonnees_geo": {"lon": 2.3157655, "lat": 48.8667692}, "nom_arrondissement_communes": "Paris", "code_insee_commune": null}, {"stationcode": "16101", "name": "Malakoff - Place de la Porte Maillot", "is_installed": "OUI", "capacity": 31, "numdocksavailable": 21, "numbikesavailable": 10, "mechanical": 9, "ebike": 1, "is_renting": "OUI", "is_returning": "OUI", "duedate": "2024-06-16T06:47:56+00:00", "coordonnees_geo": {"lon": 2.2834577411413193, "lat": 48.876733496637506}, "nom_arrondissement_communes": "Paris", "code_insee_commune": null}, {"stationcode": "11032", "name": "Jean-Pierre Timbaud - Vaucouleurs", "is_installed": "OUI", "capacity": 47, "numdocksavailable": 4, "numbikesavailable": 41, "mechanical": 34, "ebike": 7, "is_renting": "OUI", "is_returning": "OUI", "duedate": "2024-06-16T06:51:42+00:00", "coordonnees_geo": {"lon": 2.377885, "lat": 48.867937}, "nom_arrondissement_communes": "Paris", "code_insee_commune": null}, {"stationcode": "21028", "name": "Pierre Lefaucheux - Traversi\u00e8re", "is_installed": "OUI", "capacity": 35, "numdocksavailable": 4, "numbikesavailable": 30, "mechanical": 29, "ebike": 1, "is_renting": "OUI", "is_returning": "OUI", "duedate": "2024-06-16T06:51:43+00:00", "coordonnees_geo": {"lon": 2.2417913004755974, "lat": 48.82435208303827}, "nom_arrondissement_communes": "Boulogne-Billancourt", "code_insee_commune": null}, {"stationcode": "5107", "name": "Pontoise - La Tournelle", "is_installed": "OUI", "capacity": 23, "numdocksavailable": 1, "numbikesavailable": 22, "mechanical": 21, "ebike": 1, "is_renting": "OUI", "is_returning": "OUI", "duedate": "2024-06-16T06:54:18+00:00", "coordonnees_geo": {"lon": 2.3524542754922, "lat": 48.850458009188}, "nom_arrondissement_communes": "Paris", "code_insee_commune": null}, {"stationcode": "20007", "name": "Buzenval - Avron", "is_installed": "OUI", "capacity": 50, "numdocksavailable": 12, "numbikesavailable": 35, "mechanical": 19, "ebike": 16, "is_renting": "OUI", "is_returning": "OUI", "duedate": "2024-06-16T06:54:42+00:00", "coordonnees_geo": {"lon": 2.401513597307666, "lat": 48.851617204998654}, "nom_arrondissement_communes": "Paris", "code_insee_commune": null}, {"stationcode": "32301", "name": "Mairie de Romainville", "is_installed": "OUI", "capacity": 17, "numdocksavailable": 12, "numbikesavailable": 5, "mechanical": 0, "ebike": 5, "is_renting": "OUI", "is_returning": "OUI", "duedate": "2024-06-16T06:53:49+00:00", "coordonnees_geo": {"lon": 2.435679, "lat": 48.885109}, "nom_arrondissement_communes": "Romainville", "code_insee_commune": null}, {"stationcode": "8013", "name": "Marignan - Champs-Elys\u00e9es", "is_installed": "OUI", "capacity": 35, "numdocksavailable": 32, "numbikesavailable": 1, "mechanical": 1, "ebike": 0, "is_renting": "OUI", "is_returning": "OUI", "duedate": "2024-06-16T06:52:58+00:00", "coordonnees_geo": {"lon": 2.3066138139003, "lat": 48.869495661232}, "nom_arrondissement_communes": "Paris", "code_insee_commune": null}, {"stationcode": "13011", "name": "H\u00f4pital - Campo-Formio", "is_installed": "OUI", "capacity": 7, "numdocksavailable": 5, "numbikesavailable": 1, "mechanical": 1, "ebike": 0, "is_renting": "OUI", "is_returning": "OUI", "duedate": "2024-06-16T06:46:09+00:00", "coordonnees_geo": {"lon": 2.358218, "lat": 48.835405}, "nom_arrondissement_communes": "Paris", "code_insee_commune": null}, {"stationcode": "5014", "name": "Jean Calvin - Tournefort", "is_installed": "OUI", "capacity": 28, "numdocksavailable": 27, "numbikesavailable": 1, "mechanical": 0, "ebike": 1, "is_renting": "OUI", "is_returning": "OUI", "duedate": "2024-06-16T06:52:13+00:00", "coordonnees_geo": {"lon": 2.348489575088024, "lat": 48.84158856925782}, "nom_arrondissement_communes": "Paris", "code_insee_commune": null}, {"stationcode": "8549", "name": "George V - Christophe Colomb", "is_installed": "OUI", "capacity": 24, "numdocksavailable": 22, "numbikesavailable": 2, "mechanical": 1, "ebike": 1, "is_renting": "OUI", "is_returning": "OUI", "duedate": "2024-06-16T06:51:19+00:00", "coordonnees_geo": {"lon": 2.30104, "lat": 48.87046}, "nom_arrondissement_communes": "Paris", "code_insee_commune": null}, {"stationcode": "20122", "name": "Vitruve - Davout", "is_installed": "OUI", "capacity": 23, "numdocksavailable": 15, "numbikesavailable": 8, "mechanical": 3, "ebike": 5, "is_renting": "OUI", "is_returning": "OUI", "duedate": "2024-06-16T06:51:34+00:00", "coordonnees_geo": {"lon": 2.4091592812626543, "lat": 48.86053161154489}, "nom_arrondissement_communes": "Paris", "code_insee_commune": null}, {"stationcode": "18027", "name": "Damr\u00e9mont - Ordener", "is_installed": "OUI", "capacity": 30, "numdocksavailable": 17, "numbikesavailable": 13, "mechanical": 3, "ebike": 10, "is_renting": "OUI", "is_returning": "OUI", "duedate": "2024-06-16T06:54:35+00:00", "coordonnees_geo": {"lon": 2.336266523912805, "lat": 48.893400392981874}, "nom_arrondissement_communes": "Paris", "code_insee_commune": null}, {"stationcode": "13126", "name": "Place Nationale - Ch\u00e2teau-des-Rentiers", "is_installed": "OUI", "capacity": 18, "numdocksavailable": 7, "numbikesavailable": 10, "mechanical": 8, "ebike": 2, "is_renting": "OUI", "is_returning": "OUI", "duedate": "2024-06-16T06:53:10+00:00", "coordonnees_geo": {"lon": 2.365212, "lat": 48.829268}, "nom_arrondissement_communes": "Paris", "code_insee_commune": null}, {"stationcode": "8020", "name": "Batignolles - Beudant", "is_installed": "OUI", "capacity": 44, "numdocksavailable": 40, "numbikesavailable": 4, "mechanical": 2, "ebike": 2, "is_renting": "OUI", "is_returning": "OUI", "duedate": "2024-06-16T06:54:40+00:00", "coordonnees_geo": {"lon": 2.319852970540523, "lat": 48.88216401466375}, "nom_arrondissement_communes": "Paris", "code_insee_commune": null}, {"stationcode": "17015", "name": "Place de L\u00e9vis", "is_installed": "OUI", "capacity": 48, "numdocksavailable": 38, "numbikesavailable": 10, "mechanical": 2, "ebike": 8, "is_renting": "OUI", "is_returning": "OUI", "duedate": "2024-06-16T06:46:33+00:00", "coordonnees_geo": {"lon": 2.3131933808326726, "lat": 48.883546851533254}, "nom_arrondissement_communes": "Paris", "code_insee_commune": null}, {"stationcode": "4001", "name": "Arcole - Notre-Dame", "is_installed": "OUI", "capacity": 31, "numdocksavailable": 12, "numbikesavailable": 18, "mechanical": 15, "ebike": 3, "is_renting": "OUI", "is_returning": "OUI", "duedate": "2024-06-16T06:54:14+00:00", "coordonnees_geo": {"lon": 2.3493797332048, "lat": 48.853883541328}, "nom_arrondissement_communes": "Paris", "code_insee_commune": null}, {"stationcode": "13128", "name": "Quai de la Gare - Pont de Bercy", "is_installed": "OUI", "capacity": 30, "numdocksavailable": 25, "numbikesavailable": 5, "mechanical": 3, "ebike": 2, "is_renting": "OUI", "is_returning": "OUI", "duedate": "2024-06-16T06:54:17+00:00", "coordonnees_geo": {"lon": 2.3740861260598, "lat": 48.83730787972}, "nom_arrondissement_communes": "Paris", "code_insee_commune": null}, {"stationcode": "44007", "name": "Camille Groult - Guy M\u00f4quet", "is_installed": "OUI", "capacity": 22, "numdocksavailable": 1, "numbikesavailable": 21, "mechanical": 11, "ebike": 10, "is_renting": "OUI", "is_returning": "OUI", "duedate": "2024-06-16T06:51:38+00:00", "coordonnees_geo": {"lon": 2.3976725712418556, "lat": 48.787482746521306}, "nom_arrondissement_communes": "Vitry-sur-Seine", "code_insee_commune": null}, {"stationcode": "4016", "name": "Lobau - H\u00f4tel de Ville", "is_installed": "OUI", "capacity": 60, "numdocksavailable": 45, "numbikesavailable": 11, "mechanical": 11, "ebike": 0, "is_renting": "OUI", "is_returning": "OUI", "duedate": "2024-06-16T06:53:22+00:00", "coordonnees_geo": {"lon": 2.3532536, "lat": 48.8562118}, "nom_arrondissement_communes": "Paris", "code_insee_commune": null}, {"stationcode": "6008", "name": "Assas - Luxembourg", "is_installed": "OUI", "capacity": 33, "numdocksavailable": 26, "numbikesavailable": 6, "mechanical": 1, "ebike": 5, "is_renting": "OUI", "is_returning": "OUI", "duedate": "2024-06-16T06:49:59+00:00", "coordonnees_geo": {"lon": 2.3334283818759, "lat": 48.843734468779}, "nom_arrondissement_communes": "Paris", "code_insee_commune": null}, {"stationcode": "42209", "name": "Place de l'Europe - Quai de Bercy", "is_installed": "OUI", "capacity": 17, "numdocksavailable": 8, "numbikesavailable": 9, "mechanical": 7, "ebike": 2, "is_renting": "OUI", "is_returning": "OUI", "duedate": "2024-06-16T06:50:17+00:00", "coordonnees_geo": {"lon": 2.3945679143071175, "lat": 48.82529858840266}, "nom_arrondissement_communes": "Charenton-le-Pont", "code_insee_commune": null}, {"stationcode": "22206", "name": "Louis Pasteur - Albert Petit", "is_installed": "OUI", "capacity": 31, "numdocksavailable": 26, "numbikesavailable": 5, "mechanical": 3, "ebike": 2, "is_renting": "OUI", "is_returning": "OUI", "duedate": "2024-06-16T06:53:49+00:00", "coordonnees_geo": {"lon": 2.317289, "lat": 48.796261}, "nom_arrondissement_communes": "Bagneux", "code_insee_commune": null}, {"stationcode": "11021", "name": "Charonne - Pierre Bayle", "is_installed": "OUI", "capacity": 23, "numdocksavailable": 17, "numbikesavailable": 6, "mechanical": 1, "ebike": 5, "is_renting": "OUI", "is_returning": "OUI", "duedate": "2024-06-16T06:54:35+00:00", "coordonnees_geo": {"lon": 2.3903981223891, "lat": 48.858445054262}, "nom_arrondissement_communes": "Paris", "code_insee_commune": null}, {"stationcode": "16011", "name": "Victor Hugo - La Pompe", "is_installed": "OUI", "capacity": 41, "numdocksavailable": 31, "numbikesavailable": 10, "mechanical": 1, "ebike": 9, "is_renting": "OUI", "is_returning": "OUI", "duedate": "2024-06-16T06:52:29+00:00", "coordonnees_geo": {"lon": 2.28146318346262, "lat": 48.86795222470859}, "nom_arrondissement_communes": "Paris", "code_insee_commune": null}, {"stationcode": "47001", "name": "Place de la Gare", "is_installed": "OUI", "capacity": 46, "numdocksavailable": 8, "numbikesavailable": 38, "mechanical": 30, "ebike": 8, "is_renting": "OUI", "is_returning": "OUI", "duedate": "2024-06-16T06:54:33+00:00", "coordonnees_geo": {"lon": 2.4275037646293645, "lat": 48.80253358011283}, "nom_arrondissement_communes": "Maisons-Alfort", "code_insee_commune": null}, {"stationcode": "13032", "name": "Italie - Jardin Joan Miro", "is_installed": "OUI", "capacity": 26, "numdocksavailable": 12, "numbikesavailable": 12, "mechanical": 3, "ebike": 9, "is_renting": "OUI", "is_returning": "OUI", "duedate": "2024-06-16T06:51:49+00:00", "coordonnees_geo": {"lon": 2.3592948541045193, "lat": 48.81990914045756}, "nom_arrondissement_communes": "Paris", "code_insee_commune": null}, {"stationcode": "10165", "name": "Gare de l'Est - Place du 11 Novembre 1918", "is_installed": "OUI", "capacity": 40, "numdocksavailable": 5, "numbikesavailable": 30, "mechanical": 22, "ebike": 8, "is_renting": "OUI", "is_returning": "OUI", "duedate": "2024-06-16T06:54:05+00:00", "coordonnees_geo": {"lon": 2.3585464, "lat": 48.876327}, "nom_arrondissement_communes": "Paris", "code_insee_commune": null}, {"stationcode": "43010", "name": "La Jarry - Place Diderot", "is_installed": "OUI", "capacity": 25, "numdocksavailable": 16, "numbikesavailable": 8, "mechanical": 4, "ebike": 4, "is_renting": "OUI", "is_returning": "OUI", "duedate": "2024-06-16T06:52:12+00:00", "coordonnees_geo": {"lon": 2.452013790607453, "lat": 48.849726940367326}, "nom_arrondissement_communes": "Vincennes", "code_insee_commune": null}, {"stationcode": "15057", "name": "Lucien Bossoutrot - G\u00e9n\u00e9ral Martial Vallin", "is_installed": "OUI", "capacity": 39, "numdocksavailable": 33, "numbikesavailable": 6, "mechanical": 5, "ebike": 1, "is_renting": "OUI", "is_returning": "OUI", "duedate": "2024-06-16T06:54:11+00:00", "coordonnees_geo": {"lon": 2.2741072252393, "lat": 48.836956046311}, "nom_arrondissement_communes": "Paris", "code_insee_commune": null}, {"stationcode": "23010", "name": "Voltaire - Anatole France", "is_installed": "OUI", "capacity": 27, "numdocksavailable": 19, "numbikesavailable": 6, "mechanical": 3, "ebike": 3, "is_renting": "OUI", "is_returning": "OUI", "duedate": "2024-06-16T06:48:30+00:00", "coordonnees_geo": {"lon": 2.284262739121914, "lat": 48.891999360256904}, "nom_arrondissement_communes": "Levallois-Perret", "code_insee_commune": null}, {"stationcode": "18007", "name": "Goutte d'or - Barb\u00e8s", "is_installed": "OUI", "capacity": 20, "numdocksavailable": 11, "numbikesavailable": 9, "mechanical": 1, "ebike": 8, "is_renting": "OUI", "is_returning": "OUI", "duedate": "2024-06-16T06:52:43+00:00", "coordonnees_geo": {"lon": 2.3496962338686, "lat": 48.885124323627}, "nom_arrondissement_communes": "Paris", "code_insee_commune": null}, {"stationcode": "19128", "name": "Quai de l'Oise - Aisne", "is_installed": "OUI", "capacity": 30, "numdocksavailable": 8, "numbikesavailable": 19, "mechanical": 6, "ebike": 13, "is_renting": "OUI", "is_returning": "OUI", "duedate": "2024-06-16T06:53:10+00:00", "coordonnees_geo": {"lon": 2.3833701, "lat": 48.8906231}, "nom_arrondissement_communes": "Paris", "code_insee_commune": null}, {"stationcode": "15005", "name": "Place Jacques et Th\u00e9r\u00e8se Tr\u00e9fou\u00ebl", "is_installed": "OUI", "capacity": 43, "numdocksavailable": 32, "numbikesavailable": 9, "mechanical": 4, "ebike": 5, "is_renting": "OUI", "is_returning": "OUI", "duedate": "2024-06-16T06:51:05+00:00", "coordonnees_geo": {"lon": 2.3125657439232, "lat": 48.842726498317}, "nom_arrondissement_communes": "Paris", "code_insee_commune": null}, {"stationcode": "21401", "name": "Mairie de Clamart", "is_installed": "OUI", "capacity": 33, "numdocksavailable": 21, "numbikesavailable": 12, "mechanical": 1, "ebike": 11, "is_renting": "OUI", "is_returning": "OUI", "duedate": "2024-06-16T06:51:35+00:00", "coordonnees_geo": {"lon": 2.262151, "lat": 48.800612}, "nom_arrondissement_communes": "Clamart", "code_insee_commune": null}, {"stationcode": "13044", "name": "Place Jeanne d'Arc", "is_installed": "OUI", "capacity": 36, "numdocksavailable": 11, "numbikesavailable": 24, "mechanical": 10, "ebike": 14, "is_renting": "OUI", "is_returning": "OUI", "duedate": "2024-06-16T06:52:20+00:00", "coordonnees_geo": {"lon": 2.369126, "lat": 48.829575}, "nom_arrondissement_communes": "Paris", "code_insee_commune": null}, {"stationcode": "4020", "name": "Place Edmond Michelet", "is_installed": "OUI", "capacity": 23, "numdocksavailable": 14, "numbikesavailable": 8, "mechanical": 7, "ebike": 1, "is_renting": "OUI", "is_returning": "OUI", "duedate": "2024-06-16T06:52:13+00:00", "coordonnees_geo": {"lon": 2.3500636965036, "lat": 48.860134890542}, "nom_arrondissement_communes": "Paris", "code_insee_commune": null}, {"stationcode": "23004", "name": "Paul Vaillant-Couturier - Victor Hugo", "is_installed": "OUI", "capacity": 36, "numdocksavailable": 13, "numbikesavailable": 23, "mechanical": 9, "ebike": 14, "is_renting": "OUI", "is_returning": "OUI", "duedate": "2024-06-16T06:51:57+00:00", "coordonnees_geo": {"lon": 2.293848017974069, "lat": 48.89819702263572}, "nom_arrondissement_communes": "Levallois-Perret", "code_insee_commune": null}, {"stationcode": "16001", "name": "Portugais - Kl\u00e9ber", "is_installed": "OUI", "capacity": 26, "numdocksavailable": 22, "numbikesavailable": 4, "mechanical": 1, "ebike": 3, "is_renting": "OUI", "is_returning": "OUI", "duedate": "2024-06-16T06:53:36+00:00", "coordonnees_geo": {"lon": 2.2937349, "lat": 48.8712148}, "nom_arrondissement_communes": "Paris", "code_insee_commune": null}, {"stationcode": "5012", "name": "Estrapade - Ulm", "is_installed": "OUI", "capacity": 16, "numdocksavailable": 12, "numbikesavailable": 1, "mechanical": 0, "ebike": 1, "is_renting": "OUI", "is_returning": "OUI", "duedate": "2024-06-16T06:54:22+00:00", "coordonnees_geo": {"lon": 2.3454568170362, "lat": 48.84512772828}, "nom_arrondissement_communes": "Paris", "code_insee_commune": null}, {"stationcode": "11017", "name": "Charonne - Bureau", "is_installed": "OUI", "capacity": 47, "numdocksavailable": 46, "numbikesavailable": 0, "mechanical": 0, "ebike": 0, "is_renting": "OUI", "is_returning": "OUI", "duedate": "2024-06-16T06:48:53+00:00", "coordonnees_geo": {"lon": 2.396093, "lat": 48.854176}, "nom_arrondissement_communes": "Paris", "code_insee_commune": null}, {"stationcode": "23003", "name": "Pr\u00e9sident Wilson - Baudin", "is_installed": "OUI", "capacity": 28, "numdocksavailable": 21, "numbikesavailable": 6, "mechanical": 4, "ebike": 2, "is_renting": "OUI", "is_returning": "OUI", "duedate": "2024-06-16T05:49:35+00:00", "coordonnees_geo": {"lon": 2.2849336266517644, "lat": 48.89826887103676}, "nom_arrondissement_communes": "Levallois-Perret", "code_insee_commune": null}]