[{"stationcode": "15132", "name": "Bargue -  Dutot", "is_installed": "OUI", "capacity": 21, "numdocksavailable": 17, "numbikesavailable": 4, "mechanical": 2, "ebike": 2, "is_renting": "OUI", "is_returning": "OUI", "duedate": "2024-06-14T14:49:20+00:00", "coordonnees_geo": {"lon": 2.308876, "lat": 48.837884}, "nom_arrondissement_communes": "Paris", "code_insee_commune": null}, {"stationcode": "41405", "name": "Place de l'Europe - Alfortville", "is_installed": "OUI", "capacity": 24, "numdocksavailable": 10, "numbikesavailable": 14, "mechanical": 8, "ebike": 6, "is_renting": "OUI", "is_returning": "OUI", "duedate": "2024-06-14T14:48:10+00:00", "coordonnees_geo": {"lon": 2.4284800887107854, "lat": 48.78913702405837}, "nom_arrondissement_communes": "Alfortville", "code_insee_commune": null}, {"stationcode": "21026", "name": "S\u00e8vres - G\u00e9n\u00e9ral Leclerc", "is_installed": "OUI", "capacity": 30, "numdocksavailable": 27, "numbikesavailable": 3, "mechanical": 2, "ebike": 1, "is_renting": "OUI", "is_returning": "OUI", "duedate": "2024-06-14T14:44:01+00:00", "coordonnees_geo": {"lon": 2.231426239013672, "lat": 48.83012155905476}, "nom_arrondissement_communes": "Boulogne-Billancourt", "code_insee_commune": null}, {"stationcode": "21953", "name": "Gare de Bellevue", "is_installed": "OUI", "capacity": 20, "numdocksavailable": 19, "numbikesavailable": 1, "mechanical": 0, "ebike": 1, "is_renting": "OUI", "is_returning": "OUI", "duedate": "2024-06-14T14:46:37+00:00", "coordonnees_geo": {"lon": 2.2295309230685234, "lat": 48.8192404685572}, "nom_arrondissement_communes": "Meudon", "code_insee_commune": null}, {"stationcode": "7021", "name": "Bosquet - Saint-Dominique", "is_installed": "OUI", "capacity": 28, "numdocksavailable": 14, "numbikesavailable": 13, "mechanical": 8, "ebike": 5, "is_renting": "OUI", "is_returning": "OUI", "duedate": "2024-06-14T14:47:12+00:00", "coordonnees_geo": {"lon": 2.303716580234576, "lat": 48.85865170952645}, "nom_arrondissement_communes": "Paris", "code_insee_commune": null}, {"stationcode": "3011", "name": "Turbigo - R\u00e9aumur", "is_installed": "OUI", "capacity": 31, "numdocksavailable": 11, "numbikesavailable": 20, "mechanical": 15, "ebike": 5, "is_renting": "OUI", "is_returning": "OUI", "duedate": "2024-06-14T14:50:08+00:00", "coordonnees_geo": {"lon": 2.3564198613167, "lat": 48.865574047531}, "nom_arrondissement_communes": "Paris", "code_insee_commune": null}, {"stationcode": "10006", "name": "Petites Ecuries - Faubourg Saint-Denis", "is_installed": "OUI", "capacity": 28, "numdocksavailable": 4, "numbikesavailable": 22, "mechanical": 18, "ebike": 4, "is_renting": "OUI", "is_returning": "OUI", "duedate": "2024-06-14T14:49:57+00:00", "coordonnees_geo": {"lon": 2.3542150855064397, "lat": 48.87287120589831}, "nom_arrondissement_communes": "Paris", "code_insee_commune": null}, {"stationcode": "12002", "name": "Lacu\u00e9e - Lyon", "is_installed": "OUI", "capacity": 16, "numdocksavailable": 0, "numbikesavailable": 13, "mechanical": 8, "ebike": 5, "is_renting": "OUI", "is_returning": "OUI", "duedate": "2024-06-14T14:47:38+00:00", "coordonnees_geo": {"lon": 2.3704585433006, "lat": 48.849268481958}, "nom_arrondissement_communes": "Paris", "code_insee_commune": null}, {"stationcode": "21506", "name": "Maurice Payret-Dortail", "is_installed": "OUI", "capacity": 22, "numdocksavailable": 20, "numbikesavailable": 2, "mechanical": 2, "ebike": 0, "is_renting": "OUI", "is_returning": "OUI", "duedate": "2024-06-14T14:43:49+00:00", "coordonnees_geo": {"lon": 2.2233625128865246, "lat": 48.87811957063342}, "nom_arrondissement_communes": "Suresnes", "code_insee_commune": null}, {"stationcode": "4103", "name": "Archives - Rivoli", "is_installed": "OUI", "capacity": 25, "numdocksavailable": 1, "numbikesavailable": 23, "mechanical": 5, "ebike": 18, "is_renting": "OUI", "is_returning": "OUI", "duedate": "2024-06-14T14:49:23+00:00", "coordonnees_geo": {"lon": 2.3539767041802, "lat": 48.857346707443}, "nom_arrondissement_communes": "Paris", "code_insee_commune": null}, {"stationcode": "8028", "name": "Ars\u00e8ne Houssaye - Champs-Elys\u00e9es", "is_installed": "OUI", "capacity": 29, "numdocksavailable": 16, "numbikesavailable": 13, "mechanical": 1, "ebike": 12, "is_renting": "OUI", "is_returning": "OUI", "duedate": "2024-06-14T14:47:07+00:00", "coordonnees_geo": {"lon": 2.2977904602885, "lat": 48.873409276267}, "nom_arrondissement_communes": "Paris", "code_insee_commune": null}, {"stationcode": "20029", "name": "Fr\u00e8res Flavien - Porte des Lilas", "is_installed": "OUI", "capacity": 23, "numdocksavailable": 23, "numbikesavailable": 0, "mechanical": 0, "ebike": 0, "is_renting": "OUI", "is_returning": "OUI", "duedate": "2024-06-14T14:44:10+00:00", "coordonnees_geo": {"lon": 2.41104629853209, "lat": 48.8780992764359}, "nom_arrondissement_communes": "Paris", "code_insee_commune": null}, {"stationcode": "2003", "name": "Saint-Denis - R\u00e9aumur", "is_installed": "OUI", "capacity": 32, "numdocksavailable": 21, "numbikesavailable": 9, "mechanical": 4, "ebike": 5, "is_renting": "OUI", "is_returning": "OUI", "duedate": "2024-06-14T14:49:48+00:00", "coordonnees_geo": {"lon": 2.3507790675507594, "lat": 48.8661116315789}, "nom_arrondissement_communes": "Paris", "code_insee_commune": null}, {"stationcode": "22503", "name": "Joffre - Aigle", "is_installed": "OUI", "capacity": 20, "numdocksavailable": 14, "numbikesavailable": 5, "mechanical": 5, "ebike": 0, "is_renting": "OUI", "is_returning": "OUI", "duedate": "2024-06-14T14:43:51+00:00", "coordonnees_geo": {"lon": 2.245096, "lat": 48.904033}, "nom_arrondissement_communes": "La Garenne-Colombes", "code_insee_commune": null}, {"stationcode": "15111", "name": "Olivier de Serres - Leriche", "is_installed": "OUI", "capacity": 25, "numdocksavailable": 21, "numbikesavailable": 4, "mechanical": 4, "ebike": 0, "is_renting": "OUI", "is_returning": "OUI", "duedate": "2024-06-14T14:48:17+00:00", "coordonnees_geo": {"lon": 2.2957482933998112, "lat": 48.83460221715206}, "nom_arrondissement_communes": "Paris", "code_insee_commune": null}, {"stationcode": "24006", "name": "Adolphe Lalyre - Armand Silvestre", "is_installed": "OUI", "capacity": 40, "numdocksavailable": 37, "numbikesavailable": 1, "mechanical": 0, "ebike": 1, "is_renting": "OUI", "is_returning": "OUI", "duedate": "2024-06-14T14:47:00+00:00", "coordonnees_geo": {"lon": 2.273416221141815, "lat": 48.90406266961591}, "nom_arrondissement_communes": "Courbevoie", "code_insee_commune": null}, {"stationcode": "14132", "name": "B\u00e9zout - G\u00e9n\u00e9ral Leclerc", "is_installed": "OUI", "capacity": 30, "numdocksavailable": 22, "numbikesavailable": 8, "mechanical": 2, "ebike": 6, "is_renting": "OUI", "is_returning": "OUI", "duedate": "2024-06-14T14:49:38+00:00", "coordonnees_geo": {"lon": 2.3285973072052, "lat": 48.82884804502439}, "nom_arrondissement_communes": "Paris", "code_insee_commune": null}, {"stationcode": "4014", "name": "Blancs-Manteaux - Archives", "is_installed": "OUI", "capacity": 29, "numdocksavailable": 8, "numbikesavailable": 19, "mechanical": 15, "ebike": 4, "is_renting": "OUI", "is_returning": "OUI", "duedate": "2024-06-14T14:48:31+00:00", "coordonnees_geo": {"lon": 2.3559471219778, "lat": 48.85941800703}, "nom_arrondissement_communes": "Paris", "code_insee_commune": null}, {"stationcode": "2005", "name": "Montmartre - Etienne Marcel", "is_installed": "OUI", "capacity": 16, "numdocksavailable": 7, "numbikesavailable": 8, "mechanical": 4, "ebike": 4, "is_renting": "OUI", "is_returning": "OUI", "duedate": "2024-06-14T14:46:42+00:00", "coordonnees_geo": {"lon": 2.3450684401448, "lat": 48.86502194581}, "nom_arrondissement_communes": "Paris", "code_insee_commune": null}, {"stationcode": "23702", "name": "H\u00f4tel de Ville de Chaville", "is_installed": "OUI", "capacity": 20, "numdocksavailable": 20, "numbikesavailable": 0, "mechanical": 0, "ebike": 0, "is_renting": "OUI", "is_returning": "OUI", "duedate": "2024-06-14T14:40:18+00:00", "coordonnees_geo": {"lon": 2.188134044408798, "lat": 48.80887149094033}, "nom_arrondissement_communes": "Chaville", "code_insee_commune": null}, {"stationcode": "14022", "name": "Didot - Mariniers", "is_installed": "OUI", "capacity": 35, "numdocksavailable": 32, "numbikesavailable": 2, "mechanical": 0, "ebike": 2, "is_renting": "OUI", "is_returning": "OUI", "duedate": "2024-06-14T14:49:50+00:00", "coordonnees_geo": {"lon": 2.313136198271666, "lat": 48.82650543613106}, "nom_arrondissement_communes": "Paris", "code_insee_commune": null}, {"stationcode": "2002", "name": "Etienne Marcel - Montorgueil", "is_installed": "OUI", "capacity": 28, "numdocksavailable": 14, "numbikesavailable": 14, "mechanical": 13, "ebike": 1, "is_renting": "OUI", "is_returning": "OUI", "duedate": "2024-06-14T14:47:01+00:00", "coordonnees_geo": {"lon": 2.3461959511041637, "lat": 48.86450567259199}, "nom_arrondissement_communes": "Paris", "code_insee_commune": null}, {"stationcode": "19012", "name": "Lally-Tollendal - Armand Carrel", "is_installed": "OUI", "capacity": 28, "numdocksavailable": 19, "numbikesavailable": 9, "mechanical": 1, "ebike": 8, "is_renting": "OUI", "is_returning": "OUI", "duedate": "2024-06-14T14:49:39+00:00", "coordonnees_geo": {"lon": 2.374717555940151, "lat": 48.88270066221072}, "nom_arrondissement_communes": "Paris", "code_insee_commune": null}, {"stationcode": "31001", "name": "Lagny - Auguste Blanqui", "is_installed": "OUI", "capacity": 27, "numdocksavailable": 15, "numbikesavailable": 12, "mechanical": 11, "ebike": 1, "is_renting": "OUI", "is_returning": "OUI", "duedate": "2024-06-14T14:50:10+00:00", "coordonnees_geo": {"lon": 2.4218603968620305, "lat": 48.84922568052601}, "nom_arrondissement_communes": "Montreuil", "code_insee_commune": null}, {"stationcode": "14023", "name": "Adolphe Pinard - Victor Hugo", "is_installed": "OUI", "capacity": 52, "numdocksavailable": 50, "numbikesavailable": 1, "mechanical": 0, "ebike": 1, "is_renting": "OUI", "is_returning": "OUI", "duedate": "2024-06-14T14:49:42+00:00", "coordonnees_geo": {"lon": 2.3077843710780144, "lat": 48.8236825874564}, "nom_arrondissement_communes": "Malakoff", "code_insee_commune": null}, {"stationcode": "3006", "name": "Mairie du 3\u00e8me", "is_installed": "OUI", "capacity": 32, "numdocksavailable": 6, "numbikesavailable": 23, "mechanical": 19, "ebike": 4, "is_renting": "OUI", "is_returning": "OUI", "duedate": "2024-06-14T14:50:13+00:00", "coordonnees_geo": {"lon": 2.361762821674347, "lat": 48.86446178139141}, "nom_arrondissement_communes": "Paris", "code_insee_commune": null}, {"stationcode": "4015", "name": "Mairie du 4\u00e8me", "is_installed": "OUI", "capacity": 44, "numdocksavailable": 6, "numbikesavailable": 36, "mechanical": 19, "ebike": 17, "is_renting": "OUI", "is_returning": "OUI", "duedate": "2024-06-14T14:49:37+00:00", "coordonnees_geo": {"lon": 2.3563823103905, "lat": 48.855949910497}, "nom_arrondissement_communes": "Paris", "code_insee_commune": null}, {"stationcode": "22504", "name": "Ch\u00e2teau - R\u00e9publique", "is_installed": "OUI", "capacity": 20, "numdocksavailable": 12, "numbikesavailable": 8, "mechanical": 1, "ebike": 7, "is_renting": "OUI", "is_returning": "OUI", "duedate": "2024-06-14T14:50:11+00:00", "coordonnees_geo": {"lon": 2.253629, "lat": 48.905928}, "nom_arrondissement_communes": "La Garenne-Colombes", "code_insee_commune": null}, {"stationcode": "14133", "name": "Froidevaux - Boulard", "is_installed": "OUI", "capacity": 35, "numdocksavailable": 34, "numbikesavailable": 1, "mechanical": 1, "ebike": 0, "is_renting": "OUI", "is_returning": "OUI", "duedate": "2024-06-14T14:50:07+00:00", "coordonnees_geo": {"lon": 2.3294411972165, "lat": 48.835147319625}, "nom_arrondissement_communes": "Paris", "code_insee_commune": null}, {"stationcode": "4012", "name": "Tiron - Rivoli", "is_installed": "OUI", "capacity": 28, "numdocksavailable": 7, "numbikesavailable": 19, "mechanical": 10, "ebike": 9, "is_renting": "OUI", "is_returning": "OUI", "duedate": "2024-06-14T14:50:04+00:00", "coordonnees_geo": {"lon": 2.3579058051109, "lat": 48.855692253233}, "nom_arrondissement_communes": "Paris", "code_insee_commune": null}, {"stationcode": "21215", "name": "Verdier - Jean Jaur\u00e8s", "is_installed": "OUI", "capacity": 33, "numdocksavailable": 32, "numbikesavailable": 1, "mechanical": 0, "ebike": 1, "is_renting": "OUI", "is_returning": "OUI", "duedate": "2024-06-14T14:43:52+00:00", "coordonnees_geo": {"lon": 2.3123561963438988, "lat": 48.81614048711214}, "nom_arrondissement_communes": "Montrouge", "code_insee_commune": null}, {"stationcode": "41208", "name": "Alouettes - Mar\u00e9chal de Lattre de Tassigny", "is_installed": "OUI", "capacity": 22, "numdocksavailable": 11, "numbikesavailable": 11, "mechanical": 7, "ebike": 4, "is_renting": "OUI", "is_returning": "OUI", "duedate": "2024-06-14T14:46:05+00:00", "coordonnees_geo": {"lon": 2.4930700287222862, "lat": 48.85511009293948}, "nom_arrondissement_communes": "Fontenay-sous-Bois", "code_insee_commune": null}, {"stationcode": "42704", "name": "Mairie du Kremlin-Bic\u00eatre", "is_installed": "OUI", "capacity": 25, "numdocksavailable": 18, "numbikesavailable": 7, "mechanical": 6, "ebike": 1, "is_renting": "OUI", "is_returning": "OUI", "duedate": "2024-06-14T14:41:31+00:00", "coordonnees_geo": {"lon": 2.3570189997553825, "lat": 48.81191981537702}, "nom_arrondissement_communes": "Le Kremlin-Bic\u00eatre", "code_insee_commune": null}, {"stationcode": "21706", "name": "Jean Bleuzen - Square du 11 Novembre", "is_installed": "OUI", "capacity": 49, "numdocksavailable": 46, "numbikesavailable": 0, "mechanical": 0, "ebike": 0, "is_renting": "OUI", "is_returning": "OUI", "duedate": "2024-06-14T14:49:21+00:00", "coordonnees_geo": {"lon": 2.2965213, "lat": 48.8232579}, "nom_arrondissement_communes": "Vanves", "code_insee_commune": null}, {"stationcode": "42211", "name": "S\u00e9minaire de Conflans - Libert\u00e9", "is_installed": "OUI", "capacity": 26, "numdocksavailable": 18, "numbikesavailable": 8, "mechanical": 4, "ebike": 4, "is_renting": "OUI", "is_returning": "OUI", "duedate": "2024-06-14T14:48:46+00:00", "coordonnees_geo": {"lon": 2.404179, "lat": 48.823194}, "nom_arrondissement_communes": "Charenton-le-Pont", "code_insee_commune": null}, {"stationcode": "3002", "name": "Saint-Gilles - Turenne", "is_installed": "OUI", "capacity": 18, "numdocksavailable": 2, "numbikesavailable": 15, "mechanical": 10, "ebike": 5, "is_renting": "OUI", "is_returning": "OUI", "duedate": "2024-06-14T14:50:11+00:00", "coordonnees_geo": {"lon": 2.3647149920992, "lat": 48.858158956779}, "nom_arrondissement_communes": "Paris", "code_insee_commune": null}, {"stationcode": "4101", "name": "Bastille - Beaumarchais", "is_installed": "OUI", "capacity": 23, "numdocksavailable": 1, "numbikesavailable": 20, "mechanical": 14, "ebike": 6, "is_renting": "OUI", "is_returning": "OUI", "duedate": "2024-06-14T14:48:23+00:00", "coordonnees_geo": {"lon": 2.3685702681541, "lat": 48.853833463852}, "nom_arrondissement_communes": "Paris", "code_insee_commune": null}, {"stationcode": "21509", "name": "Gardenat Lapostol - Franklin Roosevelt", "is_installed": "OUI", "capacity": 24, "numdocksavailable": 22, "numbikesavailable": 2, "mechanical": 0, "ebike": 2, "is_renting": "OUI", "is_returning": "OUI", "duedate": "2024-06-14T14:43:53+00:00", "coordonnees_geo": {"lon": 2.222505, "lat": 48.871839}, "nom_arrondissement_communes": "Suresnes", "code_insee_commune": null}, {"stationcode": "13054", "name": "Pau Casals - Neuve Tolbiac", "is_installed": "OUI", "capacity": 53, "numdocksavailable": 6, "numbikesavailable": 45, "mechanical": 32, "ebike": 13, "is_renting": "OUI", "is_returning": "OUI", "duedate": "2024-06-14T14:48:41+00:00", "coordonnees_geo": {"lon": 2.3774395, "lat": 48.8311602}, "nom_arrondissement_communes": "Paris", "code_insee_commune": null}, {"stationcode": "1012", "name": "Jean-Jacques Rousseau - Deux Ecus", "is_installed": "OUI", "capacity": 22, "numdocksavailable": 4, "numbikesavailable": 18, "mechanical": 11, "ebike": 7, "is_renting": "OUI", "is_returning": "OUI", "duedate": "2024-06-14T14:48:29+00:00", "coordonnees_geo": {"lon": 2.3414635285735126, "lat": 48.86297805972131}, "nom_arrondissement_communes": "Paris", "code_insee_commune": null}, {"stationcode": "2004", "name": "Square Pierre Lazareff", "is_installed": "OUI", "capacity": 17, "numdocksavailable": 8, "numbikesavailable": 9, "mechanical": 6, "ebike": 3, "is_renting": "OUI", "is_returning": "OUI", "duedate": "2024-06-14T14:44:55+00:00", "coordonnees_geo": {"lon": 2.3483933508396, "lat": 48.867141720746}, "nom_arrondissement_communes": "Paris", "code_insee_commune": null}, {"stationcode": "19130", "name": "Place Paul Delouvrier", "is_installed": "OUI", "capacity": 26, "numdocksavailable": 20, "numbikesavailable": 6, "mechanical": 1, "ebike": 5, "is_renting": "OUI", "is_returning": "OUI", "duedate": "2024-06-14T14:48:46+00:00", "coordonnees_geo": {"lon": 2.3851288855075836, "lat": 48.89197621431365}, "nom_arrondissement_communes": "Paris", "code_insee_commune": null}, {"stationcode": "35012", "name": "Candale - Mehul", "is_installed": "OUI", "capacity": 25, "numdocksavailable": 23, "numbikesavailable": 0, "mechanical": 0, "ebike": 0, "is_renting": "OUI", "is_returning": "OUI", "duedate": "2024-06-14T14:42:34+00:00", "coordonnees_geo": {"lon": 2.414379715919495, "lat": 48.8893935006175}, "nom_arrondissement_communes": "Pantin", "code_insee_commune": null}, {"stationcode": "21505", "name": "\u00c9douard Vaillant - Place Jean Jaur\u00e8s", "is_installed": "OUI", "capacity": 24, "numdocksavailable": 23, "numbikesavailable": 1, "mechanical": 1, "ebike": 0, "is_renting": "OUI", "is_returning": "OUI", "duedate": "2024-06-14T14:47:07+00:00", "coordonnees_geo": {"lon": 2.2089037319128613, "lat": 48.86265537999924}, "nom_arrondissement_communes": "Suresnes", "code_insee_commune": null}, {"stationcode": "2016", "name": "Aboukir - Alexandrie", "is_installed": "OUI", "capacity": 21, "numdocksavailable": 12, "numbikesavailable": 8, "mechanical": 5, "ebike": 3, "is_renting": "OUI", "is_returning": "OUI", "duedate": "2024-06-14T14:49:16+00:00", "coordonnees_geo": {"lon": 2.3502043269474897, "lat": 48.86868344444473}, "nom_arrondissement_communes": "Paris", "code_insee_commune": null}, {"stationcode": "16044", "name": "Porte de Saint Cloud - Parc des Princes", "is_installed": "OUI", "capacity": 32, "numdocksavailable": 7, "numbikesavailable": 24, "mechanical": 23, "ebike": 1, "is_renting": "OUI", "is_returning": "OUI", "duedate": "2024-06-14T14:47:45+00:00", "coordonnees_geo": {"lon": 2.2525164484978, "lat": 48.838662757066}, "nom_arrondissement_communes": "Paris", "code_insee_commune": null}, {"stationcode": "32019", "name": "Place du 8 mai 1945.", "is_installed": "OUI", "capacity": 30, "numdocksavailable": 11, "numbikesavailable": 19, "mechanical": 9, "ebike": 10, "is_renting": "OUI", "is_returning": "OUI", "duedate": "2024-06-14T14:50:05+00:00", "coordonnees_geo": {"lon": 2.3566243797541, "lat": 48.938882272105}, "nom_arrondissement_communes": "Saint-Denis", "code_insee_commune": null}, {"stationcode": "9039", "name": "Chauss\u00e9e d'Antin - Haussmann", "is_installed": "OUI", "capacity": 24, "numdocksavailable": 8, "numbikesavailable": 14, "mechanical": 8, "ebike": 6, "is_renting": "OUI", "is_returning": "OUI", "duedate": "2024-06-14T14:50:11+00:00", "coordonnees_geo": {"lon": 2.33359, "lat": 48.87243}, "nom_arrondissement_communes": "Paris", "code_insee_commune": null}, {"stationcode": "22506", "name": "Gare des Vall\u00e9es", "is_installed": "OUI", "capacity": 20, "numdocksavailable": 0, "numbikesavailable": 19, "mechanical": 8, "ebike": 11, "is_renting": "OUI", "is_returning": "OUI", "duedate": "2024-06-14T14:49:20+00:00", "coordonnees_geo": {"lon": 2.257726, "lat": 48.913179}, "nom_arrondissement_communes": "La Garenne-Colombes", "code_insee_commune": null}, {"stationcode": "1025", "name": "Oratoire - Rivoli", "is_installed": "OUI", "capacity": 18, "numdocksavailable": 3, "numbikesavailable": 15, "mechanical": 12, "ebike": 3, "is_renting": "OUI", "is_returning": "OUI", "duedate": "2024-06-14T14:48:20+00:00", "coordonnees_geo": {"lon": 2.3400047421455, "lat": 48.861342760889}, "nom_arrondissement_communes": "Paris", "code_insee_commune": null}, {"stationcode": "2008", "name": "Mairie du 2\u00e8me", "is_installed": "OUI", "capacity": 28, "numdocksavailable": 5, "numbikesavailable": 22, "mechanical": 9, "ebike": 13, "is_renting": "OUI", "is_returning": "OUI", "duedate": "2024-06-14T14:50:05+00:00", "coordonnees_geo": {"lon": 2.3404625437747044, "lat": 48.8672190355135}, "nom_arrondissement_communes": "Paris", "code_insee_commune": null}, {"stationcode": "23101", "name": "Grande Rue - Europe", "is_installed": "OUI", "capacity": 25, "numdocksavailable": 17, "numbikesavailable": 8, "mechanical": 4, "ebike": 4, "is_renting": "OUI", "is_returning": "OUI", "duedate": "2024-06-14T14:48:23+00:00", "coordonnees_geo": {"lon": 2.205879874527455, "lat": 48.8218104687602}, "nom_arrondissement_communes": "S\u00e8vres", "code_insee_commune": null}, {"stationcode": "32024", "name": "Port - Confluence", "is_installed": "OUI", "capacity": 26, "numdocksavailable": 23, "numbikesavailable": 3, "mechanical": 0, "ebike": 3, "is_renting": "OUI", "is_returning": "OUI", "duedate": "2024-06-14T14:47:31+00:00", "coordonnees_geo": {"lon": 2.3436167797955, "lat": 48.936093926526}, "nom_arrondissement_communes": "Saint-Denis", "code_insee_commune": null}, {"stationcode": "23107", "name": "Gare de S\u00e8vres - Ville d'Avray", "is_installed": "OUI", "capacity": 22, "numdocksavailable": 20, "numbikesavailable": 2, "mechanical": 1, "ebike": 1, "is_renting": "OUI", "is_returning": "OUI", "duedate": "2024-06-14T14:42:57+00:00", "coordonnees_geo": {"lon": 2.2001516849313, "lat": 48.826262366227}, "nom_arrondissement_communes": "S\u00e8vres", "code_insee_commune": null}, {"stationcode": "6201", "name": "Saint P\u00e8res - Saint Germain", "is_installed": "OUI", "capacity": 22, "numdocksavailable": 19, "numbikesavailable": 3, "mechanical": 2, "ebike": 1, "is_renting": "OUI", "is_returning": "OUI", "duedate": "2024-06-14T14:46:17+00:00", "coordonnees_geo": {"lon": 2.3300181032703, "lat": 48.853729675265}, "nom_arrondissement_communes": "Paris", "code_insee_commune": null}, {"stationcode": "5003", "name": "Le Goff - Gay-Lussac", "is_installed": "OUI", "capacity": 35, "numdocksavailable": 26, "numbikesavailable": 9, "mechanical": 0, "ebike": 9, "is_renting": "OUI", "is_returning": "OUI", "duedate": "2024-06-14T14:49:06+00:00", "coordonnees_geo": {"lon": 2.3412207886576653, "lat": 48.8461024009786}, "nom_arrondissement_communes": "Paris", "code_insee_commune": null}, {"stationcode": "19202", "name": "Marseillaise - Grenade", "is_installed": "OUI", "capacity": 45, "numdocksavailable": 24, "numbikesavailable": 21, "mechanical": 18, "ebike": 3, "is_renting": "OUI", "is_returning": "OUI", "duedate": "2024-06-14T14:49:52+00:00", "coordonnees_geo": {"lon": 2.3979396821544, "lat": 48.889371092747}, "nom_arrondissement_communes": "Paris", "code_insee_commune": null}, {"stationcode": "17021", "name": "Jouffroy d'Abbans - Villiers", "is_installed": "OUI", "capacity": 34, "numdocksavailable": 28, "numbikesavailable": 5, "mechanical": 1, "ebike": 4, "is_renting": "OUI", "is_returning": "OUI", "duedate": "2024-06-14T14:45:35+00:00", "coordonnees_geo": {"lon": 2.3056533560157, "lat": 48.884215547037}, "nom_arrondissement_communes": "Paris", "code_insee_commune": null}, {"stationcode": "31020", "name": "R\u00e9sistance - Parmentier", "is_installed": "OUI", "capacity": 35, "numdocksavailable": 34, "numbikesavailable": 0, "mechanical": 0, "ebike": 0, "is_renting": "OUI", "is_returning": "OUI", "duedate": "2024-06-14T14:45:22+00:00", "coordonnees_geo": {"lon": 2.436705082654953, "lat": 48.85965138131299}, "nom_arrondissement_communes": "Montreuil", "code_insee_commune": null}, {"stationcode": "16139", "name": "Suresnes - Muette \u00e0 Neuilly", "is_installed": "OUI", "capacity": 30, "numdocksavailable": 27, "numbikesavailable": 1, "mechanical": 0, "ebike": 1, "is_renting": "OUI", "is_returning": "OUI", "duedate": "2024-06-14T14:45:49+00:00", "coordonnees_geo": {"lon": 2.266000919044, "lat": 48.868570404348}, "nom_arrondissement_communes": "Paris", "code_insee_commune": null}, {"stationcode": "6007", "name": "Br\u00e9a - Raspail", "is_installed": "OUI", "capacity": 24, "numdocksavailable": 18, "numbikesavailable": 4, "mechanical": 1, "ebike": 3, "is_renting": "OUI", "is_returning": "OUI", "duedate": "2024-06-14T14:49:56+00:00", "coordonnees_geo": {"lon": 2.3297942217634, "lat": 48.842738478258}, "nom_arrondissement_communes": "Paris", "code_insee_commune": null}, {"stationcode": "21119", "name": "Belfort - Victor Hugo", "is_installed": "OUI", "capacity": 24, "numdocksavailable": 12, "numbikesavailable": 12, "mechanical": 10, "ebike": 2, "is_renting": "OUI", "is_returning": "OUI", "duedate": "2024-06-14T14:48:04+00:00", "coordonnees_geo": {"lon": 2.3172724, "lat": 48.9018492}, "nom_arrondissement_communes": "Clichy", "code_insee_commune": null}, {"stationcode": "16010", "name": "Belles Feuilles - Place de Mexico", "is_installed": "OUI", "capacity": 23, "numdocksavailable": 20, "numbikesavailable": 3, "mechanical": 1, "ebike": 2, "is_renting": "OUI", "is_returning": "OUI", "duedate": "2024-06-14T14:50:10+00:00", "coordonnees_geo": {"lon": 2.2829206287861, "lat": 48.865804746474}, "nom_arrondissement_communes": "Paris", "code_insee_commune": null}, {"stationcode": "32020", "name": "Jules Guesdes - Carnot", "is_installed": "OUI", "capacity": 16, "numdocksavailable": 13, "numbikesavailable": 3, "mechanical": 1, "ebike": 2, "is_renting": "OUI", "is_returning": "OUI", "duedate": "2024-06-14T14:46:03+00:00", "coordonnees_geo": {"lon": 2.3508992046117783, "lat": 48.93828169931872}, "nom_arrondissement_communes": "Saint-Denis", "code_insee_commune": null}, {"stationcode": "32022", "name": "Henri Barbusse - Marcel Cachin", "is_installed": "OUI", "capacity": 37, "numdocksavailable": 29, "numbikesavailable": 8, "mechanical": 1, "ebike": 7, "is_renting": "OUI", "is_returning": "OUI", "duedate": "2024-06-14T14:47:17+00:00", "coordonnees_geo": {"lon": 2.3720374971659, "lat": 48.93742089281}, "nom_arrondissement_communes": "Saint-Denis", "code_insee_commune": null}, {"stationcode": "1015", "name": "Place Andr\u00e9 Malraux", "is_installed": "OUI", "capacity": 19, "numdocksavailable": 2, "numbikesavailable": 16, "mechanical": 10, "ebike": 6, "is_renting": "OUI", "is_returning": "OUI", "duedate": "2024-06-14T14:47:48+00:00", "coordonnees_geo": {"lon": 2.3356226831675, "lat": 48.863925158727}, "nom_arrondissement_communes": "Paris", "code_insee_commune": null}, {"stationcode": "1008", "name": "Les Halles - Saint-Eustache", "is_installed": "OUI", "capacity": 32, "numdocksavailable": 11, "numbikesavailable": 20, "mechanical": 18, "ebike": 2, "is_renting": "OUI", "is_returning": "OUI", "duedate": "2024-06-14T14:49:44+00:00", "coordonnees_geo": {"lon": 2.342623919248581, "lat": 48.86362695901683}, "nom_arrondissement_communes": "Paris", "code_insee_commune": null}, {"stationcode": "9019", "name": "Victor Mass\u00e9 - Jean-Baptiste Pigalle", "is_installed": "OUI", "capacity": 18, "numdocksavailable": 14, "numbikesavailable": 4, "mechanical": 1, "ebike": 3, "is_renting": "OUI", "is_returning": "OUI", "duedate": "2024-06-14T14:50:06+00:00", "coordonnees_geo": {"lon": 2.3366955667734, "lat": 48.8811043724}, "nom_arrondissement_communes": "Paris", "code_insee_commune": null}, {"stationcode": "1024", "name": "Coquilli\u00e8re - Louvre", "is_installed": "OUI", "capacity": 21, "numdocksavailable": 6, "numbikesavailable": 14, "mechanical": 10, "ebike": 4, "is_renting": "OUI", "is_returning": "OUI", "duedate": "2024-06-14T14:49:44+00:00", "coordonnees_geo": {"lon": 2.3425736278295517, "lat": 48.86379590966231}, "nom_arrondissement_communes": "Paris", "code_insee_commune": null}, {"stationcode": "13202", "name": "Place Farhat Hached", "is_installed": "OUI", "capacity": 28, "numdocksavailable": 10, "numbikesavailable": 18, "mechanical": 10, "ebike": 8, "is_renting": "OUI", "is_returning": "OUI", "duedate": "2024-06-14T14:50:03+00:00", "coordonnees_geo": {"lon": 2.3819742271533, "lat": 48.825806194537}, "nom_arrondissement_communes": "Paris", "code_insee_commune": null}, {"stationcode": "6029", "name": "Vaugirard - Monsieur le Prince", "is_installed": "OUI", "capacity": 26, "numdocksavailable": 13, "numbikesavailable": 13, "mechanical": 10, "ebike": 3, "is_renting": "OUI", "is_returning": "OUI", "duedate": "2024-06-14T14:49:25+00:00", "coordonnees_geo": {"lon": 2.3411329463124, "lat": 48.848951441614}, "nom_arrondissement_communes": "Paris", "code_insee_commune": null}, {"stationcode": "12016", "name": "Saint-Mande - Picpus", "is_installed": "OUI", "capacity": 35, "numdocksavailable": 31, "numbikesavailable": 2, "mechanical": 1, "ebike": 1, "is_renting": "OUI", "is_returning": "OUI", "duedate": "2024-06-14T14:46:05+00:00", "coordonnees_geo": {"lon": 2.4015686296482, "lat": 48.845127728278}, "nom_arrondissement_communes": "Paris", "code_insee_commune": null}, {"stationcode": "23301", "name": "Les Blagis", "is_installed": "OUI", "capacity": 27, "numdocksavailable": 17, "numbikesavailable": 10, "mechanical": 8, "ebike": 2, "is_renting": "OUI", "is_returning": "OUI", "duedate": "2024-06-14T14:49:46+00:00", "coordonnees_geo": {"lon": 2.302526, "lat": 48.785205}, "nom_arrondissement_communes": "Sceaux", "code_insee_commune": null}, {"stationcode": "42210", "name": "Victor Hugo - Paul Eluard", "is_installed": "OUI", "capacity": 32, "numdocksavailable": 14, "numbikesavailable": 16, "mechanical": 11, "ebike": 5, "is_renting": "OUI", "is_returning": "OUI", "duedate": "2024-06-14T14:48:54+00:00", "coordonnees_geo": {"lon": 2.4114319673051, "lat": 48.819602554907}, "nom_arrondissement_communes": "Charenton-le-Pont", "code_insee_commune": null}, {"stationcode": "44008", "name": "Youri Gagarine - Commune de Paris", "is_installed": "OUI", "capacity": 33, "numdocksavailable": 1, "numbikesavailable": 31, "mechanical": 14, "ebike": 17, "is_renting": "OUI", "is_returning": "OUI", "duedate": "2024-06-14T14:49:01+00:00", "coordonnees_geo": {"lon": 2.3939734697342, "lat": 48.782427463041}, "nom_arrondissement_communes": "Vitry-sur-Seine", "code_insee_commune": null}, {"stationcode": "21011", "name": "Silly - Louis Bl\u00e9riot", "is_installed": "OUI", "capacity": 23, "numdocksavailable": 19, "numbikesavailable": 4, "mechanical": 3, "ebike": 1, "is_renting": "OUI", "is_returning": "OUI", "duedate": "2024-06-14T14:48:57+00:00", "coordonnees_geo": {"lon": 2.2340199351310734, "lat": 48.83219045374266}, "nom_arrondissement_communes": "Boulogne-Billancourt", "code_insee_commune": null}, {"stationcode": "20140", "name": "Paganini - Davout", "is_installed": "OUI", "capacity": 22, "numdocksavailable": 18, "numbikesavailable": 4, "mechanical": 1, "ebike": 3, "is_renting": "OUI", "is_returning": "OUI", "duedate": "2024-06-14T14:49:54+00:00", "coordonnees_geo": {"lon": 2.412021, "lat": 48.85135}, "nom_arrondissement_communes": "Paris", "code_insee_commune": null}, {"stationcode": "23303", "name": "Gare de Robinson", "is_installed": "OUI", "capacity": 30, "numdocksavailable": 10, "numbikesavailable": 20, "mechanical": 9, "ebike": 11, "is_renting": "OUI", "is_returning": "OUI", "duedate": "2024-06-14T14:46:14+00:00", "coordonnees_geo": {"lon": 2.281828634440899, "lat": 48.7799259211605}, "nom_arrondissement_communes": "Sceaux", "code_insee_commune": null}, {"stationcode": "26012", "name": "Jardin Mod\u00e8le - Pierre Boudou", "is_installed": "OUI", "capacity": 18, "numdocksavailable": 2, "numbikesavailable": 16, "mechanical": 12, "ebike": 4, "is_renting": "OUI", "is_returning": "OUI", "duedate": "2024-06-14T14:49:47+00:00", "coordonnees_geo": {"lon": 2.3057010525935, "lat": 48.914866710946}, "nom_arrondissement_communes": "Asni\u00e8res-sur-Seine", "code_insee_commune": null}, {"stationcode": "20048", "name": "Bagnolet - Place Saint-Blaise", "is_installed": "OUI", "capacity": 28, "numdocksavailable": 25, "numbikesavailable": 3, "mechanical": 0, "ebike": 3, "is_renting": "OUI", "is_returning": "OUI", "duedate": "2024-06-14T14:44:35+00:00", "coordonnees_geo": {"lon": 2.40334, "lat": 48.85973}, "nom_arrondissement_communes": "Paris", "code_insee_commune": null}, {"stationcode": "6015", "name": "Andr\u00e9 Mazet - Saint-Andr\u00e9 des Arts", "is_installed": "OUI", "capacity": 55, "numdocksavailable": 32, "numbikesavailable": 21, "mechanical": 14, "ebike": 7, "is_renting": "OUI", "is_returning": "OUI", "duedate": "2024-06-14T14:49:59+00:00", "coordonnees_geo": {"lon": 2.3390958085656166, "lat": 48.85375581057431}, "nom_arrondissement_communes": "Paris", "code_insee_commune": null}, {"stationcode": "13051", "name": "Halle Freyssinet - Parvis Alan Turing", "is_installed": "OUI", "capacity": 23, "numdocksavailable": 1, "numbikesavailable": 21, "mechanical": 8, "ebike": 13, "is_renting": "OUI", "is_returning": "OUI", "duedate": "2024-06-14T14:50:04+00:00", "coordonnees_geo": {"lon": 2.3711421713233, "lat": 48.832846814471}, "nom_arrondissement_communes": "Paris", "code_insee_commune": null}, {"stationcode": "32605", "name": "Mairie", "is_installed": "OUI", "capacity": 20, "numdocksavailable": 19, "numbikesavailable": 1, "mechanical": 0, "ebike": 1, "is_renting": "OUI", "is_returning": "OUI", "duedate": "2024-06-14T14:48:27+00:00", "coordonnees_geo": {"lon": 2.4163350908311, "lat": 48.87914304162}, "nom_arrondissement_communes": "Les Lilas", "code_insee_commune": null}, {"stationcode": "17202", "name": "Mariotte - Batignolles", "is_installed": "OUI", "capacity": 20, "numdocksavailable": 20, "numbikesavailable": 0, "mechanical": 0, "ebike": 0, "is_renting": "OUI", "is_returning": "OUI", "duedate": "2024-06-14T14:46:13+00:00", "coordonnees_geo": {"lon": 2.321469503475, "lat": 48.884571659595}, "nom_arrondissement_communes": "Paris", "code_insee_commune": null}, {"stationcode": "8202", "name": "Londres - Europe", "is_installed": "OUI", "capacity": 27, "numdocksavailable": 24, "numbikesavailable": 2, "mechanical": 0, "ebike": 2, "is_renting": "OUI", "is_returning": "OUI", "duedate": "2024-06-14T14:47:08+00:00", "coordonnees_geo": {"lon": 2.3248164693922, "lat": 48.878618556803}, "nom_arrondissement_communes": "Paris", "code_insee_commune": null}, {"stationcode": "32011", "name": "Stade de France - Francis de Pressens\u00e9", "is_installed": "OUI", "capacity": 44, "numdocksavailable": 6, "numbikesavailable": 37, "mechanical": 14, "ebike": 23, "is_renting": "OUI", "is_returning": "OUI", "duedate": "2024-06-14T14:49:09+00:00", "coordonnees_geo": {"lon": 2.3620655760169, "lat": 48.919141953558}, "nom_arrondissement_communes": "Saint-Denis", "code_insee_commune": null}, {"stationcode": "17020", "name": "Jouffroy d'Abbans - Malesherbes", "is_installed": "OUI", "capacity": 27, "numdocksavailable": 11, "numbikesavailable": 16, "mechanical": 4, "ebike": 12, "is_renting": "OUI", "is_returning": "OUI", "duedate": "2024-06-14T14:46:40+00:00", "coordonnees_geo": {"lon": 2.3070717, "lat": 48.8850134}, "nom_arrondissement_communes": "Paris", "code_insee_commune": null}, {"stationcode": "23206", "name": "B\u00e9ranger - F\u00e9lix Faure", "is_installed": "OUI", "capacity": 28, "numdocksavailable": 24, "numbikesavailable": 4, "mechanical": 2, "ebike": 2, "is_renting": "OUI", "is_returning": "OUI", "duedate": "2024-06-14T14:44:19+00:00", "coordonnees_geo": {"lon": 2.2848263373723436, "lat": 48.80404828621485}, "nom_arrondissement_communes": "Ch\u00e2tillon", "code_insee_commune": null}, {"stationcode": "18010", "name": "Riquet - Marx Dormoy", "is_installed": "OUI", "capacity": 26, "numdocksavailable": 26, "numbikesavailable": 0, "mechanical": 0, "ebike": 0, "is_renting": "NON", "is_returning": "NON", "duedate": "2023-08-08T15:42:30+00:00", "coordonnees_geo": {"lon": 2.3601756244898, "lat": 48.89021003702}, "nom_arrondissement_communes": "Paris", "code_insee_commune": null}, {"stationcode": "8004", "name": "Malesherbes - Place de la Madeleine", "is_installed": "OUI", "capacity": 67, "numdocksavailable": 8, "numbikesavailable": 58, "mechanical": 32, "ebike": 26, "is_renting": "OUI", "is_returning": "OUI", "duedate": "2024-06-14T14:50:11+00:00", "coordonnees_geo": {"lon": 2.323243509808, "lat": 48.870406028483}, "nom_arrondissement_communes": "Paris", "code_insee_commune": null}, {"stationcode": "23703", "name": "Gare de Chaville Rive Gauche", "is_installed": "OUI", "capacity": 18, "numdocksavailable": 18, "numbikesavailable": 0, "mechanical": 0, "ebike": 0, "is_renting": "OUI", "is_returning": "OUI", "duedate": "2024-06-14T14:43:17+00:00", "coordonnees_geo": {"lon": 2.188277207314968, "lat": 48.80516030434533}, "nom_arrondissement_communes": "Chaville", "code_insee_commune": null}, {"stationcode": "20142", "name": "M\u00fbriers - P\u00e8re Lachaise", "is_installed": "OUI", "capacity": 20, "numdocksavailable": 19, "numbikesavailable": 1, "mechanical": 0, "ebike": 1, "is_renting": "OUI", "is_returning": "OUI", "duedate": "2024-06-14T14:47:58+00:00", "coordonnees_geo": {"lon": 2.39164982067019, "lat": 48.864130509668044}, "nom_arrondissement_communes": "Paris", "code_insee_commune": null}, {"stationcode": "48001", "name": "Chastenet de G\u00e9ry - Marcel Paul", "is_installed": "OUI", "capacity": 25, "numdocksavailable": 20, "numbikesavailable": 5, "mechanical": 1, "ebike": 4, "is_renting": "OUI", "is_returning": "OUI", "duedate": "2024-06-14T14:46:15+00:00", "coordonnees_geo": {"lon": 2.3567359, "lat": 48.800123}, "nom_arrondissement_communes": "Villejuif", "code_insee_commune": null}, {"stationcode": "18135", "name": "Ney - Porte de Montmartre", "is_installed": "OUI", "capacity": 24, "numdocksavailable": 19, "numbikesavailable": 4, "mechanical": 1, "ebike": 3, "is_renting": "OUI", "is_returning": "OUI", "duedate": "2024-06-14T14:47:05+00:00", "coordonnees_geo": {"lon": 2.3364872, "lat": 48.897918}, "nom_arrondissement_communes": "Paris", "code_insee_commune": null}, {"stationcode": "34011", "name": "Clef des Champs - Albert Dhalenne", "is_installed": "OUI", "capacity": 28, "numdocksavailable": 9, "numbikesavailable": 14, "mechanical": 12, "ebike": 2, "is_renting": "OUI", "is_returning": "OUI", "duedate": "2024-06-14T14:47:44+00:00", "coordonnees_geo": {"lon": 2.330665, "lat": 48.914938}, "nom_arrondissement_communes": "Saint-Ouen-sur-Seine", "code_insee_commune": null}, {"stationcode": "21329", "name": "Gare - Aristide Briand", "is_installed": "OUI", "capacity": 29, "numdocksavailable": 16, "numbikesavailable": 11, "mechanical": 9, "ebike": 2, "is_renting": "OUI", "is_returning": "OUI", "duedate": "2024-06-14T14:50:12+00:00", "coordonnees_geo": {"lon": 2.2555950104387, "lat": 48.821410564722}, "nom_arrondissement_communes": "Issy-les-Moulineaux", "code_insee_commune": null}, {"stationcode": "25007", "name": "Bons Raisins - Voltaire", "is_installed": "OUI", "capacity": 24, "numdocksavailable": 22, "numbikesavailable": 1, "mechanical": 0, "ebike": 1, "is_renting": "OUI", "is_returning": "OUI", "duedate": "2024-06-14T14:49:59+00:00", "coordonnees_geo": {"lon": 2.1947155570850896, "lat": 48.87282451461399}, "nom_arrondissement_communes": "Rueil-Malmaison", "code_insee_commune": null}, {"stationcode": "19114", "name": "Manin - Secr\u00e9tan", "is_installed": "OUI", "capacity": 20, "numdocksavailable": 20, "numbikesavailable": 0, "mechanical": 0, "ebike": 0, "is_renting": "OUI", "is_returning": "OUI", "duedate": "2024-06-14T14:48:38+00:00", "coordonnees_geo": {"lon": 2.3787959, "lat": 48.8791665}, "nom_arrondissement_communes": "Paris", "code_insee_commune": null}, {"stationcode": "19006", "name": "Mathis - Flandre", "is_installed": "OUI", "capacity": 55, "numdocksavailable": 53, "numbikesavailable": 2, "mechanical": 1, "ebike": 1, "is_renting": "OUI", "is_returning": "OUI", "duedate": "2024-06-14T14:49:55+00:00", "coordonnees_geo": {"lon": 2.3762554675340652, "lat": 48.8906429898976}, "nom_arrondissement_communes": "Paris", "code_insee_commune": null}, {"stationcode": "21002", "name": "Place Denfert-Rochereau", "is_installed": "OUI", "capacity": 20, "numdocksavailable": 20, "numbikesavailable": 0, "mechanical": 0, "ebike": 0, "is_renting": "OUI", "is_returning": "OUI", "duedate": "2024-06-14T14:48:50+00:00", "coordonnees_geo": {"lon": 2.245987951755524, "lat": 48.843252536286684}, "nom_arrondissement_communes": "Boulogne-Billancourt", "code_insee_commune": null}]