[{"stationcode": "32018", "name": "Franciade - Gabriel P\u00e9ri", "is_installed": "OUI", "capacity": 26, "numdocksavailable": 15, "numbikesavailable": 11, "mechanical": 1, "ebike": 10, "is_renting": "OUI", "is_returning": "OUI", "duedate": "2024-06-16T05:52:44+00:00", "coordonnees_geo": {"lon": 2.355954498052597, "lat": 48.93261499331498}, "nom_arrondissement_communes": "Saint-Denis", "code_insee_commune": null}, {"stationcode": "20202", "name": "Dupont de l'Eure - Gambetta", "is_installed": "OUI", "capacity": 31, "numdocksavailable": 13, "numbikesavailable": 17, "mechanical": 0, "ebike": 17, "is_renting": "OUI", "is_returning": "OUI", "duedate": "2024-06-16T05:54:15+00:00", "coordonnees_geo": {"lon": 2.4003649, "lat": 48.8679385}, "nom_arrondissement_communes": "Paris", "code_insee_commune": null}, {"stationcode": "5019", "name": "Poissy - Saint-Germain", "is_installed": "OUI", "capacity": 25, "numdocksavailable": 8, "numbikesavailable": 16, "mechanical": 16, "ebike": 0, "is_renting": "OUI", "is_returning": "OUI", "duedate": "2024-06-16T05:54:18+00:00", "coordonnees_geo": {"lon": 2.3529685288668, "lat": 48.84969649427}, "nom_arrondissement_communes": "Paris", "code_insee_commune": null}, {"stationcode": "11003", "name": "Keller - La Roquette", "is_installed": "OUI", "capacity": 34, "numdocksavailable": 18, "numbikesavailable": 10, "mechanical": 9, "ebike": 1, "is_renting": "OUI", "is_returning": "OUI", "duedate": "2024-06-16T05:52:18+00:00", "coordonnees_geo": {"lon": 2.3752778, "lat": 48.8555508}, "nom_arrondissement_communes": "Paris", "code_insee_commune": null}, {"stationcode": "15020", "name": "Mairie du 15\u00e8me", "is_installed": "OUI", "capacity": 32, "numdocksavailable": 14, "numbikesavailable": 17, "mechanical": 12, "ebike": 5, "is_renting": "OUI", "is_returning": "OUI", "duedate": "2024-06-16T05:52:42+00:00", "coordonnees_geo": {"lon": 2.2986539, "lat": 48.8417762}, "nom_arrondissement_communes": "Paris", "code_insee_commune": null}, {"stationcode": "19031", "name": "Manin - Crim\u00e9e", "is_installed": "OUI", "capacity": 23, "numdocksavailable": 6, "numbikesavailable": 16, "mechanical": 3, "ebike": 13, "is_renting": "OUI", "is_returning": "OUI", "duedate": "2024-06-16T05:53:50+00:00", "coordonnees_geo": {"lon": 2.3863670602440834, "lat": 48.8831217743719}, "nom_arrondissement_communes": "Paris", "code_insee_commune": null}, {"stationcode": "15061", "name": "Square Desnouettes", "is_installed": "OUI", "capacity": 22, "numdocksavailable": 4, "numbikesavailable": 18, "mechanical": 17, "ebike": 1, "is_renting": "OUI", "is_returning": "OUI", "duedate": "2024-06-16T05:53:38+00:00", "coordonnees_geo": {"lon": 2.284142297394666, "lat": 48.83476837934194}, "nom_arrondissement_communes": "Paris", "code_insee_commune": null}, {"stationcode": "11019", "name": "Charonne - Philippe-Auguste", "is_installed": "OUI", "capacity": 32, "numdocksavailable": 15, "numbikesavailable": 16, "mechanical": 13, "ebike": 3, "is_renting": "OUI", "is_returning": "OUI", "duedate": "2024-06-16T05:54:03+00:00", "coordonnees_geo": {"lon": 2.39054639062, "lat": 48.855603162026}, "nom_arrondissement_communes": "Paris", "code_insee_commune": null}, {"stationcode": "15063", "name": "Convention - Saint-Charles", "is_installed": "OUI", "capacity": 23, "numdocksavailable": 21, "numbikesavailable": 2, "mechanical": 2, "ebike": 0, "is_renting": "NON", "is_returning": "NON", "duedate": "2023-12-14T02:53:24+00:00", "coordonnees_geo": {"lon": 2.2831090539694, "lat": 48.843156111116}, "nom_arrondissement_communes": "Paris", "code_insee_commune": null}, {"stationcode": "8015", "name": "Roqu\u00e9pine - Malesherbes", "is_installed": "OUI", "capacity": 37, "numdocksavailable": 30, "numbikesavailable": 7, "mechanical": 4, "ebike": 3, "is_renting": "OUI", "is_returning": "OUI", "duedate": "2024-06-16T05:53:45+00:00", "coordonnees_geo": {"lon": 2.320404499769211, "lat": 48.87345073390807}, "nom_arrondissement_communes": "Paris", "code_insee_commune": null}, {"stationcode": "7026", "name": "Place de Finlande", "is_installed": "OUI", "capacity": 25, "numdocksavailable": 20, "numbikesavailable": 4, "mechanical": 4, "ebike": 0, "is_renting": "OUI", "is_returning": "OUI", "duedate": "2024-06-16T05:45:01+00:00", "coordonnees_geo": {"lon": 2.3113624379039, "lat": 48.862408335967}, "nom_arrondissement_communes": "Paris", "code_insee_commune": null}, {"stationcode": "21108", "name": "Mairie de Clichy", "is_installed": "OUI", "capacity": 51, "numdocksavailable": 2, "numbikesavailable": 48, "mechanical": 43, "ebike": 5, "is_renting": "OUI", "is_returning": "OUI", "duedate": "2024-06-16T05:52:26+00:00", "coordonnees_geo": {"lon": 2.3059353232384, "lat": 48.903653634661}, "nom_arrondissement_communes": "Clichy", "code_insee_commune": null}, {"stationcode": "6014", "name": "Pont de Lodi - Dauphine", "is_installed": "OUI", "capacity": 23, "numdocksavailable": 18, "numbikesavailable": 4, "mechanical": 3, "ebike": 1, "is_renting": "OUI", "is_returning": "OUI", "duedate": "2024-06-16T05:54:02+00:00", "coordonnees_geo": {"lon": 2.339947307565249, "lat": 48.855296898603285}, "nom_arrondissement_communes": "Paris", "code_insee_commune": null}, {"stationcode": "14116", "name": "Romain Rolland", "is_installed": "OUI", "capacity": 25, "numdocksavailable": 18, "numbikesavailable": 7, "mechanical": 2, "ebike": 5, "is_renting": "OUI", "is_returning": "OUI", "duedate": "2024-06-16T05:48:06+00:00", "coordonnees_geo": {"lon": 2.3234144234418346, "lat": 48.820215229662765}, "nom_arrondissement_communes": "Montrouge", "code_insee_commune": null}, {"stationcode": "3101", "name": "Porte Saint-Martin", "is_installed": "OUI", "capacity": 34, "numdocksavailable": 14, "numbikesavailable": 18, "mechanical": 16, "ebike": 2, "is_renting": "OUI", "is_returning": "OUI", "duedate": "2024-06-16T04:53:29+00:00", "coordonnees_geo": {"lon": 2.35570102930069, "lat": 48.86860172112996}, "nom_arrondissement_communes": "Paris", "code_insee_commune": null}, {"stationcode": "11048", "name": "Place Mireille Havet", "is_installed": "OUI", "capacity": 43, "numdocksavailable": 30, "numbikesavailable": 11, "mechanical": 6, "ebike": 5, "is_renting": "OUI", "is_returning": "OUI", "duedate": "2024-06-16T04:51:04+00:00", "coordonnees_geo": {"lon": 2.383756, "lat": 48.850533}, "nom_arrondissement_communes": "Paris", "code_insee_commune": null}, {"stationcode": "2101", "name": "Bachaumont - Montmartre", "is_installed": "OUI", "capacity": 33, "numdocksavailable": 23, "numbikesavailable": 9, "mechanical": 6, "ebike": 3, "is_renting": "OUI", "is_returning": "OUI", "duedate": "2024-06-16T04:49:58+00:00", "coordonnees_geo": {"lon": 2.3449775576591496, "lat": 48.86617395079137}, "nom_arrondissement_communes": "Paris", "code_insee_commune": null}, {"stationcode": "12154", "name": "Square Georges Melies", "is_installed": "OUI", "capacity": 40, "numdocksavailable": 32, "numbikesavailable": 8, "mechanical": 4, "ebike": 4, "is_renting": "OUI", "is_returning": "OUI", "duedate": "2024-06-16T04:49:11+00:00", "coordonnees_geo": {"lon": 2.409667745232582, "lat": 48.84070239213081}, "nom_arrondissement_communes": "Paris", "code_insee_commune": null}, {"stationcode": "9015", "name": "Lamartine - Faubourg Montmartre", "is_installed": "OUI", "capacity": 32, "numdocksavailable": 14, "numbikesavailable": 15, "mechanical": 11, "ebike": 4, "is_renting": "OUI", "is_returning": "OUI", "duedate": "2024-06-16T04:53:33+00:00", "coordonnees_geo": {"lon": 2.339765690267086, "lat": 48.87661398289084}, "nom_arrondissement_communes": "Paris", "code_insee_commune": null}, {"stationcode": "17104", "name": "Jardin Marguerite Long", "is_installed": "OUI", "capacity": 22, "numdocksavailable": 16, "numbikesavailable": 6, "mechanical": 5, "ebike": 1, "is_renting": "OUI", "is_returning": "OUI", "duedate": "2024-06-16T04:52:13+00:00", "coordonnees_geo": {"lon": 2.2836575657129288, "lat": 48.8816985773914}, "nom_arrondissement_communes": "Paris", "code_insee_commune": null}, {"stationcode": "19030", "name": "Melun - Jean Jaur\u00e8s", "is_installed": "OUI", "capacity": 28, "numdocksavailable": 14, "numbikesavailable": 12, "mechanical": 3, "ebike": 9, "is_renting": "OUI", "is_returning": "OUI", "duedate": "2024-06-16T04:54:14+00:00", "coordonnees_geo": {"lon": 2.376477420330048, "lat": 48.8837796723475}, "nom_arrondissement_communes": "Paris", "code_insee_commune": null}, {"stationcode": "22002", "name": "Argenson - Ch\u00e2teau", "is_installed": "OUI", "capacity": 25, "numdocksavailable": 13, "numbikesavailable": 10, "mechanical": 8, "ebike": 2, "is_renting": "OUI", "is_returning": "OUI", "duedate": "2024-06-16T04:49:28+00:00", "coordonnees_geo": {"lon": 2.2642001509666447, "lat": 48.888559314669514}, "nom_arrondissement_communes": "Neuilly-sur-Seine", "code_insee_commune": null}, {"stationcode": "13022", "name": "Butte aux Cailles - Esperance", "is_installed": "OUI", "capacity": 36, "numdocksavailable": 19, "numbikesavailable": 14, "mechanical": 5, "ebike": 9, "is_renting": "OUI", "is_returning": "OUI", "duedate": "2024-06-16T04:52:47+00:00", "coordonnees_geo": {"lon": 2.3492151126265526, "lat": 48.82758774190948}, "nom_arrondissement_communes": "Paris", "code_insee_commune": null}, {"stationcode": "20045", "name": "Louis Ganne - Davout", "is_installed": "OUI", "capacity": 30, "numdocksavailable": 12, "numbikesavailable": 18, "mechanical": 15, "ebike": 3, "is_renting": "OUI", "is_returning": "OUI", "duedate": "2024-06-16T04:52:04+00:00", "coordonnees_geo": {"lon": 2.409725748002529, "lat": 48.86338720692607}, "nom_arrondissement_communes": "Paris", "code_insee_commune": null}, {"stationcode": "13019", "name": "Fernand Braudel - Vincent Auriol", "is_installed": "OUI", "capacity": 36, "numdocksavailable": 13, "numbikesavailable": 22, "mechanical": 21, "ebike": 1, "is_renting": "OUI", "is_returning": "OUI", "duedate": "2024-06-16T04:53:10+00:00", "coordonnees_geo": {"lon": 2.3723404482007027, "lat": 48.83637852318147}, "nom_arrondissement_communes": "Paris", "code_insee_commune": null}, {"stationcode": "11044", "name": "Square du Bataclan", "is_installed": "OUI", "capacity": 20, "numdocksavailable": 4, "numbikesavailable": 9, "mechanical": 6, "ebike": 3, "is_renting": "OUI", "is_returning": "OUI", "duedate": "2024-06-16T04:52:27+00:00", "coordonnees_geo": {"lon": 2.3711327, "lat": 48.8633762}, "nom_arrondissement_communes": "Paris", "code_insee_commune": null}, {"stationcode": "23302", "name": "Parc de Sceaux - Centre-Ville", "is_installed": "OUI", "capacity": 33, "numdocksavailable": 33, "numbikesavailable": 0, "mechanical": 0, "ebike": 0, "is_renting": "NON", "is_returning": "NON", "duedate": "2024-06-07T14:37:22+00:00", "coordonnees_geo": {"lon": 2.2957214713097, "lat": 48.77695298261}, "nom_arrondissement_communes": "Sceaux", "code_insee_commune": null}, {"stationcode": "8029", "name": "Place du Canada", "is_installed": "OUI", "capacity": 58, "numdocksavailable": 52, "numbikesavailable": 3, "mechanical": 1, "ebike": 2, "is_renting": "OUI", "is_returning": "OUI", "duedate": "2024-06-16T04:52:55+00:00", "coordonnees_geo": {"lon": 2.3101937879648, "lat": 48.865346269363}, "nom_arrondissement_communes": "Paris", "code_insee_commune": null}, {"stationcode": "16031", "name": "Vignes - Boulainvilliers", "is_installed": "OUI", "capacity": 21, "numdocksavailable": 14, "numbikesavailable": 7, "mechanical": 3, "ebike": 4, "is_renting": "OUI", "is_returning": "OUI", "duedate": "2024-06-16T04:48:59+00:00", "coordonnees_geo": {"lon": 2.275240458548069, "lat": 48.856399483950504}, "nom_arrondissement_communes": "Paris", "code_insee_commune": null}, {"stationcode": "17005", "name": "Brochant - Clichy", "is_installed": "OUI", "capacity": 53, "numdocksavailable": 44, "numbikesavailable": 9, "mechanical": 3, "ebike": 6, "is_renting": "OUI", "is_returning": "OUI", "duedate": "2024-06-16T04:52:26+00:00", "coordonnees_geo": {"lon": 2.319730559929781, "lat": 48.89032998912038}, "nom_arrondissement_communes": "Paris", "code_insee_commune": null}, {"stationcode": "21017", "name": "Place Marcel Sembat", "is_installed": "OUI", "capacity": 56, "numdocksavailable": 15, "numbikesavailable": 41, "mechanical": 40, "ebike": 1, "is_renting": "OUI", "is_returning": "OUI", "duedate": "2024-06-16T04:53:54+00:00", "coordonnees_geo": {"lon": 2.2441747784614567, "lat": 48.83328865030686}, "nom_arrondissement_communes": "Boulogne-Billancourt", "code_insee_commune": null}, {"stationcode": "12033", "name": "Fran\u00e7ois Truffaut - Saint Emilion", "is_installed": "OUI", "capacity": 66, "numdocksavailable": 11, "numbikesavailable": 52, "mechanical": 50, "ebike": 2, "is_renting": "OUI", "is_returning": "OUI", "duedate": "2024-06-16T04:53:29+00:00", "coordonnees_geo": {"lon": 2.386601903271428, "lat": 48.83372354344807}, "nom_arrondissement_communes": "Paris", "code_insee_commune": null}, {"stationcode": "12120", "name": "Lac Daumesnil - Saint-Maurice", "is_installed": "OUI", "capacity": 50, "numdocksavailable": 36, "numbikesavailable": 11, "mechanical": 3, "ebike": 8, "is_renting": "OUI", "is_returning": "OUI", "duedate": "2024-06-16T04:52:47+00:00", "coordonnees_geo": {"lon": 2.4183654785156246, "lat": 48.82774555743318}, "nom_arrondissement_communes": "Paris", "code_insee_commune": null}, {"stationcode": "22012", "name": "Madeleine Michelis - Roule", "is_installed": "OUI", "capacity": 25, "numdocksavailable": 8, "numbikesavailable": 16, "mechanical": 7, "ebike": 9, "is_renting": "OUI", "is_returning": "OUI", "duedate": "2024-06-16T04:51:40+00:00", "coordonnees_geo": {"lon": 2.2773634269833565, "lat": 48.88260431301364}, "nom_arrondissement_communes": "Neuilly-sur-Seine", "code_insee_commune": null}, {"stationcode": "18142", "name": "Jessaint - Marx Dormoy", "is_installed": "OUI", "capacity": 30, "numdocksavailable": 14, "numbikesavailable": 14, "mechanical": 1, "ebike": 13, "is_renting": "OUI", "is_returning": "OUI", "duedate": "2024-06-16T04:51:55+00:00", "coordonnees_geo": {"lon": 2.358930408954621, "lat": 48.88484543106364}, "nom_arrondissement_communes": "Paris", "code_insee_commune": null}, {"stationcode": "18014", "name": "L\u00e9on - Doudeauville", "is_installed": "OUI", "capacity": 13, "numdocksavailable": 3, "numbikesavailable": 9, "mechanical": 4, "ebike": 5, "is_renting": "OUI", "is_returning": "OUI", "duedate": "2024-06-16T04:53:16+00:00", "coordonnees_geo": {"lon": 2.353573372638597, "lat": 48.88832421845225}, "nom_arrondissement_communes": "Paris", "code_insee_commune": null}, {"stationcode": "13110", "name": "Moulin de la Pointe", "is_installed": "OUI", "capacity": 22, "numdocksavailable": 8, "numbikesavailable": 14, "mechanical": 2, "ebike": 12, "is_renting": "OUI", "is_returning": "OUI", "duedate": "2024-06-16T04:53:49+00:00", "coordonnees_geo": {"lon": 2.3563179373741145, "lat": 48.82092946051445}, "nom_arrondissement_communes": "Paris", "code_insee_commune": null}, {"stationcode": "23105", "name": "S\u00e8vres Rive Gauche", "is_installed": "OUI", "capacity": 33, "numdocksavailable": 16, "numbikesavailable": 16, "mechanical": 14, "ebike": 2, "is_renting": "OUI", "is_returning": "OUI", "duedate": "2024-06-16T04:45:06+00:00", "coordonnees_geo": {"lon": 2.2150785306885, "lat": 48.821443218278}, "nom_arrondissement_communes": "S\u00e8vres", "code_insee_commune": null}, {"stationcode": "42011", "name": "Quai Marcel Boyer - Victor Hugo", "is_installed": "OUI", "capacity": 29, "numdocksavailable": 0, "numbikesavailable": 28, "mechanical": 18, "ebike": 10, "is_renting": "OUI", "is_returning": "OUI", "duedate": "2024-06-16T04:54:19+00:00", "coordonnees_geo": {"lon": 2.392039597034455, "lat": 48.82255636666729}, "nom_arrondissement_communes": "Ivry-sur-Seine", "code_insee_commune": null}, {"stationcode": "15009", "name": "Suffren - P\u00e9rignon", "is_installed": "OUI", "capacity": 46, "numdocksavailable": 27, "numbikesavailable": 18, "mechanical": 6, "ebike": 12, "is_renting": "OUI", "is_returning": "OUI", "duedate": "2024-06-16T04:53:42+00:00", "coordonnees_geo": {"lon": 2.307052147596786, "lat": 48.84717561492764}, "nom_arrondissement_communes": "Paris", "code_insee_commune": null}, {"stationcode": "14125", "name": "Dareau - Broussais", "is_installed": "OUI", "capacity": 24, "numdocksavailable": 11, "numbikesavailable": 13, "mechanical": 2, "ebike": 11, "is_renting": "OUI", "is_returning": "OUI", "duedate": "2024-06-16T04:47:58+00:00", "coordonnees_geo": {"lon": 2.3361804, "lat": 48.8307758}, "nom_arrondissement_communes": "Paris", "code_insee_commune": null}, {"stationcode": "21009", "name": "Le Corbusier - Jean Jaur\u00e8s", "is_installed": "OUI", "capacity": 46, "numdocksavailable": 37, "numbikesavailable": 9, "mechanical": 5, "ebike": 4, "is_renting": "OUI", "is_returning": "OUI", "duedate": "2024-06-16T04:53:57+00:00", "coordonnees_geo": {"lon": 2.2408381104469304, "lat": 48.83780830557548}, "nom_arrondissement_communes": "Boulogne-Billancourt", "code_insee_commune": null}, {"stationcode": "20047", "name": "Cours de Vincennes - Davout", "is_installed": "OUI", "capacity": 48, "numdocksavailable": 42, "numbikesavailable": 5, "mechanical": 3, "ebike": 2, "is_renting": "OUI", "is_returning": "OUI", "duedate": "2024-06-16T04:49:38+00:00", "coordonnees_geo": {"lon": 2.4107042336225, "lat": 48.847238029966}, "nom_arrondissement_communes": "Paris", "code_insee_commune": null}, {"stationcode": "9013", "name": "Mairie du 9\u00e8me", "is_installed": "OUI", "capacity": 24, "numdocksavailable": 13, "numbikesavailable": 11, "mechanical": 8, "ebike": 3, "is_renting": "OUI", "is_returning": "OUI", "duedate": "2024-06-16T04:50:48+00:00", "coordonnees_geo": {"lon": 2.340753448052758, "lat": 48.87326713758289}, "nom_arrondissement_communes": "Paris", "code_insee_commune": null}, {"stationcode": "18114", "name": "V\u00e9ron - Lepic", "is_installed": "OUI", "capacity": 23, "numdocksavailable": 14, "numbikesavailable": 8, "mechanical": 6, "ebike": 2, "is_renting": "OUI", "is_returning": "OUI", "duedate": "2024-06-16T04:50:51+00:00", "coordonnees_geo": {"lon": 2.334559857845307, "lat": 48.88526123395252}, "nom_arrondissement_communes": "Paris", "code_insee_commune": null}, {"stationcode": "21951", "name": "Place Centrale", "is_installed": "OUI", "capacity": 22, "numdocksavailable": 20, "numbikesavailable": 2, "mechanical": 0, "ebike": 2, "is_renting": "OUI", "is_returning": "OUI", "duedate": "2024-06-16T04:50:12+00:00", "coordonnees_geo": {"lon": 2.2278830409049992, "lat": 48.78740167690531}, "nom_arrondissement_communes": "Meudon", "code_insee_commune": null}, {"stationcode": "92005", "name": "Gare de Nanterre Ville", "is_installed": "OUI", "capacity": 43, "numdocksavailable": 16, "numbikesavailable": 27, "mechanical": 16, "ebike": 11, "is_renting": "OUI", "is_returning": "OUI", "duedate": "2024-06-16T04:53:49+00:00", "coordonnees_geo": {"lon": 2.1957932, "lat": 48.8950295}, "nom_arrondissement_communes": "Nanterre", "code_insee_commune": null}, {"stationcode": "22103", "name": "Senard - Charles Blum", "is_installed": "OUI", "capacity": 24, "numdocksavailable": 12, "numbikesavailable": 12, "mechanical": 2, "ebike": 10, "is_renting": "OUI", "is_returning": "OUI", "duedate": "2024-06-16T04:54:26+00:00", "coordonnees_geo": {"lon": 2.221091687679291, "lat": 48.857315824799}, "nom_arrondissement_communes": "Saint-Cloud", "code_insee_commune": null}, {"stationcode": "19113", "name": "Pr\u00e9 Saint-Gervais - Lilas", "is_installed": "OUI", "capacity": 28, "numdocksavailable": 6, "numbikesavailable": 22, "mechanical": 1, "ebike": 21, "is_renting": "OUI", "is_returning": "OUI", "duedate": "2024-06-16T04:53:52+00:00", "coordonnees_geo": {"lon": 2.3959073424339, "lat": 48.877870626988}, "nom_arrondissement_communes": "Paris", "code_insee_commune": null}, {"stationcode": "14128", "name": "Gergovie - Vercing\u00e9torix", "is_installed": "OUI", "capacity": 29, "numdocksavailable": 20, "numbikesavailable": 9, "mechanical": 2, "ebike": 7, "is_renting": "OUI", "is_returning": "OUI", "duedate": "2024-06-16T04:53:36+00:00", "coordonnees_geo": {"lon": 2.313154547426182, "lat": 48.83453413883994}, "nom_arrondissement_communes": "Paris", "code_insee_commune": null}, {"stationcode": "31101", "name": "Jules Guesde - Laennec", "is_installed": "OUI", "capacity": 19, "numdocksavailable": 3, "numbikesavailable": 16, "mechanical": 1, "ebike": 15, "is_renting": "OUI", "is_returning": "OUI", "duedate": "2024-06-16T04:51:51+00:00", "coordonnees_geo": {"lon": 2.5006942078471184, "lat": 48.87628983900398}, "nom_arrondissement_communes": "Rosny-sous-Bois", "code_insee_commune": null}, {"stationcode": "31026", "name": "Demi-Lune - Aristide Briand", "is_installed": "OUI", "capacity": 20, "numdocksavailable": 10, "numbikesavailable": 10, "mechanical": 1, "ebike": 9, "is_renting": "OUI", "is_returning": "OUI", "duedate": "2024-06-16T04:53:33+00:00", "coordonnees_geo": {"lon": 2.4562818557024, "lat": 48.87626381919953}, "nom_arrondissement_communes": "Montreuil", "code_insee_commune": null}, {"stationcode": "9016", "name": "Choron - Martyrs", "is_installed": "OUI", "capacity": 17, "numdocksavailable": 9, "numbikesavailable": 8, "mechanical": 5, "ebike": 3, "is_renting": "OUI", "is_returning": "OUI", "duedate": "2024-06-16T04:52:27+00:00", "coordonnees_geo": {"lon": 2.3396701365709305, "lat": 48.877851443502536}, "nom_arrondissement_communes": "Paris", "code_insee_commune": null}, {"stationcode": "12150", "name": "Bastille - Quai de la Rap\u00e9e", "is_installed": "OUI", "capacity": 27, "numdocksavailable": 15, "numbikesavailable": 11, "mechanical": 10, "ebike": 1, "is_renting": "OUI", "is_returning": "OUI", "duedate": "2024-06-16T04:51:20+00:00", "coordonnees_geo": {"lon": 2.3669364675879, "lat": 48.84682410855}, "nom_arrondissement_communes": "Paris", "code_insee_commune": null}, {"stationcode": "8011", "name": "Clapeyron - Moscou", "is_installed": "OUI", "capacity": 15, "numdocksavailable": 13, "numbikesavailable": 2, "mechanical": 0, "ebike": 2, "is_renting": "OUI", "is_returning": "OUI", "duedate": "2024-06-16T04:45:30+00:00", "coordonnees_geo": {"lon": 2.324815057218075, "lat": 48.88078819514121}, "nom_arrondissement_communes": "Paris", "code_insee_commune": null}, {"stationcode": "13020", "name": "Paul Klee - Place Augusta Holmes", "is_installed": "OUI", "capacity": 43, "numdocksavailable": 9, "numbikesavailable": 34, "mechanical": 33, "ebike": 1, "is_renting": "OUI", "is_returning": "OUI", "duedate": "2024-06-16T04:53:54+00:00", "coordonnees_geo": {"lon": 2.3704235663952966, "lat": 48.838946417408025}, "nom_arrondissement_communes": "Paris", "code_insee_commune": null}, {"stationcode": "19124", "name": "Alexander Fleming - Belv\u00e9d\u00e8re", "is_installed": "OUI", "capacity": 31, "numdocksavailable": 18, "numbikesavailable": 13, "mechanical": 3, "ebike": 10, "is_renting": "OUI", "is_returning": "OUI", "duedate": "2024-06-16T04:54:32+00:00", "coordonnees_geo": {"lon": 2.4030599377642674, "lat": 48.88179064200294}, "nom_arrondissement_communes": "Paris", "code_insee_commune": null}, {"stationcode": "7010", "name": "Constantine - Universit\u00e9", "is_installed": "OUI", "capacity": 65, "numdocksavailable": 60, "numbikesavailable": 5, "mechanical": 3, "ebike": 2, "is_renting": "OUI", "is_returning": "OUI", "duedate": "2024-06-16T04:47:55+00:00", "coordonnees_geo": {"lon": 2.3148481955842, "lat": 48.860680473738}, "nom_arrondissement_communes": "Paris", "code_insee_commune": null}, {"stationcode": "10152", "name": "Gare du Nord - Place de Valenciennes", "is_installed": "OUI", "capacity": 25, "numdocksavailable": 10, "numbikesavailable": 12, "mechanical": 5, "ebike": 7, "is_renting": "OUI", "is_returning": "OUI", "duedate": "2024-06-16T04:52:55+00:00", "coordonnees_geo": {"lon": 2.354235, "lat": 48.879089}, "nom_arrondissement_communes": "Paris", "code_insee_commune": null}, {"stationcode": "11031", "name": "Jacquard - Ternaux", "is_installed": "OUI", "capacity": 0, "numdocksavailable": 0, "numbikesavailable": 0, "mechanical": 0, "ebike": 0, "is_renting": "NON", "is_returning": "NON", "duedate": "2024-03-27T06:55:09+00:00", "coordonnees_geo": {"lon": 2.373162, "lat": 48.8646605}, "nom_arrondissement_communes": "Paris", "code_insee_commune": null}, {"stationcode": "13515", "name": "Auguste Blanqui - Glaci\u00e8re", "is_installed": "OUI", "capacity": 60, "numdocksavailable": 42, "numbikesavailable": 14, "mechanical": 4, "ebike": 10, "is_renting": "OUI", "is_returning": "OUI", "duedate": "2024-06-16T04:53:49+00:00", "coordonnees_geo": {"lon": 2.343822196126, "lat": 48.831151602964}, "nom_arrondissement_communes": "Paris", "code_insee_commune": null}, {"stationcode": "16007", "name": "Longchamp - Place d'I\u00e9na", "is_installed": "OUI", "capacity": 40, "numdocksavailable": 31, "numbikesavailable": 9, "mechanical": 3, "ebike": 6, "is_renting": "OUI", "is_returning": "OUI", "duedate": "2024-06-16T04:53:34+00:00", "coordonnees_geo": {"lon": 2.2926748171448708, "lat": 48.86491723343388}, "nom_arrondissement_communes": "Paris", "code_insee_commune": null}, {"stationcode": "10037", "name": "Quai de Valmy", "is_installed": "OUI", "capacity": 26, "numdocksavailable": 24, "numbikesavailable": 2, "mechanical": 1, "ebike": 1, "is_renting": "OUI", "is_returning": "OUI", "duedate": "2024-06-16T04:54:11+00:00", "coordonnees_geo": {"lon": 2.368186041712761, "lat": 48.88126951579429}, "nom_arrondissement_communes": "Paris", "code_insee_commune": null}, {"stationcode": "20002", "name": "Square de la rue Pix\u00e9r\u00e9court", "is_installed": "OUI", "capacity": 15, "numdocksavailable": 0, "numbikesavailable": 15, "mechanical": 0, "ebike": 15, "is_renting": "OUI", "is_returning": "OUI", "duedate": "2024-06-16T04:51:32+00:00", "coordonnees_geo": {"lon": 2.3960278, "lat": 48.8736824}, "nom_arrondissement_communes": "Paris", "code_insee_commune": null}, {"stationcode": "15125", "name": "Parc Suzanne Lenglen", "is_installed": "OUI", "capacity": 52, "numdocksavailable": 35, "numbikesavailable": 16, "mechanical": 15, "ebike": 1, "is_renting": "OUI", "is_returning": "OUI", "duedate": "2024-06-16T04:47:07+00:00", "coordonnees_geo": {"lon": 2.2765403240919113, "lat": 48.833250690537874}, "nom_arrondissement_communes": "Paris", "code_insee_commune": null}, {"stationcode": "13117", "name": "Stade Georges Carpentier", "is_installed": "OUI", "capacity": 40, "numdocksavailable": 36, "numbikesavailable": 4, "mechanical": 2, "ebike": 2, "is_renting": "OUI", "is_returning": "OUI", "duedate": "2024-06-16T04:53:57+00:00", "coordonnees_geo": {"lon": 2.3668321967125, "lat": 48.820482438381}, "nom_arrondissement_communes": "Paris", "code_insee_commune": null}, {"stationcode": "17029", "name": "Pierre Demours - Laugier", "is_installed": "OUI", "capacity": 37, "numdocksavailable": 26, "numbikesavailable": 10, "mechanical": 5, "ebike": 5, "is_renting": "OUI", "is_returning": "OUI", "duedate": "2024-06-16T04:50:53+00:00", "coordonnees_geo": {"lon": 2.294846, "lat": 48.8813072}, "nom_arrondissement_communes": "Paris", "code_insee_commune": null}, {"stationcode": "10004", "name": "Metz - Faubourg Saint-Denis", "is_installed": "OUI", "capacity": 48, "numdocksavailable": 15, "numbikesavailable": 29, "mechanical": 27, "ebike": 2, "is_renting": "OUI", "is_returning": "OUI", "duedate": "2024-06-16T04:53:39+00:00", "coordonnees_geo": {"lon": 2.353521, "lat": 48.870893}, "nom_arrondissement_communes": "Paris", "code_insee_commune": null}, {"stationcode": "21118", "name": "Neuilly - Petit", "is_installed": "OUI", "capacity": 16, "numdocksavailable": 0, "numbikesavailable": 16, "mechanical": 6, "ebike": 10, "is_renting": "OUI", "is_returning": "OUI", "duedate": "2024-06-16T04:54:32+00:00", "coordonnees_geo": {"lon": 2.29627937078476, "lat": 48.898965361341254}, "nom_arrondissement_communes": "Clichy", "code_insee_commune": null}, {"stationcode": "20039", "name": "Belleville - Couronnes", "is_installed": "OUI", "capacity": 50, "numdocksavailable": 30, "numbikesavailable": 19, "mechanical": 9, "ebike": 10, "is_renting": "OUI", "is_returning": "OUI", "duedate": "2024-06-16T04:52:18+00:00", "coordonnees_geo": {"lon": 2.3809862136841, "lat": 48.868831082877}, "nom_arrondissement_communes": "Paris", "code_insee_commune": null}, {"stationcode": "8008", "name": "Joseph Sansboeuf - Saint Lazare", "is_installed": "OUI", "capacity": 18, "numdocksavailable": 13, "numbikesavailable": 4, "mechanical": 4, "ebike": 0, "is_renting": "OUI", "is_returning": "OUI", "duedate": "2024-06-16T04:54:00+00:00", "coordonnees_geo": {"lon": 2.3229019716382027, "lat": 48.87531563065266}, "nom_arrondissement_communes": "Paris", "code_insee_commune": null}, {"stationcode": "21203", "name": "Place Jules Ferry", "is_installed": "OUI", "capacity": 28, "numdocksavailable": 20, "numbikesavailable": 7, "mechanical": 2, "ebike": 5, "is_renting": "OUI", "is_returning": "OUI", "duedate": "2024-06-16T04:50:49+00:00", "coordonnees_geo": {"lon": 2.325837314128876, "lat": 48.812107928414775}, "nom_arrondissement_communes": "Montrouge", "code_insee_commune": null}, {"stationcode": "5034", "name": "Censier - Santeuil", "is_installed": "OUI", "capacity": 69, "numdocksavailable": 1, "numbikesavailable": 65, "mechanical": 61, "ebike": 4, "is_renting": "OUI", "is_returning": "OUI", "duedate": "2024-06-16T04:54:33+00:00", "coordonnees_geo": {"lon": 2.3537524044513702, "lat": 48.840658921385234}, "nom_arrondissement_communes": "Paris", "code_insee_commune": null}, {"stationcode": "10017", "name": "Gare de l'Est - Fid\u00e9lit\u00e9", "is_installed": "OUI", "capacity": 15, "numdocksavailable": 6, "numbikesavailable": 8, "mechanical": 5, "ebike": 3, "is_renting": "OUI", "is_returning": "OUI", "duedate": "2024-06-16T04:53:05+00:00", "coordonnees_geo": {"lon": 2.356796, "lat": 48.874575}, "nom_arrondissement_communes": "Paris", "code_insee_commune": null}, {"stationcode": "21115", "name": "Chanc\u00e9 Milly - Cimeti\u00e8re Communal Sud", "is_installed": "OUI", "capacity": 32, "numdocksavailable": 14, "numbikesavailable": 18, "mechanical": 10, "ebike": 8, "is_renting": "OUI", "is_returning": "OUI", "duedate": "2024-06-16T04:52:57+00:00", "coordonnees_geo": {"lon": 2.303922325372696, "lat": 48.89687189382465}, "nom_arrondissement_communes": "Clichy", "code_insee_commune": null}, {"stationcode": "21029", "name": "Cours de l'Ile Seguin - Parc Billancourt", "is_installed": "OUI", "capacity": 29, "numdocksavailable": 25, "numbikesavailable": 3, "mechanical": 1, "ebike": 2, "is_renting": "OUI", "is_returning": "OUI", "duedate": "2024-06-16T04:53:32+00:00", "coordonnees_geo": {"lon": 2.234234511852265, "lat": 48.82714055843935}, "nom_arrondissement_communes": "Boulogne-Billancourt", "code_insee_commune": null}, {"stationcode": "10153", "name": "Gare du Nord - Denain", "is_installed": "OUI", "capacity": 20, "numdocksavailable": 14, "numbikesavailable": 5, "mechanical": 3, "ebike": 2, "is_renting": "OUI", "is_returning": "OUI", "duedate": "2024-06-16T04:52:45+00:00", "coordonnees_geo": {"lon": 2.3544725775719, "lat": 48.879595787608}, "nom_arrondissement_communes": "Paris", "code_insee_commune": null}, {"stationcode": "15072", "name": "Place Fernand Forest", "is_installed": "OUI", "capacity": 33, "numdocksavailable": 12, "numbikesavailable": 19, "mechanical": 18, "ebike": 1, "is_renting": "OUI", "is_returning": "OUI", "duedate": "2024-06-16T04:51:47+00:00", "coordonnees_geo": {"lon": 2.2818631678819656, "lat": 48.849269143835926}, "nom_arrondissement_communes": "Paris", "code_insee_commune": null}, {"stationcode": "21708", "name": "Marcel Yol - Jullien", "is_installed": "OUI", "capacity": 30, "numdocksavailable": 24, "numbikesavailable": 6, "mechanical": 0, "ebike": 6, "is_renting": "OUI", "is_returning": "OUI", "duedate": "2024-06-16T04:53:03+00:00", "coordonnees_geo": {"lon": 2.287235018058929, "lat": 48.82537611802588}, "nom_arrondissement_communes": "Vanves", "code_insee_commune": null}, {"stationcode": "41210", "name": "H\u00f4tel de ville de Fontenay-sous-Bois", "is_installed": "OUI", "capacity": 20, "numdocksavailable": 16, "numbikesavailable": 4, "mechanical": 4, "ebike": 0, "is_renting": "OUI", "is_returning": "OUI", "duedate": "2024-06-16T04:47:30+00:00", "coordonnees_geo": {"lon": 2.4750164151191716, "lat": 48.84949749106274}, "nom_arrondissement_communes": "Fontenay-sous-Bois", "code_insee_commune": null}, {"stationcode": "42304", "name": "Marc Sangnier - Division Leclerc", "is_installed": "OUI", "capacity": 24, "numdocksavailable": 5, "numbikesavailable": 18, "mechanical": 13, "ebike": 5, "is_renting": "OUI", "is_returning": "OUI", "duedate": "2024-06-16T04:51:56+00:00", "coordonnees_geo": {"lon": 2.329955510795116, "lat": 48.78599652305309}, "nom_arrondissement_communes": "Cachan", "code_insee_commune": null}, {"stationcode": "11109", "name": "Pierre Lev\u00e9e - Fontaine Timbaud", "is_installed": "OUI", "capacity": 23, "numdocksavailable": 1, "numbikesavailable": 20, "mechanical": 18, "ebike": 2, "is_renting": "OUI", "is_returning": "OUI", "duedate": "2024-06-16T04:50:08+00:00", "coordonnees_geo": {"lon": 2.3711163550615306, "lat": 48.86632723374305}, "nom_arrondissement_communes": "Paris", "code_insee_commune": null}, {"stationcode": "21307", "name": "Victor Cresson - Telles de la Poterie", "is_installed": "OUI", "capacity": 31, "numdocksavailable": 1, "numbikesavailable": 29, "mechanical": 26, "ebike": 3, "is_renting": "OUI", "is_returning": "OUI", "duedate": "2024-06-16T04:53:53+00:00", "coordonnees_geo": {"lon": 2.2686498274964, "lat": 48.822698842979}, "nom_arrondissement_communes": "Issy-les-Moulineaux", "code_insee_commune": null}, {"stationcode": "16115", "name": "Raffet - Montmorency", "is_installed": "OUI", "capacity": 42, "numdocksavailable": 23, "numbikesavailable": 18, "mechanical": 4, "ebike": 14, "is_renting": "OUI", "is_returning": "OUI", "duedate": "2024-06-16T04:53:35+00:00", "coordonnees_geo": {"lon": 2.2629252456151954, "lat": 48.85258670812}, "nom_arrondissement_communes": "Paris", "code_insee_commune": null}, {"stationcode": "15123", "name": "Commerce - Letellier", "is_installed": "OUI", "capacity": 44, "numdocksavailable": 9, "numbikesavailable": 34, "mechanical": 33, "ebike": 1, "is_renting": "OUI", "is_returning": "OUI", "duedate": "2024-06-16T04:53:54+00:00", "coordonnees_geo": {"lon": 2.2966245196598805, "lat": 48.84797660373612}, "nom_arrondissement_communes": "Paris", "code_insee_commune": null}, {"stationcode": "21030", "name": "Fessart - Ch\u00e2teau", "is_installed": "OUI", "capacity": 20, "numdocksavailable": 10, "numbikesavailable": 10, "mechanical": 8, "ebike": 2, "is_renting": "OUI", "is_returning": "OUI", "duedate": "2024-06-16T04:50:38+00:00", "coordonnees_geo": {"lon": 2.23989, "lat": 48.84245}, "nom_arrondissement_communes": "Boulogne-Billancourt", "code_insee_commune": null}, {"stationcode": "21031", "name": "Cimeti\u00e8re de Boulogne-Billancourt", "is_installed": "OUI", "capacity": 40, "numdocksavailable": 8, "numbikesavailable": 30, "mechanical": 19, "ebike": 11, "is_renting": "OUI", "is_returning": "OUI", "duedate": "2024-06-16T04:52:37+00:00", "coordonnees_geo": {"lon": 2.252024, "lat": 48.830764}, "nom_arrondissement_communes": "Boulogne-Billancourt", "code_insee_commune": null}, {"stationcode": "16024", "name": "Ranelagh - Maison de la Radio", "is_installed": "OUI", "capacity": 22, "numdocksavailable": 2, "numbikesavailable": 20, "mechanical": 17, "ebike": 3, "is_renting": "OUI", "is_returning": "OUI", "duedate": "2024-06-16T04:53:33+00:00", "coordonnees_geo": {"lon": 2.280449643731117, "lat": 48.85293603169479}, "nom_arrondissement_communes": "Paris", "code_insee_commune": null}, {"stationcode": "20009", "name": "Docteurs D\u00e9j\u00e9rine - Pte de Montreuil", "is_installed": "OUI", "capacity": 20, "numdocksavailable": 16, "numbikesavailable": 4, "mechanical": 0, "ebike": 4, "is_renting": "OUI", "is_returning": "OUI", "duedate": "2024-06-16T04:47:59+00:00", "coordonnees_geo": {"lon": 2.41208288897222, "lat": 48.85398448133697}, "nom_arrondissement_communes": "Paris", "code_insee_commune": null}, {"stationcode": "10012", "name": "Vinaigriers - Magenta", "is_installed": "OUI", "capacity": 25, "numdocksavailable": 3, "numbikesavailable": 21, "mechanical": 21, "ebike": 0, "is_renting": "OUI", "is_returning": "OUI", "duedate": "2024-06-16T04:53:52+00:00", "coordonnees_geo": {"lon": 2.3593052, "lat": 48.8731167}, "nom_arrondissement_communes": "Paris", "code_insee_commune": null}, {"stationcode": "11032", "name": "Jean-Pierre Timbaud - Vaucouleurs", "is_installed": "OUI", "capacity": 47, "numdocksavailable": 6, "numbikesavailable": 39, "mechanical": 33, "ebike": 6, "is_renting": "OUI", "is_returning": "OUI", "duedate": "2024-06-16T04:51:25+00:00", "coordonnees_geo": {"lon": 2.377885, "lat": 48.867937}, "nom_arrondissement_communes": "Paris", "code_insee_commune": null}, {"stationcode": "13121", "name": "Bruneseau - Quai d'Ivry", "is_installed": "OUI", "capacity": 46, "numdocksavailable": 9, "numbikesavailable": 33, "mechanical": 27, "ebike": 6, "is_renting": "OUI", "is_returning": "OUI", "duedate": "2024-06-16T04:54:06+00:00", "coordonnees_geo": {"lon": 2.388566136360169, "lat": 48.82494563758295}, "nom_arrondissement_communes": "Ivry-sur-Seine", "code_insee_commune": null}, {"stationcode": "21028", "name": "Pierre Lefaucheux - Traversi\u00e8re", "is_installed": "OUI", "capacity": 35, "numdocksavailable": 5, "numbikesavailable": 29, "mechanical": 28, "ebike": 1, "is_renting": "OUI", "is_returning": "OUI", "duedate": "2024-06-16T04:52:50+00:00", "coordonnees_geo": {"lon": 2.2417913004755974, "lat": 48.82435208303827}, "nom_arrondissement_communes": "Boulogne-Billancourt", "code_insee_commune": null}, {"stationcode": "32301", "name": "Mairie de Romainville", "is_installed": "OUI", "capacity": 17, "numdocksavailable": 12, "numbikesavailable": 5, "mechanical": 0, "ebike": 5, "is_renting": "OUI", "is_returning": "OUI", "duedate": "2024-06-16T04:54:17+00:00", "coordonnees_geo": {"lon": 2.435679, "lat": 48.885109}, "nom_arrondissement_communes": "Romainville", "code_insee_commune": null}, {"stationcode": "8013", "name": "Marignan - Champs-Elys\u00e9es", "is_installed": "OUI", "capacity": 35, "numdocksavailable": 32, "numbikesavailable": 1, "mechanical": 1, "ebike": 0, "is_renting": "OUI", "is_returning": "OUI", "duedate": "2024-06-16T04:50:15+00:00", "coordonnees_geo": {"lon": 2.3066138139003, "lat": 48.869495661232}, "nom_arrondissement_communes": "Paris", "code_insee_commune": null}, {"stationcode": "20108", "name": "Jardin de l'Hospice Debrousse", "is_installed": "OUI", "capacity": 23, "numdocksavailable": 18, "numbikesavailable": 5, "mechanical": 3, "ebike": 2, "is_renting": "OUI", "is_returning": "OUI", "duedate": "2024-06-16T04:52:27+00:00", "coordonnees_geo": {"lon": 2.40568600595, "lat": 48.861451061938}, "nom_arrondissement_communes": "Paris", "code_insee_commune": null}, {"stationcode": "13011", "name": "H\u00f4pital - Campo-Formio", "is_installed": "OUI", "capacity": 7, "numdocksavailable": 3, "numbikesavailable": 3, "mechanical": 2, "ebike": 1, "is_renting": "OUI", "is_returning": "OUI", "duedate": "2024-06-16T04:49:18+00:00", "coordonnees_geo": {"lon": 2.358218, "lat": 48.835405}, "nom_arrondissement_communes": "Paris", "code_insee_commune": null}, {"stationcode": "32001", "name": "Proudhon - Pr\u00e9sident Wilson", "is_installed": "OUI", "capacity": 30, "numdocksavailable": 12, "numbikesavailable": 18, "mechanical": 7, "ebike": 11, "is_renting": "OUI", "is_returning": "OUI", "duedate": "2024-06-16T04:49:47+00:00", "coordonnees_geo": {"lon": 2.3584905266762, "lat": 48.906442763495}, "nom_arrondissement_communes": "Saint-Denis", "code_insee_commune": null}, {"stationcode": "42701", "name": "Charles Gide - Fort de Bic\u00eatre", "is_installed": "OUI", "capacity": 30, "numdocksavailable": 19, "numbikesavailable": 11, "mechanical": 0, "ebike": 11, "is_renting": "OUI", "is_returning": "OUI", "duedate": "2024-06-16T04:53:15+00:00", "coordonnees_geo": {"lon": 2.353984415531159, "lat": 48.8071937956922}, "nom_arrondissement_communes": "Le Kremlin-Bic\u00eatre", "code_insee_commune": null}, {"stationcode": "20122", "name": "Vitruve - Davout", "is_installed": "OUI", "capacity": 23, "numdocksavailable": 15, "numbikesavailable": 8, "mechanical": 3, "ebike": 5, "is_renting": "OUI", "is_returning": "OUI", "duedate": "2024-06-16T04:54:27+00:00", "coordonnees_geo": {"lon": 2.4091592812626543, "lat": 48.86053161154489}, "nom_arrondissement_communes": "Paris", "code_insee_commune": null}]