[{"stationcode": "44003", "name": "Gabriel P\u00e9ri - Danielle Casanova", "is_installed": "OUI", "capacity": 20, "numdocksavailable": 2, "numbikesavailable": 18, "mechanical": 14, "ebike": 4, "is_renting": "OUI", "is_returning": "OUI", "duedate": "2024-06-14T13:49:54+00:00", "coordonnees_geo": {"lon": 2.4025777, "lat": 48.790114}, "nom_arrondissement_communes": "Vitry-sur-Seine", "code_insee_commune": null}, {"stationcode": "48010", "name": "Karl Marx", "is_installed": "OUI", "capacity": 16, "numdocksavailable": 13, "numbikesavailable": 3, "mechanical": 0, "ebike": 3, "is_renting": "OUI", "is_returning": "OUI", "duedate": "2024-06-14T13:47:54+00:00", "coordonnees_geo": {"lon": 2.3646667979455587, "lat": 48.784527937293184}, "nom_arrondissement_communes": "Villejuif", "code_insee_commune": null}, {"stationcode": "42021", "name": "Raspail - Manufacture des Oeillets", "is_installed": "OUI", "capacity": 32, "numdocksavailable": 13, "numbikesavailable": 19, "mechanical": 18, "ebike": 1, "is_renting": "OUI", "is_returning": "OUI", "duedate": "2024-06-14T13:45:40+00:00", "coordonnees_geo": {"lon": 2.3903009, "lat": 48.8094458}, "nom_arrondissement_communes": "Ivry-sur-Seine", "code_insee_commune": null}, {"stationcode": "22402", "name": "Jean Jaur\u00e8s - Salvador Allende", "is_installed": "OUI", "capacity": 43, "numdocksavailable": 39, "numbikesavailable": 4, "mechanical": 0, "ebike": 4, "is_renting": "OUI", "is_returning": "OUI", "duedate": "2024-06-14T13:46:02+00:00", "coordonnees_geo": {"lon": 2.3026576638221745, "lat": 48.821475594736775}, "nom_arrondissement_communes": "Malakoff", "code_insee_commune": null}, {"stationcode": "9116", "name": "Victoire - Chauss\u00e9e d'Antin", "is_installed": "OUI", "capacity": 24, "numdocksavailable": 9, "numbikesavailable": 15, "mechanical": 9, "ebike": 6, "is_renting": "OUI", "is_returning": "OUI", "duedate": "2024-06-14T13:49:20+00:00", "coordonnees_geo": {"lon": 2.3316738009452824, "lat": 48.875065791004396}, "nom_arrondissement_communes": "Paris", "code_insee_commune": null}, {"stationcode": "21008", "name": "Victor Hugo - Galli\u00e9ni", "is_installed": "OUI", "capacity": 34, "numdocksavailable": 20, "numbikesavailable": 14, "mechanical": 12, "ebike": 2, "is_renting": "OUI", "is_returning": "OUI", "duedate": "2024-06-14T13:49:41+00:00", "coordonnees_geo": {"lon": 2.2460845112800603, "lat": 48.83802015441127}, "nom_arrondissement_communes": "Boulogne-Billancourt", "code_insee_commune": null}, {"stationcode": "11039", "name": "Richard Lenoir - Jean-Pierre Timbaud", "is_installed": "OUI", "capacity": 36, "numdocksavailable": 8, "numbikesavailable": 26, "mechanical": 26, "ebike": 0, "is_renting": "OUI", "is_returning": "OUI", "duedate": "2024-06-14T13:49:47+00:00", "coordonnees_geo": {"lon": 2.3693370749669, "lat": 48.865804276686}, "nom_arrondissement_communes": "Paris", "code_insee_commune": null}, {"stationcode": "13050", "name": "Quai Panhard et Levassor", "is_installed": "OUI", "capacity": 57, "numdocksavailable": 5, "numbikesavailable": 51, "mechanical": 33, "ebike": 18, "is_renting": "OUI", "is_returning": "OUI", "duedate": "2024-06-14T13:50:01+00:00", "coordonnees_geo": {"lon": 2.384273745805574, "lat": 48.82837482809675}, "nom_arrondissement_communes": "Paris", "code_insee_commune": null}, {"stationcode": "11026", "name": "Chemin Vert - Saint-Maur", "is_installed": "OUI", "capacity": 45, "numdocksavailable": 37, "numbikesavailable": 7, "mechanical": 3, "ebike": 4, "is_renting": "OUI", "is_returning": "OUI", "duedate": "2024-06-14T13:49:05+00:00", "coordonnees_geo": {"lon": 2.381299026310444, "lat": 48.86112461407359}, "nom_arrondissement_communes": "Paris", "code_insee_commune": null}, {"stationcode": "32604", "name": "Square du Th\u00e9\u00e2tre du Garde-Chasse", "is_installed": "OUI", "capacity": 50, "numdocksavailable": 48, "numbikesavailable": 2, "mechanical": 0, "ebike": 2, "is_renting": "OUI", "is_returning": "OUI", "duedate": "2024-06-14T13:46:44+00:00", "coordonnees_geo": {"lon": 2.420119643211365, "lat": 48.881287375060616}, "nom_arrondissement_communes": "Les Lilas", "code_insee_commune": null}, {"stationcode": "19024", "name": "Botzaris - Parc des Buttes Chaumont", "is_installed": "OUI", "capacity": 20, "numdocksavailable": 19, "numbikesavailable": 1, "mechanical": 0, "ebike": 1, "is_renting": "OUI", "is_returning": "OUI", "duedate": "2024-06-14T13:47:42+00:00", "coordonnees_geo": {"lon": 2.381464, "lat": 48.877951}, "nom_arrondissement_communes": "Paris", "code_insee_commune": null}, {"stationcode": "23006", "name": "Jules Guesde - Alsace", "is_installed": "OUI", "capacity": 25, "numdocksavailable": 16, "numbikesavailable": 9, "mechanical": 5, "ebike": 4, "is_renting": "OUI", "is_returning": "OUI", "duedate": "2024-06-14T13:47:21+00:00", "coordonnees_geo": {"lon": 2.2950777411461, "lat": 48.890566275506}, "nom_arrondissement_communes": "Levallois-Perret", "code_insee_commune": null}, {"stationcode": "9010", "name": "Rochechouart lamartine", "is_installed": "OUI", "capacity": 24, "numdocksavailable": 23, "numbikesavailable": 1, "mechanical": 1, "ebike": 0, "is_renting": "OUI", "is_returning": "OUI", "duedate": "2024-06-14T13:49:51+00:00", "coordonnees_geo": {"lon": 2.344393021854, "lat": 48.876719895109}, "nom_arrondissement_communes": "Paris", "code_insee_commune": null}, {"stationcode": "18009", "name": "Jean-Fran\u00e7ois L\u00e9pine - Stephenson", "is_installed": "OUI", "capacity": 22, "numdocksavailable": 16, "numbikesavailable": 3, "mechanical": 2, "ebike": 1, "is_renting": "OUI", "is_returning": "OUI", "duedate": "2024-06-14T13:49:17+00:00", "coordonnees_geo": {"lon": 2.356855627529275, "lat": 48.88611466796807}, "nom_arrondissement_communes": "Paris", "code_insee_commune": null}, {"stationcode": "16038", "name": "Molitor - Chardon-Lagache", "is_installed": "OUI", "capacity": 34, "numdocksavailable": 23, "numbikesavailable": 11, "mechanical": 8, "ebike": 3, "is_renting": "OUI", "is_returning": "OUI", "duedate": "2024-06-14T13:50:01+00:00", "coordonnees_geo": {"lon": 2.2656840831041336, "lat": 48.84520880183234}, "nom_arrondissement_communes": "Paris", "code_insee_commune": null}, {"stationcode": "16108", "name": "Sablons - Georges Mandel", "is_installed": "OUI", "capacity": 38, "numdocksavailable": 37, "numbikesavailable": 1, "mechanical": 0, "ebike": 1, "is_renting": "OUI", "is_returning": "OUI", "duedate": "2024-06-14T13:41:24+00:00", "coordonnees_geo": {"lon": 2.28189, "lat": 48.863875}, "nom_arrondissement_communes": "Paris", "code_insee_commune": null}, {"stationcode": "43005", "name": "Gare RER de Vincennes", "is_installed": "OUI", "capacity": 51, "numdocksavailable": 33, "numbikesavailable": 16, "mechanical": 10, "ebike": 6, "is_renting": "OUI", "is_returning": "OUI", "duedate": "2024-06-14T13:49:47+00:00", "coordonnees_geo": {"lon": 2.433383166790009, "lat": 48.847563015126106}, "nom_arrondissement_communes": "Vincennes", "code_insee_commune": null}, {"stationcode": "19032", "name": "Villette - Belleville", "is_installed": "OUI", "capacity": 48, "numdocksavailable": 42, "numbikesavailable": 5, "mechanical": 3, "ebike": 2, "is_renting": "OUI", "is_returning": "OUI", "duedate": "2024-06-14T13:49:43+00:00", "coordonnees_geo": {"lon": 2.376461327076, "lat": 48.8726877314}, "nom_arrondissement_communes": "Paris", "code_insee_commune": null}, {"stationcode": "21701", "name": "Larmeroux - Baudelaire", "is_installed": "OUI", "capacity": 29, "numdocksavailable": 23, "numbikesavailable": 5, "mechanical": 2, "ebike": 3, "is_renting": "OUI", "is_returning": "OUI", "duedate": "2024-06-14T13:46:29+00:00", "coordonnees_geo": {"lon": 2.2809894804846, "lat": 48.816939911292}, "nom_arrondissement_communes": "Vanves", "code_insee_commune": null}, {"stationcode": "15103", "name": "Cauchy - C\u00e9vennes", "is_installed": "OUI", "capacity": 51, "numdocksavailable": 47, "numbikesavailable": 4, "mechanical": 2, "ebike": 2, "is_renting": "OUI", "is_returning": "OUI", "duedate": "2024-06-14T13:49:42+00:00", "coordonnees_geo": {"lon": 2.275132834911347, "lat": 48.8433725710224}, "nom_arrondissement_communes": "Paris", "code_insee_commune": null}, {"stationcode": "32302", "name": "Chemin Vert - Fraternit\u00e9", "is_installed": "OUI", "capacity": 20, "numdocksavailable": 19, "numbikesavailable": 0, "mechanical": 0, "ebike": 0, "is_renting": "OUI", "is_returning": "OUI", "duedate": "2024-06-14T13:46:56+00:00", "coordonnees_geo": {"lon": 2.4461565166711807, "lat": 48.877141208359035}, "nom_arrondissement_communes": "Romainville", "code_insee_commune": null}, {"stationcode": "11035", "name": "Parmentier - Abel Rabaud", "is_installed": "OUI", "capacity": 52, "numdocksavailable": 47, "numbikesavailable": 4, "mechanical": 0, "ebike": 4, "is_renting": "OUI", "is_returning": "OUI", "duedate": "2024-06-14T13:49:56+00:00", "coordonnees_geo": {"lon": 2.371688821240712, "lat": 48.86921273836114}, "nom_arrondissement_communes": "Paris", "code_insee_commune": null}, {"stationcode": "15046", "name": "Parc Georges Brassens - Brancion", "is_installed": "OUI", "capacity": 29, "numdocksavailable": 28, "numbikesavailable": 1, "mechanical": 1, "ebike": 0, "is_renting": "OUI", "is_returning": "OUI", "duedate": "2024-06-14T13:46:22+00:00", "coordonnees_geo": {"lon": 2.3022570088505745, "lat": 48.83227829269761}, "nom_arrondissement_communes": "Paris", "code_insee_commune": null}, {"stationcode": "21301", "name": "Saint-Vincent - Verdun", "is_installed": "OUI", "capacity": 34, "numdocksavailable": 18, "numbikesavailable": 16, "mechanical": 14, "ebike": 2, "is_renting": "OUI", "is_returning": "OUI", "duedate": "2024-06-14T13:49:15+00:00", "coordonnees_geo": {"lon": 2.254007756710053, "lat": 48.819211549234495}, "nom_arrondissement_communes": "Issy-les-Moulineaux", "code_insee_commune": null}, {"stationcode": "19029", "name": "Seine - Flandre", "is_installed": "OUI", "capacity": 19, "numdocksavailable": 19, "numbikesavailable": 0, "mechanical": 0, "ebike": 0, "is_renting": "OUI", "is_returning": "OUI", "duedate": "2024-06-14T13:47:23+00:00", "coordonnees_geo": {"lon": 2.3746193200349808, "lat": 48.886785741479684}, "nom_arrondissement_communes": "Paris", "code_insee_commune": null}, {"stationcode": "9032", "name": "Mathurins - Auber", "is_installed": "OUI", "capacity": 36, "numdocksavailable": 4, "numbikesavailable": 31, "mechanical": 21, "ebike": 10, "is_renting": "OUI", "is_returning": "OUI", "duedate": "2024-06-14T13:49:45+00:00", "coordonnees_geo": {"lon": 2.3294984212276, "lat": 48.872988840744}, "nom_arrondissement_communes": "Paris", "code_insee_commune": null}, {"stationcode": "19016", "name": "Hautpoul - Jean Jaur\u00e8s", "is_installed": "OUI", "capacity": 32, "numdocksavailable": 26, "numbikesavailable": 5, "mechanical": 4, "ebike": 1, "is_renting": "OUI", "is_returning": "OUI", "duedate": "2024-06-14T13:48:30+00:00", "coordonnees_geo": {"lon": 2.3865414544355, "lat": 48.886393679436}, "nom_arrondissement_communes": "Paris", "code_insee_commune": null}, {"stationcode": "21104", "name": "Madame de Sanzillon - Mozart", "is_installed": "OUI", "capacity": 22, "numdocksavailable": 6, "numbikesavailable": 15, "mechanical": 13, "ebike": 2, "is_renting": "OUI", "is_returning": "OUI", "duedate": "2024-06-14T13:48:45+00:00", "coordonnees_geo": {"lon": 2.3187401890754704, "lat": 48.90379820774301}, "nom_arrondissement_communes": "Clichy", "code_insee_commune": null}, {"stationcode": "32026", "name": "Leroy des Barres - M\u00e9diath\u00e8que", "is_installed": "OUI", "capacity": 26, "numdocksavailable": 19, "numbikesavailable": 6, "mechanical": 0, "ebike": 6, "is_renting": "OUI", "is_returning": "OUI", "duedate": "2024-06-14T13:41:33+00:00", "coordonnees_geo": {"lon": 2.3681719727966, "lat": 48.928253687082}, "nom_arrondissement_communes": "Saint-Denis", "code_insee_commune": null}, {"stationcode": "1013", "name": "Place du Palais Royal", "is_installed": "OUI", "capacity": 67, "numdocksavailable": 7, "numbikesavailable": 60, "mechanical": 38, "ebike": 22, "is_renting": "OUI", "is_returning": "OUI", "duedate": "2024-06-14T13:49:21+00:00", "coordonnees_geo": {"lon": 2.3384822532535, "lat": 48.862382970647}, "nom_arrondissement_communes": "Paris", "code_insee_commune": null}, {"stationcode": "8025", "name": "Miromesnil - La Bo\u00e9tie", "is_installed": "OUI", "capacity": 35, "numdocksavailable": 15, "numbikesavailable": 20, "mechanical": 10, "ebike": 10, "is_renting": "OUI", "is_returning": "OUI", "duedate": "2024-06-14T13:46:59+00:00", "coordonnees_geo": {"lon": 2.3158480972052, "lat": 48.873722412917}, "nom_arrondissement_communes": "Paris", "code_insee_commune": null}, {"stationcode": "7102", "name": "Mairie du 7\u00e8me", "is_installed": "OUI", "capacity": 48, "numdocksavailable": 20, "numbikesavailable": 28, "mechanical": 24, "ebike": 4, "is_renting": "OUI", "is_returning": "OUI", "duedate": "2024-06-14T13:49:22+00:00", "coordonnees_geo": {"lon": 2.3192664, "lat": 48.8577967}, "nom_arrondissement_communes": "Paris", "code_insee_commune": null}, {"stationcode": "19013", "name": "Laumi\u00e8re - Petit", "is_installed": "OUI", "capacity": 34, "numdocksavailable": 29, "numbikesavailable": 5, "mechanical": 1, "ebike": 4, "is_renting": "OUI", "is_returning": "OUI", "duedate": "2024-06-14T13:48:40+00:00", "coordonnees_geo": {"lon": 2.380039058625698, "lat": 48.88467368538326}, "nom_arrondissement_communes": "Paris", "code_insee_commune": null}, {"stationcode": "5123", "name": "Saint-Germain - Thenard", "is_installed": "OUI", "capacity": 31, "numdocksavailable": 14, "numbikesavailable": 17, "mechanical": 15, "ebike": 2, "is_renting": "OUI", "is_returning": "OUI", "duedate": "2024-06-14T13:49:09+00:00", "coordonnees_geo": {"lon": 2.3471015, "lat": 48.850571}, "nom_arrondissement_communes": "Paris", "code_insee_commune": null}, {"stationcode": "20043", "name": "Charonne - Avron", "is_installed": "OUI", "capacity": 27, "numdocksavailable": 25, "numbikesavailable": 2, "mechanical": 1, "ebike": 1, "is_renting": "OUI", "is_returning": "OUI", "duedate": "2024-06-14T13:49:00+00:00", "coordonnees_geo": {"lon": 2.3984030470379, "lat": 48.851602665222}, "nom_arrondissement_communes": "Paris", "code_insee_commune": null}, {"stationcode": "32016", "name": "Place de la Porte de Paris", "is_installed": "OUI", "capacity": 40, "numdocksavailable": 17, "numbikesavailable": 21, "mechanical": 11, "ebike": 10, "is_renting": "OUI", "is_returning": "OUI", "duedate": "2024-06-14T13:48:58+00:00", "coordonnees_geo": {"lon": 2.3564037680625916, "lat": 48.93009363207303}, "nom_arrondissement_communes": "Saint-Denis", "code_insee_commune": null}, {"stationcode": "19008", "name": "Flandre - Alphonse Karr", "is_installed": "OUI", "capacity": 26, "numdocksavailable": 20, "numbikesavailable": 6, "mechanical": 2, "ebike": 4, "is_renting": "OUI", "is_returning": "OUI", "duedate": "2024-06-14T13:46:56+00:00", "coordonnees_geo": {"lon": 2.381868, "lat": 48.89465}, "nom_arrondissement_communes": "Paris", "code_insee_commune": null}, {"stationcode": "92008", "name": "H\u00f4tel de Ville de Nanterre", "is_installed": "OUI", "capacity": 38, "numdocksavailable": 24, "numbikesavailable": 14, "mechanical": 9, "ebike": 5, "is_renting": "OUI", "is_returning": "OUI", "duedate": "2024-06-14T13:49:25+00:00", "coordonnees_geo": {"lon": 2.205548956990242, "lat": 48.892371898250424}, "nom_arrondissement_communes": "Nanterre", "code_insee_commune": null}, {"stationcode": "41402", "name": "Victor Hugo - Ecoles", "is_installed": "OUI", "capacity": 25, "numdocksavailable": 17, "numbikesavailable": 7, "mechanical": 4, "ebike": 3, "is_renting": "OUI", "is_returning": "OUI", "duedate": "2024-06-14T13:46:20+00:00", "coordonnees_geo": {"lon": 2.4180373930262093, "lat": 48.80476007936134}, "nom_arrondissement_communes": "Alfortville", "code_insee_commune": null}, {"stationcode": "18012", "name": "Stephenson - Doudeauville", "is_installed": "OUI", "capacity": 36, "numdocksavailable": 35, "numbikesavailable": 1, "mechanical": 0, "ebike": 1, "is_renting": "OUI", "is_returning": "OUI", "duedate": "2024-06-14T13:43:17+00:00", "coordonnees_geo": {"lon": 2.3561610281467438, "lat": 48.888537048944826}, "nom_arrondissement_communes": "Paris", "code_insee_commune": null}, {"stationcode": "19125", "name": "Place de l'\u00c9dit de Nantes", "is_installed": "OUI", "capacity": 30, "numdocksavailable": 28, "numbikesavailable": 1, "mechanical": 0, "ebike": 1, "is_renting": "OUI", "is_returning": "OUI", "duedate": "2024-06-14T13:49:52+00:00", "coordonnees_geo": {"lon": 2.3785, "lat": 48.88879}, "nom_arrondissement_communes": "Paris", "code_insee_commune": null}, {"stationcode": "14036", "name": "Boulard - Daguerre", "is_installed": "OUI", "capacity": 45, "numdocksavailable": 45, "numbikesavailable": 0, "mechanical": 0, "ebike": 0, "is_renting": "OUI", "is_returning": "OUI", "duedate": "2024-06-14T13:49:35+00:00", "coordonnees_geo": {"lon": 2.3293386027216907, "lat": 48.83446472680611}, "nom_arrondissement_communes": "Paris", "code_insee_commune": null}, {"stationcode": "18201", "name": "Tristan Tzara -  Tcha\u00efkovski", "is_installed": "OUI", "capacity": 33, "numdocksavailable": 23, "numbikesavailable": 10, "mechanical": 6, "ebike": 4, "is_renting": "OUI", "is_returning": "OUI", "duedate": "2024-06-14T13:49:49+00:00", "coordonnees_geo": {"lon": 2.3648490384221077, "lat": 48.89490221746837}, "nom_arrondissement_communes": "Paris", "code_insee_commune": null}, {"stationcode": "19205", "name": "Simon Bolivar - Henri Turot", "is_installed": "NON", "capacity": 1, "numdocksavailable": 1, "numbikesavailable": 0, "mechanical": 0, "ebike": 0, "is_renting": "NON", "is_returning": "NON", "duedate": "2024-05-28T09:53:49+00:00", "coordonnees_geo": {"lon": 2.3739709492211, "lat": 48.877475489801}, "nom_arrondissement_communes": "Paris", "code_insee_commune": null}, {"stationcode": "42029", "name": "Stalingrad - Germaine Tailleferre", "is_installed": "OUI", "capacity": 28, "numdocksavailable": 23, "numbikesavailable": 2, "mechanical": 1, "ebike": 1, "is_renting": "OUI", "is_returning": "OUI", "duedate": "2024-06-14T13:48:53+00:00", "coordonnees_geo": {"lon": 2.3786691203713417, "lat": 48.80257200481316}, "nom_arrondissement_communes": "Ivry-sur-Seine", "code_insee_commune": null}, {"stationcode": "12115", "name": "Porte de Vincennes", "is_installed": "OUI", "capacity": 33, "numdocksavailable": 27, "numbikesavailable": 4, "mechanical": 2, "ebike": 2, "is_renting": "OUI", "is_returning": "OUI", "duedate": "2024-06-14T13:46:36+00:00", "coordonnees_geo": {"lon": 2.415514, "lat": 48.846454}, "nom_arrondissement_communes": "Paris", "code_insee_commune": null}, {"stationcode": "8035", "name": "Bienfaisance - Place de Narvik", "is_installed": "OUI", "capacity": 36, "numdocksavailable": 6, "numbikesavailable": 30, "mechanical": 15, "ebike": 15, "is_renting": "OUI", "is_returning": "OUI", "duedate": "2024-06-14T13:50:05+00:00", "coordonnees_geo": {"lon": 2.3129771277308464, "lat": 48.87660163459077}, "nom_arrondissement_communes": "Paris", "code_insee_commune": null}, {"stationcode": "21313", "name": "Guynemer - S\u00e9verine", "is_installed": "OUI", "capacity": 26, "numdocksavailable": 6, "numbikesavailable": 18, "mechanical": 16, "ebike": 2, "is_renting": "OUI", "is_returning": "OUI", "duedate": "2024-06-14T13:44:26+00:00", "coordonnees_geo": {"lon": 2.2790706530213356, "lat": 48.83091743371036}, "nom_arrondissement_communes": "Issy-les-Moulineaux", "code_insee_commune": null}, {"stationcode": "28001", "name": "Richard Wallace - Place du 8 Mai 1945", "is_installed": "OUI", "capacity": 30, "numdocksavailable": 22, "numbikesavailable": 6, "mechanical": 2, "ebike": 4, "is_renting": "OUI", "is_returning": "OUI", "duedate": "2024-06-14T13:45:06+00:00", "coordonnees_geo": {"lon": 2.2420343756675725, "lat": 48.87866794788021}, "nom_arrondissement_communes": "Puteaux", "code_insee_commune": null}, {"stationcode": "26007", "name": "Square Gilbert Thomain", "is_installed": "OUI", "capacity": 20, "numdocksavailable": 11, "numbikesavailable": 8, "mechanical": 7, "ebike": 1, "is_renting": "OUI", "is_returning": "OUI", "duedate": "2024-06-14T13:48:35+00:00", "coordonnees_geo": {"lon": 2.2695400938391685, "lat": 48.90717373809284}, "nom_arrondissement_communes": "Asni\u00e8res-sur-Seine", "code_insee_commune": null}, {"stationcode": "11007", "name": "Jean Mac\u00e9 - Faidherbe", "is_installed": "OUI", "capacity": 63, "numdocksavailable": 35, "numbikesavailable": 27, "mechanical": 25, "ebike": 2, "is_renting": "OUI", "is_returning": "OUI", "duedate": "2024-06-14T13:49:02+00:00", "coordonnees_geo": {"lon": 2.3828620836139, "lat": 48.85337548426}, "nom_arrondissement_communes": "Paris", "code_insee_commune": null}, {"stationcode": "7015", "name": "Varenne", "is_installed": "OUI", "capacity": 47, "numdocksavailable": 9, "numbikesavailable": 36, "mechanical": 24, "ebike": 12, "is_renting": "OUI", "is_returning": "OUI", "duedate": "2024-06-14T13:49:38+00:00", "coordonnees_geo": {"lon": 2.3152771219611, "lat": 48.857202661803}, "nom_arrondissement_communes": "Paris", "code_insee_commune": null}, {"stationcode": "18110", "name": "Departement - Pajol", "is_installed": "OUI", "capacity": 19, "numdocksavailable": 13, "numbikesavailable": 6, "mechanical": 1, "ebike": 5, "is_renting": "OUI", "is_returning": "OUI", "duedate": "2024-06-14T13:48:09+00:00", "coordonnees_geo": {"lon": 2.3613611608743668, "lat": 48.886674849730184}, "nom_arrondissement_communes": "Paris", "code_insee_commune": null}, {"stationcode": "17011", "name": "Fragonard - Porte de Clichy", "is_installed": "OUI", "capacity": 56, "numdocksavailable": 32, "numbikesavailable": 23, "mechanical": 22, "ebike": 1, "is_renting": "OUI", "is_returning": "OUI", "duedate": "2024-06-14T13:47:29+00:00", "coordonnees_geo": {"lon": 2.3143893107772, "lat": 48.894155633419}, "nom_arrondissement_communes": "Paris", "code_insee_commune": null}, {"stationcode": "43402", "name": "Place de Verdun", "is_installed": "OUI", "capacity": 40, "numdocksavailable": 4, "numbikesavailable": 35, "mechanical": 33, "ebike": 2, "is_renting": "OUI", "is_returning": "OUI", "duedate": "2024-06-14T13:49:59+00:00", "coordonnees_geo": {"lon": 2.473775, "lat": 48.8202823}, "nom_arrondissement_communes": "Joinville-le-Pont", "code_insee_commune": null}, {"stationcode": "12013", "name": "Montgallet - Reuilly", "is_installed": "OUI", "capacity": 16, "numdocksavailable": 5, "numbikesavailable": 9, "mechanical": 7, "ebike": 2, "is_renting": "OUI", "is_returning": "OUI", "duedate": "2024-06-14T13:49:38+00:00", "coordonnees_geo": {"lon": 2.3896481, "lat": 48.844291}, "nom_arrondissement_communes": "Paris", "code_insee_commune": null}, {"stationcode": "21305", "name": "Place Jacques Madaule", "is_installed": "OUI", "capacity": 25, "numdocksavailable": 4, "numbikesavailable": 19, "mechanical": 16, "ebike": 3, "is_renting": "OUI", "is_returning": "OUI", "duedate": "2024-06-14T13:47:49+00:00", "coordonnees_geo": {"lon": 2.2606918215752, "lat": 48.823933787309}, "nom_arrondissement_communes": "Issy-les-Moulineaux", "code_insee_commune": null}, {"stationcode": "11115", "name": "Montreuil - Gonnet", "is_installed": "OUI", "capacity": 24, "numdocksavailable": 10, "numbikesavailable": 13, "mechanical": 10, "ebike": 3, "is_renting": "OUI", "is_returning": "OUI", "duedate": "2024-06-14T13:49:54+00:00", "coordonnees_geo": {"lon": 2.3890856287864, "lat": 48.850500564921}, "nom_arrondissement_communes": "Paris", "code_insee_commune": null}, {"stationcode": "14021", "name": "Place de la Porte de Ch\u00e2tillon", "is_installed": "OUI", "capacity": 59, "numdocksavailable": 44, "numbikesavailable": 15, "mechanical": 14, "ebike": 1, "is_renting": "OUI", "is_returning": "OUI", "duedate": "2024-06-14T13:42:18+00:00", "coordonnees_geo": {"lon": 2.3186306, "lat": 48.8242469}, "nom_arrondissement_communes": "Paris", "code_insee_commune": null}, {"stationcode": "5021", "name": "Jussieu - Foss\u00e9s Saint-Bernard", "is_installed": "OUI", "capacity": 39, "numdocksavailable": 1, "numbikesavailable": 38, "mechanical": 26, "ebike": 12, "is_renting": "OUI", "is_returning": "OUI", "duedate": "2024-06-14T13:50:05+00:00", "coordonnees_geo": {"lon": 2.3534858599305153, "lat": 48.84718551002347}, "nom_arrondissement_communes": "Paris", "code_insee_commune": null}, {"stationcode": "6013", "name": "Jacques Callot - Mazarine", "is_installed": "OUI", "capacity": 28, "numdocksavailable": 16, "numbikesavailable": 11, "mechanical": 7, "ebike": 4, "is_renting": "OUI", "is_returning": "OUI", "duedate": "2024-06-14T13:49:46+00:00", "coordonnees_geo": {"lon": 2.337574325501919, "lat": 48.85528017533187}, "nom_arrondissement_communes": "Paris", "code_insee_commune": null}, {"stationcode": "17037", "name": "Bayen - Pereire", "is_installed": "OUI", "capacity": 22, "numdocksavailable": 17, "numbikesavailable": 5, "mechanical": 2, "ebike": 3, "is_renting": "OUI", "is_returning": "OUI", "duedate": "2024-06-14T13:46:48+00:00", "coordonnees_geo": {"lon": 2.2921088710427284, "lat": 48.881804409079656}, "nom_arrondissement_communes": "Paris", "code_insee_commune": null}, {"stationcode": "19004", "name": "Quai de la Loire - Jean Jaur\u00e8s", "is_installed": "OUI", "capacity": 16, "numdocksavailable": 3, "numbikesavailable": 12, "mechanical": 1, "ebike": 11, "is_renting": "OUI", "is_returning": "OUI", "duedate": "2024-06-14T13:48:35+00:00", "coordonnees_geo": {"lon": 2.371074522980134, "lat": 48.88339733854529}, "nom_arrondissement_communes": "Paris", "code_insee_commune": null}, {"stationcode": "33003", "name": "Bordier - F\u00e9lix Faure", "is_installed": "OUI", "capacity": 48, "numdocksavailable": 34, "numbikesavailable": 13, "mechanical": 7, "ebike": 6, "is_renting": "OUI", "is_returning": "OUI", "duedate": "2024-06-14T13:48:57+00:00", "coordonnees_geo": {"lon": 2.3830059170722966, "lat": 48.90390751882016}, "nom_arrondissement_communes": "Aubervilliers", "code_insee_commune": null}, {"stationcode": "33009", "name": "F\u00e9lix Faure - Sadi Carnot", "is_installed": "OUI", "capacity": 33, "numdocksavailable": 23, "numbikesavailable": 8, "mechanical": 3, "ebike": 5, "is_renting": "OUI", "is_returning": "OUI", "duedate": "2024-06-14T13:49:50+00:00", "coordonnees_geo": {"lon": 2.378623187541962, "lat": 48.90812110228388}, "nom_arrondissement_communes": "Aubervilliers", "code_insee_commune": null}, {"stationcode": "25005", "name": "18 juin 1940 - Buzenval", "is_installed": "OUI", "capacity": 25, "numdocksavailable": 24, "numbikesavailable": 1, "mechanical": 0, "ebike": 1, "is_renting": "OUI", "is_returning": "OUI", "duedate": "2024-06-14T13:49:26+00:00", "coordonnees_geo": {"lon": 2.185428, "lat": 48.868807}, "nom_arrondissement_communes": "Rueil-Malmaison", "code_insee_commune": null}, {"stationcode": "22505", "name": "Mairie de La Garenne Colombes", "is_installed": "OUI", "capacity": 22, "numdocksavailable": 15, "numbikesavailable": 6, "mechanical": 2, "ebike": 4, "is_renting": "OUI", "is_returning": "OUI", "duedate": "2024-06-14T13:49:57+00:00", "coordonnees_geo": {"lon": 2.24679596722126, "lat": 48.90663823468682}, "nom_arrondissement_communes": "La Garenne-Colombes", "code_insee_commune": null}, {"stationcode": "13045", "name": "Jean Colly - Tolbiac", "is_installed": "OUI", "capacity": 36, "numdocksavailable": 16, "numbikesavailable": 18, "mechanical": 14, "ebike": 4, "is_renting": "OUI", "is_returning": "OUI", "duedate": "2024-06-14T13:48:44+00:00", "coordonnees_geo": {"lon": 2.3705490678548813, "lat": 48.827817291597846}, "nom_arrondissement_communes": "Paris", "code_insee_commune": null}, {"stationcode": "16018", "name": "Flandrin - Henri Martin", "is_installed": "OUI", "capacity": 18, "numdocksavailable": 15, "numbikesavailable": 3, "mechanical": 0, "ebike": 3, "is_renting": "OUI", "is_returning": "OUI", "duedate": "2024-06-14T13:42:07+00:00", "coordonnees_geo": {"lon": 2.2724174, "lat": 48.8643275}, "nom_arrondissement_communes": "Paris", "code_insee_commune": null}, {"stationcode": "12034", "name": "Pirogues de Bercy - Libourne", "is_installed": "OUI", "capacity": 49, "numdocksavailable": 2, "numbikesavailable": 46, "mechanical": 28, "ebike": 18, "is_renting": "OUI", "is_returning": "OUI", "duedate": "2024-06-14T13:49:30+00:00", "coordonnees_geo": {"lon": 2.38637, "lat": 48.832308}, "nom_arrondissement_communes": "Paris", "code_insee_commune": null}, {"stationcode": "15033", "name": "Place Violet", "is_installed": "OUI", "capacity": 30, "numdocksavailable": 10, "numbikesavailable": 20, "mechanical": 17, "ebike": 3, "is_renting": "OUI", "is_returning": "OUI", "duedate": "2024-06-14T13:48:11+00:00", "coordonnees_geo": {"lon": 2.2905756533145905, "lat": 48.84487893836502}, "nom_arrondissement_communes": "Paris", "code_insee_commune": null}, {"stationcode": "19044", "name": "Grands Moulins de Pantin", "is_installed": "OUI", "capacity": 50, "numdocksavailable": 37, "numbikesavailable": 13, "mechanical": 8, "ebike": 5, "is_renting": "OUI", "is_returning": "OUI", "duedate": "2024-06-14T13:46:32+00:00", "coordonnees_geo": {"lon": 2.3959985375404362, "lat": 48.89738369720229}, "nom_arrondissement_communes": "Paris", "code_insee_commune": null}, {"stationcode": "12201", "name": "Dugommier", "is_installed": "OUI", "capacity": 53, "numdocksavailable": 23, "numbikesavailable": 28, "mechanical": 26, "ebike": 2, "is_renting": "OUI", "is_returning": "OUI", "duedate": "2024-06-14T13:48:15+00:00", "coordonnees_geo": {"lon": 2.3896577954292, "lat": 48.838811048815}, "nom_arrondissement_communes": "Paris", "code_insee_commune": null}, {"stationcode": "33001", "name": "Victor Hugo - Magasins G\u00e9n\u00e9raux", "is_installed": "OUI", "capacity": 34, "numdocksavailable": 9, "numbikesavailable": 25, "mechanical": 8, "ebike": 17, "is_renting": "OUI", "is_returning": "OUI", "duedate": "2024-06-14T13:48:55+00:00", "coordonnees_geo": {"lon": 2.368072383105755, "lat": 48.903281401126755}, "nom_arrondissement_communes": "Aubervilliers", "code_insee_commune": null}, {"stationcode": "16034", "name": "Porte d'Auteuil", "is_installed": "OUI", "capacity": 33, "numdocksavailable": 24, "numbikesavailable": 7, "mechanical": 4, "ebike": 3, "is_renting": "OUI", "is_returning": "OUI", "duedate": "2024-06-14T13:43:50+00:00", "coordonnees_geo": {"lon": 2.2608396783471107, "lat": 48.8479394142243}, "nom_arrondissement_communes": "Paris", "code_insee_commune": null}, {"stationcode": "41404", "name": "Carnot - P\u00e2querettes", "is_installed": "OUI", "capacity": 26, "numdocksavailable": 5, "numbikesavailable": 21, "mechanical": 21, "ebike": 0, "is_renting": "OUI", "is_returning": "OUI", "duedate": "2024-06-14T13:44:12+00:00", "coordonnees_geo": {"lon": 2.4261841177940373, "lat": 48.79592939432515}, "nom_arrondissement_communes": "Alfortville", "code_insee_commune": null}, {"stationcode": "19203", "name": "Pailleron - Bouret", "is_installed": "NON", "capacity": 0, "numdocksavailable": 0, "numbikesavailable": 0, "mechanical": 0, "ebike": 0, "is_renting": "NON", "is_returning": "NON", "duedate": "2024-03-28T11:31:00+00:00", "coordonnees_geo": {"lon": 2.3763902374411, "lat": 48.880516995482}, "nom_arrondissement_communes": "Paris", "code_insee_commune": null}, {"stationcode": "11031_relais", "name": "Jacquard - Ternaux", "is_installed": "OUI", "capacity": 0, "numdocksavailable": 0, "numbikesavailable": 0, "mechanical": 0, "ebike": 0, "is_renting": "NON", "is_returning": "NON", "duedate": "2023-12-06T09:59:55+00:00", "coordonnees_geo": {"lon": 2.3730935, "lat": 48.8643671}, "nom_arrondissement_communes": "Paris", "code_insee_commune": null}, {"stationcode": "20119", "name": "Square des Saint-Simoniens", "is_installed": "OUI", "capacity": 25, "numdocksavailable": 25, "numbikesavailable": 0, "mechanical": 0, "ebike": 0, "is_renting": "OUI", "is_returning": "OUI", "duedate": "2024-06-14T13:43:05+00:00", "coordonnees_geo": {"lon": 2.3967273, "lat": 48.8701796}, "nom_arrondissement_communes": "Paris", "code_insee_commune": null}, {"stationcode": "19019", "name": "Petit - Manin", "is_installed": "OUI", "capacity": 22, "numdocksavailable": 17, "numbikesavailable": 5, "mechanical": 2, "ebike": 3, "is_renting": "OUI", "is_returning": "OUI", "duedate": "2024-06-14T13:49:36+00:00", "coordonnees_geo": {"lon": 2.3938155401308374, "lat": 48.88650687534334}, "nom_arrondissement_communes": "Paris", "code_insee_commune": null}, {"stationcode": "42207", "name": "Place des Marseillais", "is_installed": "OUI", "capacity": 37, "numdocksavailable": 21, "numbikesavailable": 15, "mechanical": 7, "ebike": 8, "is_renting": "OUI", "is_returning": "OUI", "duedate": "2024-06-14T13:49:41+00:00", "coordonnees_geo": {"lon": 2.4059280753135686, "lat": 48.82663907252554}, "nom_arrondissement_communes": "Charenton-le-Pont", "code_insee_commune": null}, {"stationcode": "42707", "name": "Place Jean-Baptiste Cl\u00e9ment", "is_installed": "OUI", "capacity": 25, "numdocksavailable": 19, "numbikesavailable": 6, "mechanical": 2, "ebike": 4, "is_renting": "OUI", "is_returning": "OUI", "duedate": "2024-06-14T13:44:20+00:00", "coordonnees_geo": {"lon": 2.3617091774940495, "lat": 48.81240466867336}, "nom_arrondissement_communes": "Le Kremlin-Bic\u00eatre", "code_insee_commune": null}, {"stationcode": "92003", "name": "Chanzy - Sud-Est", "is_installed": "OUI", "capacity": 25, "numdocksavailable": 21, "numbikesavailable": 3, "mechanical": 2, "ebike": 1, "is_renting": "OUI", "is_returning": "OUI", "duedate": "2024-06-14T13:49:40+00:00", "coordonnees_geo": {"lon": 2.195632159709931, "lat": 48.888912037698766}, "nom_arrondissement_communes": "Nanterre", "code_insee_commune": null}, {"stationcode": "35009", "name": "Jean Lolive - Parc Stalingrad", "is_installed": "OUI", "capacity": 22, "numdocksavailable": 15, "numbikesavailable": 5, "mechanical": 4, "ebike": 1, "is_renting": "OUI", "is_returning": "OUI", "duedate": "2024-06-14T13:46:30+00:00", "coordonnees_geo": {"lon": 2.4091735482215886, "lat": 48.89206174403158}, "nom_arrondissement_communes": "Pantin", "code_insee_commune": null}, {"stationcode": "31705", "name": "Champeaux - Gallieni", "is_installed": "OUI", "capacity": 50, "numdocksavailable": 44, "numbikesavailable": 6, "mechanical": 0, "ebike": 6, "is_renting": "OUI", "is_returning": "OUI", "duedate": "2024-06-14T13:49:39+00:00", "coordonnees_geo": {"lon": 2.4161778017878532, "lat": 48.864459134684644}, "nom_arrondissement_communes": "Bagnolet", "code_insee_commune": null}, {"stationcode": "12126", "name": "Gravelle - Route du Bac", "is_installed": "OUI", "capacity": 51, "numdocksavailable": 40, "numbikesavailable": 10, "mechanical": 5, "ebike": 5, "is_renting": "OUI", "is_returning": "OUI", "duedate": "2024-06-14T13:49:58+00:00", "coordonnees_geo": {"lon": 2.418455, "lat": 48.824407}, "nom_arrondissement_communes": "Paris", "code_insee_commune": null}, {"stationcode": "12024", "name": "Gare de Bercy", "is_installed": "OUI", "capacity": 35, "numdocksavailable": 1, "numbikesavailable": 33, "mechanical": 31, "ebike": 2, "is_renting": "OUI", "is_returning": "OUI", "duedate": "2024-06-14T13:50:03+00:00", "coordonnees_geo": {"lon": 2.3826066032052, "lat": 48.839794573906}, "nom_arrondissement_communes": "Paris", "code_insee_commune": null}, {"stationcode": "20113", "name": "Piat - Parc de Belleville", "is_installed": "OUI", "capacity": 21, "numdocksavailable": 20, "numbikesavailable": 0, "mechanical": 0, "ebike": 0, "is_renting": "OUI", "is_returning": "OUI", "duedate": "2024-06-14T13:49:49+00:00", "coordonnees_geo": {"lon": 2.384981390278095, "lat": 48.87195626635528}, "nom_arrondissement_communes": "Paris", "code_insee_commune": null}, {"stationcode": "6030", "name": "Assas - Vaugirard", "is_installed": "OUI", "capacity": 35, "numdocksavailable": 21, "numbikesavailable": 14, "mechanical": 5, "ebike": 9, "is_renting": "OUI", "is_returning": "OUI", "duedate": "2024-06-14T13:49:50+00:00", "coordonnees_geo": {"lon": 2.3292413726449, "lat": 48.848274111398}, "nom_arrondissement_communes": "Paris", "code_insee_commune": null}, {"stationcode": "41604", "name": "Lagny - Joffre", "is_installed": "OUI", "capacity": 31, "numdocksavailable": 14, "numbikesavailable": 17, "mechanical": 15, "ebike": 2, "is_renting": "OUI", "is_returning": "OUI", "duedate": "2024-06-14T13:48:47+00:00", "coordonnees_geo": {"lon": 2.417949736118317, "lat": 48.84930687084088}, "nom_arrondissement_communes": "Saint-Mand\u00e9", "code_insee_commune": null}, {"stationcode": "15017", "name": "Place Falgui\u00e8re", "is_installed": "OUI", "capacity": 23, "numdocksavailable": 20, "numbikesavailable": 3, "mechanical": 2, "ebike": 1, "is_renting": "OUI", "is_returning": "OUI", "duedate": "2024-06-14T13:49:50+00:00", "coordonnees_geo": {"lon": 2.3104464635252953, "lat": 48.83629973941847}, "nom_arrondissement_communes": "Paris", "code_insee_commune": null}, {"stationcode": "5116", "name": "Place Valhubert", "is_installed": "OUI", "capacity": 51, "numdocksavailable": 1, "numbikesavailable": 49, "mechanical": 45, "ebike": 4, "is_renting": "OUI", "is_returning": "OUI", "duedate": "2024-06-14T13:49:06+00:00", "coordonnees_geo": {"lon": 2.3640366643667, "lat": 48.844182577315}, "nom_arrondissement_communes": "Paris", "code_insee_commune": null}, {"stationcode": "18005", "name": "Tardieu - Chappe", "is_installed": "OUI", "capacity": 18, "numdocksavailable": 16, "numbikesavailable": 2, "mechanical": 1, "ebike": 1, "is_renting": "OUI", "is_returning": "OUI", "duedate": "2024-06-14T13:49:19+00:00", "coordonnees_geo": {"lon": 2.341845408082, "lat": 48.884146759782}, "nom_arrondissement_communes": "Paris", "code_insee_commune": null}, {"stationcode": "92004", "name": "Nanterre - Universit\u00e9", "is_installed": "OUI", "capacity": 20, "numdocksavailable": 14, "numbikesavailable": 5, "mechanical": 2, "ebike": 3, "is_renting": "OUI", "is_returning": "OUI", "duedate": "2024-06-14T13:49:05+00:00", "coordonnees_geo": {"lon": 2.212693, "lat": 48.901365}, "nom_arrondissement_communes": "Nanterre", "code_insee_commune": null}, {"stationcode": "5002", "name": "Sommerard - Saint-Jacques", "is_installed": "OUI", "capacity": 34, "numdocksavailable": 3, "numbikesavailable": 31, "mechanical": 31, "ebike": 0, "is_renting": "OUI", "is_returning": "OUI", "duedate": "2024-06-14T13:48:57+00:00", "coordonnees_geo": {"lon": 2.345015835298588, "lat": 48.850310432924466}, "nom_arrondissement_communes": "Paris", "code_insee_commune": null}, {"stationcode": "8102", "name": "Lamennais - Washington", "is_installed": "OUI", "capacity": 26, "numdocksavailable": 14, "numbikesavailable": 11, "mechanical": 6, "ebike": 5, "is_renting": "OUI", "is_returning": "OUI", "duedate": "2024-06-14T13:48:22+00:00", "coordonnees_geo": {"lon": 2.303444892168045, "lat": 48.87352990026496}, "nom_arrondissement_communes": "Paris", "code_insee_commune": null}, {"stationcode": "7004", "name": "Raspail - Varenne", "is_installed": "OUI", "capacity": 18, "numdocksavailable": 9, "numbikesavailable": 8, "mechanical": 7, "ebike": 1, "is_renting": "OUI", "is_returning": "OUI", "duedate": "2024-06-14T13:46:49+00:00", "coordonnees_geo": {"lon": 2.3263905197382, "lat": 48.853147816545}, "nom_arrondissement_communes": "Paris", "code_insee_commune": null}, {"stationcode": "21013", "name": "Pierre Grenier - Pont de Billancourt", "is_installed": "OUI", "capacity": 21, "numdocksavailable": 7, "numbikesavailable": 12, "mechanical": 9, "ebike": 3, "is_renting": "OUI", "is_returning": "OUI", "duedate": "2024-06-14T13:46:48+00:00", "coordonnees_geo": {"lon": 2.2487989068031315, "lat": 48.8258020742942}, "nom_arrondissement_communes": "Boulogne-Billancourt", "code_insee_commune": null}, {"stationcode": "7014", "name": "Saint-Fran\u00e7ois-Xavier", "is_installed": "OUI", "capacity": 42, "numdocksavailable": 19, "numbikesavailable": 20, "mechanical": 17, "ebike": 3, "is_renting": "OUI", "is_returning": "OUI", "duedate": "2024-06-14T13:49:55+00:00", "coordonnees_geo": {"lon": 2.3146149516106, "lat": 48.85154484769}, "nom_arrondissement_communes": "Paris", "code_insee_commune": null}, {"stationcode": "7006", "name": "Quai Voltaire", "is_installed": "OUI", "capacity": 32, "numdocksavailable": 0, "numbikesavailable": 29, "mechanical": 24, "ebike": 5, "is_renting": "OUI", "is_returning": "OUI", "duedate": "2024-06-14T13:47:27+00:00", "coordonnees_geo": {"lon": 2.3314182047146, "lat": 48.858942986179}, "nom_arrondissement_communes": "Paris", "code_insee_commune": null}]