[{"stationcode": "13126", "name": "Place Nationale - Ch\u00e2teau-des-Rentiers", "is_installed": "OUI", "capacity": 18, "numdocksavailable": 8, "numbikesavailable": 9, "mechanical": 7, "ebike": 2, "is_renting": "OUI", "is_returning": "OUI", "duedate": "2024-06-16T04:51:07+00:00", "coordonnees_geo": {"lon": 2.365212, "lat": 48.829268}, "nom_arrondissement_communes": "Paris", "code_insee_commune": null}, {"stationcode": "14101", "name": "Gare Montparnasse - Edgar Quinet", "is_installed": "OUI", "capacity": 33, "numdocksavailable": 18, "numbikesavailable": 14, "mechanical": 9, "ebike": 5, "is_renting": "OUI", "is_returning": "OUI", "duedate": "2024-06-16T04:54:34+00:00", "coordonnees_geo": {"lon": 2.3233232282801, "lat": 48.841487851079}, "nom_arrondissement_communes": "Paris", "code_insee_commune": null}, {"stationcode": "17015", "name": "Place de L\u00e9vis", "is_installed": "OUI", "capacity": 48, "numdocksavailable": 37, "numbikesavailable": 11, "mechanical": 3, "ebike": 8, "is_renting": "OUI", "is_returning": "OUI", "duedate": "2024-06-16T04:50:35+00:00", "coordonnees_geo": {"lon": 2.3131933808326726, "lat": 48.883546851533254}, "nom_arrondissement_communes": "Paris", "code_insee_commune": null}, {"stationcode": "15023", "name": "La Motte-Picquet - Grenelle", "is_installed": "OUI", "capacity": 34, "numdocksavailable": 13, "numbikesavailable": 21, "mechanical": 18, "ebike": 3, "is_renting": "OUI", "is_returning": "OUI", "duedate": "2024-06-16T04:51:14+00:00", "coordonnees_geo": {"lon": 2.299347817897797, "lat": 48.84858321339195}, "nom_arrondissement_communes": "Paris", "code_insee_commune": null}, {"stationcode": "13128", "name": "Quai de la Gare - Pont de Bercy", "is_installed": "OUI", "capacity": 30, "numdocksavailable": 25, "numbikesavailable": 3, "mechanical": 2, "ebike": 1, "is_renting": "OUI", "is_returning": "OUI", "duedate": "2024-06-16T04:52:02+00:00", "coordonnees_geo": {"lon": 2.3740861260598, "lat": 48.83730787972}, "nom_arrondissement_communes": "Paris", "code_insee_commune": null}, {"stationcode": "23003", "name": "Pr\u00e9sident Wilson - Baudin", "is_installed": "OUI", "capacity": 28, "numdocksavailable": 23, "numbikesavailable": 4, "mechanical": 3, "ebike": 1, "is_renting": "OUI", "is_returning": "OUI", "duedate": "2024-06-16T04:46:41+00:00", "coordonnees_geo": {"lon": 2.2849336266517644, "lat": 48.89826887103676}, "nom_arrondissement_communes": "Levallois-Perret", "code_insee_commune": null}, {"stationcode": "14131", "name": "Jourdan - Monticelli", "is_installed": "OUI", "capacity": 30, "numdocksavailable": 26, "numbikesavailable": 3, "mechanical": 1, "ebike": 2, "is_renting": "OUI", "is_returning": "OUI", "duedate": "2024-06-16T04:54:25+00:00", "coordonnees_geo": {"lon": 2.329095, "lat": 48.822032}, "nom_arrondissement_communes": "Paris", "code_insee_commune": null}, {"stationcode": "19108", "name": "Gaston Tessier - Rosa Parks RER", "is_installed": "OUI", "capacity": 37, "numdocksavailable": 28, "numbikesavailable": 7, "mechanical": 6, "ebike": 1, "is_renting": "OUI", "is_returning": "OUI", "duedate": "2024-06-16T04:52:44+00:00", "coordonnees_geo": {"lon": 2.3743692, "lat": 48.8963765}, "nom_arrondissement_communes": "Paris", "code_insee_commune": null}, {"stationcode": "4002", "name": "March\u00e9 aux fleurs", "is_installed": "OUI", "capacity": 23, "numdocksavailable": 12, "numbikesavailable": 10, "mechanical": 9, "ebike": 1, "is_renting": "OUI", "is_returning": "OUI", "duedate": "2024-06-16T04:51:14+00:00", "coordonnees_geo": {"lon": 2.3473754525185, "lat": 48.855258115391}, "nom_arrondissement_communes": "Paris", "code_insee_commune": null}, {"stationcode": "42501", "name": "Raspail - Albert Schweitzer", "is_installed": "OUI", "capacity": 28, "numdocksavailable": 2, "numbikesavailable": 25, "mechanical": 11, "ebike": 14, "is_renting": "OUI", "is_returning": "OUI", "duedate": "2024-06-16T04:52:56+00:00", "coordonnees_geo": {"lon": 2.34395871, "lat": 48.81031545}, "nom_arrondissement_communes": "Gentilly", "code_insee_commune": null}, {"stationcode": "6008", "name": "Assas - Luxembourg", "is_installed": "OUI", "capacity": 33, "numdocksavailable": 26, "numbikesavailable": 6, "mechanical": 1, "ebike": 5, "is_renting": "OUI", "is_returning": "OUI", "duedate": "2024-06-16T04:51:14+00:00", "coordonnees_geo": {"lon": 2.3334283818759, "lat": 48.843734468779}, "nom_arrondissement_communes": "Paris", "code_insee_commune": null}, {"stationcode": "22206", "name": "Louis Pasteur - Albert Petit", "is_installed": "OUI", "capacity": 31, "numdocksavailable": 27, "numbikesavailable": 4, "mechanical": 2, "ebike": 2, "is_renting": "OUI", "is_returning": "OUI", "duedate": "2024-06-16T04:54:00+00:00", "coordonnees_geo": {"lon": 2.317289, "lat": 48.796261}, "nom_arrondissement_communes": "Bagneux", "code_insee_commune": null}, {"stationcode": "11021", "name": "Charonne - Pierre Bayle", "is_installed": "OUI", "capacity": 23, "numdocksavailable": 16, "numbikesavailable": 7, "mechanical": 1, "ebike": 6, "is_renting": "OUI", "is_returning": "OUI", "duedate": "2024-06-16T04:49:33+00:00", "coordonnees_geo": {"lon": 2.3903981223891, "lat": 48.858445054262}, "nom_arrondissement_communes": "Paris", "code_insee_commune": null}, {"stationcode": "21217", "name": "Louis Rolland - R\u00e9publique", "is_installed": "OUI", "capacity": 26, "numdocksavailable": 24, "numbikesavailable": 2, "mechanical": 2, "ebike": 0, "is_renting": "OUI", "is_returning": "OUI", "duedate": "2024-06-16T04:53:35+00:00", "coordonnees_geo": {"lon": 2.3193106434955717, "lat": 48.81710889740748}, "nom_arrondissement_communes": "Montrouge", "code_insee_commune": null}, {"stationcode": "15064", "name": "Javel - Andr\u00e9 Citro\u00ebn", "is_installed": "OUI", "capacity": 45, "numdocksavailable": 26, "numbikesavailable": 18, "mechanical": 6, "ebike": 12, "is_renting": "OUI", "is_returning": "OUI", "duedate": "2024-06-16T04:52:33+00:00", "coordonnees_geo": {"lon": 2.2786368057131767, "lat": 48.846276485475}, "nom_arrondissement_communes": "Paris", "code_insee_commune": null}, {"stationcode": "22303", "name": "Lucien Lanternier - Le Luth", "is_installed": "OUI", "capacity": 27, "numdocksavailable": 8, "numbikesavailable": 19, "mechanical": 12, "ebike": 7, "is_renting": "OUI", "is_returning": "OUI", "duedate": "2024-06-16T04:52:56+00:00", "coordonnees_geo": {"lon": 2.2889783978462224, "lat": 48.93159430558871}, "nom_arrondissement_communes": "Gennevilliers", "code_insee_commune": null}, {"stationcode": "17107", "name": "Berthier - Place Stuart Merril", "is_installed": "OUI", "capacity": 37, "numdocksavailable": 30, "numbikesavailable": 5, "mechanical": 1, "ebike": 4, "is_renting": "OUI", "is_returning": "OUI", "duedate": "2024-06-16T04:52:16+00:00", "coordonnees_geo": {"lon": 2.2933450341224675, "lat": 48.885927922355044}, "nom_arrondissement_communes": "Paris", "code_insee_commune": null}, {"stationcode": "15057", "name": "Lucien Bossoutrot - G\u00e9n\u00e9ral Martial Vallin", "is_installed": "OUI", "capacity": 39, "numdocksavailable": 34, "numbikesavailable": 5, "mechanical": 5, "ebike": 0, "is_renting": "OUI", "is_returning": "OUI", "duedate": "2024-06-16T04:53:54+00:00", "coordonnees_geo": {"lon": 2.2741072252393, "lat": 48.836956046311}, "nom_arrondissement_communes": "Paris", "code_insee_commune": null}, {"stationcode": "23010", "name": "Voltaire - Anatole France", "is_installed": "OUI", "capacity": 27, "numdocksavailable": 18, "numbikesavailable": 7, "mechanical": 3, "ebike": 4, "is_renting": "OUI", "is_returning": "OUI", "duedate": "2024-06-16T04:52:21+00:00", "coordonnees_geo": {"lon": 2.284262739121914, "lat": 48.891999360256904}, "nom_arrondissement_communes": "Levallois-Perret", "code_insee_commune": null}, {"stationcode": "18007", "name": "Goutte d'or - Barb\u00e8s", "is_installed": "OUI", "capacity": 20, "numdocksavailable": 9, "numbikesavailable": 11, "mechanical": 2, "ebike": 9, "is_renting": "OUI", "is_returning": "OUI", "duedate": "2024-06-16T04:52:21+00:00", "coordonnees_geo": {"lon": 2.3496962338686, "lat": 48.885124323627}, "nom_arrondissement_communes": "Paris", "code_insee_commune": null}, {"stationcode": "22408", "name": "Place du 14 Juillet", "is_installed": "OUI", "capacity": 22, "numdocksavailable": 14, "numbikesavailable": 7, "mechanical": 6, "ebike": 1, "is_renting": "OUI", "is_returning": "OUI", "duedate": "2024-06-16T04:50:48+00:00", "coordonnees_geo": {"lon": 2.30119988322258, "lat": 48.8192669595252}, "nom_arrondissement_communes": "Malakoff", "code_insee_commune": null}, {"stationcode": "15005", "name": "Place Jacques et Th\u00e9r\u00e8se Tr\u00e9fou\u00ebl", "is_installed": "OUI", "capacity": 43, "numdocksavailable": 36, "numbikesavailable": 5, "mechanical": 3, "ebike": 2, "is_renting": "OUI", "is_returning": "OUI", "duedate": "2024-06-16T04:51:09+00:00", "coordonnees_geo": {"lon": 2.3125657439232, "lat": 48.842726498317}, "nom_arrondissement_communes": "Paris", "code_insee_commune": null}, {"stationcode": "21401", "name": "Mairie de Clamart", "is_installed": "OUI", "capacity": 33, "numdocksavailable": 21, "numbikesavailable": 12, "mechanical": 0, "ebike": 12, "is_renting": "OUI", "is_returning": "OUI", "duedate": "2024-06-16T04:49:22+00:00", "coordonnees_geo": {"lon": 2.262151, "lat": 48.800612}, "nom_arrondissement_communes": "Clamart", "code_insee_commune": null}, {"stationcode": "13044", "name": "Place Jeanne d'Arc", "is_installed": "OUI", "capacity": 36, "numdocksavailable": 8, "numbikesavailable": 27, "mechanical": 10, "ebike": 17, "is_renting": "OUI", "is_returning": "OUI", "duedate": "2024-06-16T04:54:32+00:00", "coordonnees_geo": {"lon": 2.369126, "lat": 48.829575}, "nom_arrondissement_communes": "Paris", "code_insee_commune": null}, {"stationcode": "9027", "name": "Douai - Pierre Fontaine", "is_installed": "OUI", "capacity": 25, "numdocksavailable": 23, "numbikesavailable": 2, "mechanical": 0, "ebike": 2, "is_renting": "OUI", "is_returning": "OUI", "duedate": "2024-06-16T04:49:02+00:00", "coordonnees_geo": {"lon": 2.33324121683836, "lat": 48.88229101148092}, "nom_arrondissement_communes": "Paris", "code_insee_commune": null}, {"stationcode": "17108", "name": "Bessi\u00e8res - Porte de Clichy", "is_installed": "OUI", "capacity": 33, "numdocksavailable": 19, "numbikesavailable": 13, "mechanical": 7, "ebike": 6, "is_renting": "OUI", "is_returning": "OUI", "duedate": "2024-06-16T04:54:30+00:00", "coordonnees_geo": {"lon": 2.31790903955698, "lat": 48.89611762451474}, "nom_arrondissement_communes": "Paris", "code_insee_commune": null}, {"stationcode": "4020", "name": "Place Edmond Michelet", "is_installed": "OUI", "capacity": 23, "numdocksavailable": 13, "numbikesavailable": 9, "mechanical": 8, "ebike": 1, "is_renting": "OUI", "is_returning": "OUI", "duedate": "2024-06-16T04:51:56+00:00", "coordonnees_geo": {"lon": 2.3500636965036, "lat": 48.860134890542}, "nom_arrondissement_communes": "Paris", "code_insee_commune": null}, {"stationcode": "15022", "name": "Emile Zola - Fondary", "is_installed": "OUI", "capacity": 42, "numdocksavailable": 6, "numbikesavailable": 5, "mechanical": 4, "ebike": 1, "is_renting": "OUI", "is_returning": "OUI", "duedate": "2024-06-16T04:46:38+00:00", "coordonnees_geo": {"lon": 2.2953405976295476, "lat": 48.847051143113745}, "nom_arrondissement_communes": "Paris", "code_insee_commune": null}, {"stationcode": "5012", "name": "Estrapade - Ulm", "is_installed": "OUI", "capacity": 16, "numdocksavailable": 11, "numbikesavailable": 2, "mechanical": 1, "ebike": 1, "is_renting": "OUI", "is_returning": "OUI", "duedate": "2024-06-16T04:46:18+00:00", "coordonnees_geo": {"lon": 2.3454568170362, "lat": 48.84512772828}, "nom_arrondissement_communes": "Paris", "code_insee_commune": null}, {"stationcode": "8037", "name": "Monceau - Malesherbes", "is_installed": "OUI", "capacity": 38, "numdocksavailable": 29, "numbikesavailable": 9, "mechanical": 6, "ebike": 3, "is_renting": "OUI", "is_returning": "OUI", "duedate": "2024-06-16T04:54:10+00:00", "coordonnees_geo": {"lon": 2.3145456, "lat": 48.8795079}, "nom_arrondissement_communes": "Paris", "code_insee_commune": null}, {"stationcode": "41205", "name": "Mar\u00e9chal Joffre - Verdun", "is_installed": "OUI", "capacity": 20, "numdocksavailable": 7, "numbikesavailable": 12, "mechanical": 0, "ebike": 12, "is_renting": "OUI", "is_returning": "OUI", "duedate": "2024-06-16T04:52:02+00:00", "coordonnees_geo": {"lon": 2.470307, "lat": 48.85385}, "nom_arrondissement_communes": "Fontenay-sous-Bois", "code_insee_commune": null}, {"stationcode": "22015", "name": "\u00cele de la Jatte", "is_installed": "OUI", "capacity": 23, "numdocksavailable": 17, "numbikesavailable": 6, "mechanical": 1, "ebike": 5, "is_renting": "OUI", "is_returning": "OUI", "duedate": "2024-06-16T04:48:59+00:00", "coordonnees_geo": {"lon": 2.2666339203715324, "lat": 48.894036161302104}, "nom_arrondissement_communes": "Neuilly-sur-Seine", "code_insee_commune": null}, {"stationcode": "17111", "name": "Lemercier - Cardinet", "is_installed": "OUI", "capacity": 24, "numdocksavailable": 16, "numbikesavailable": 7, "mechanical": 2, "ebike": 5, "is_renting": "OUI", "is_returning": "OUI", "duedate": "2024-06-16T04:50:55+00:00", "coordonnees_geo": {"lon": 2.317377626895905, "lat": 48.890097168851746}, "nom_arrondissement_communes": "Paris", "code_insee_commune": null}, {"stationcode": "44016", "name": "Balzac - Olympes de Gouges", "is_installed": "OUI", "capacity": 28, "numdocksavailable": 6, "numbikesavailable": 22, "mechanical": 10, "ebike": 12, "is_renting": "OUI", "is_returning": "OUI", "duedate": "2024-06-16T04:52:30+00:00", "coordonnees_geo": {"lon": 2.4006786569952965, "lat": 48.77850332486751}, "nom_arrondissement_communes": "Vitry-sur-Seine", "code_insee_commune": null}, {"stationcode": "15011", "name": "Cambronne - Villa Croix Nivert", "is_installed": "OUI", "capacity": 62, "numdocksavailable": 38, "numbikesavailable": 23, "mechanical": 21, "ebike": 2, "is_renting": "OUI", "is_returning": "OUI", "duedate": "2024-06-16T04:49:58+00:00", "coordonnees_geo": {"lon": 2.3017574474216, "lat": 48.845847561366}, "nom_arrondissement_communes": "Paris", "code_insee_commune": null}, {"stationcode": "9004", "name": "G\u00e9rando - Rochechouart", "is_installed": "OUI", "capacity": 21, "numdocksavailable": 11, "numbikesavailable": 7, "mechanical": 6, "ebike": 1, "is_renting": "OUI", "is_returning": "OUI", "duedate": "2024-06-16T04:54:19+00:00", "coordonnees_geo": {"lon": 2.3464846238494, "lat": 48.88294340845}, "nom_arrondissement_communes": "Paris", "code_insee_commune": null}, {"stationcode": "51002", "name": "Placette Gr\u00e9goire Collas", "is_installed": "OUI", "capacity": 25, "numdocksavailable": 14, "numbikesavailable": 11, "mechanical": 4, "ebike": 7, "is_renting": "OUI", "is_returning": "OUI", "duedate": "2024-06-16T04:51:45+00:00", "coordonnees_geo": {"lon": 2.2487476095557213, "lat": 48.94342014002797}, "nom_arrondissement_communes": "Argenteuil", "code_insee_commune": null}, {"stationcode": "15102", "name": "Square Bela Bartok", "is_installed": "OUI", "capacity": 24, "numdocksavailable": 12, "numbikesavailable": 11, "mechanical": 10, "ebike": 1, "is_renting": "OUI", "is_returning": "OUI", "duedate": "2024-06-16T04:54:17+00:00", "coordonnees_geo": {"lon": 2.2846536710858345, "lat": 48.85120156830401}, "nom_arrondissement_communes": "Paris", "code_insee_commune": null}, {"stationcode": "33016", "name": "Fort d'Aubervilliers", "is_installed": "OUI", "capacity": 22, "numdocksavailable": 6, "numbikesavailable": 15, "mechanical": 11, "ebike": 4, "is_renting": "OUI", "is_returning": "OUI", "duedate": "2024-06-16T04:53:10+00:00", "coordonnees_geo": {"lon": 2.4035281687974925, "lat": 48.91502382370325}, "nom_arrondissement_communes": "Aubervilliers", "code_insee_commune": null}, {"stationcode": "12026", "name": "Place Ginette Hamelin", "is_installed": "OUI", "capacity": 51, "numdocksavailable": 10, "numbikesavailable": 40, "mechanical": 35, "ebike": 5, "is_renting": "OUI", "is_returning": "OUI", "duedate": "2024-06-16T04:54:33+00:00", "coordonnees_geo": {"lon": 2.382064, "lat": 48.837853}, "nom_arrondissement_communes": "Paris", "code_insee_commune": null}, {"stationcode": "17123", "name": "Mstislav Rostropovitch - Berthier", "is_installed": "OUI", "capacity": 18, "numdocksavailable": 17, "numbikesavailable": 1, "mechanical": 1, "ebike": 0, "is_renting": "OUI", "is_returning": "OUI", "duedate": "2024-06-16T04:54:04+00:00", "coordonnees_geo": {"lon": 2.309234105050564, "lat": 48.892120821173975}, "nom_arrondissement_communes": "Paris", "code_insee_commune": null}, {"stationcode": "13009", "name": "Auguste Blanqui - Corvisart", "is_installed": "OUI", "capacity": 26, "numdocksavailable": 25, "numbikesavailable": 1, "mechanical": 1, "ebike": 0, "is_renting": "OUI", "is_returning": "OUI", "duedate": "2024-06-16T04:50:20+00:00", "coordonnees_geo": {"lon": 2.3502726, "lat": 48.8300989}, "nom_arrondissement_communes": "Paris", "code_insee_commune": null}, {"stationcode": "8201", "name": "Ars\u00e8ne Houssaye - Friedland", "is_installed": "OUI", "capacity": 29, "numdocksavailable": 28, "numbikesavailable": 1, "mechanical": 1, "ebike": 0, "is_renting": "OUI", "is_returning": "OUI", "duedate": "2024-06-16T04:52:08+00:00", "coordonnees_geo": {"lon": 2.2994716674148, "lat": 48.874510616163}, "nom_arrondissement_communes": "Paris", "code_insee_commune": null}, {"stationcode": "10162", "name": "Alexandre Parodi - Quai de Valmy", "is_installed": "OUI", "capacity": 24, "numdocksavailable": 10, "numbikesavailable": 12, "mechanical": 6, "ebike": 6, "is_renting": "OUI", "is_returning": "OUI", "duedate": "2024-06-16T04:53:59+00:00", "coordonnees_geo": {"lon": 2.3665961623192, "lat": 48.879359419425}, "nom_arrondissement_communes": "Paris", "code_insee_commune": null}, {"stationcode": "21319", "name": "Esplanade du Foncet - Camille Desmoulins", "is_installed": "OUI", "capacity": 28, "numdocksavailable": 13, "numbikesavailable": 15, "mechanical": 14, "ebike": 1, "is_renting": "OUI", "is_returning": "OUI", "duedate": "2024-06-16T04:47:33+00:00", "coordonnees_geo": {"lon": 2.2606857866048813, "lat": 48.827090233494964}, "nom_arrondissement_communes": "Issy-les-Moulineaux", "code_insee_commune": null}, {"stationcode": "9006", "name": "Dunkerque - Trudaine", "is_installed": "OUI", "capacity": 16, "numdocksavailable": 13, "numbikesavailable": 3, "mechanical": 1, "ebike": 2, "is_renting": "OUI", "is_returning": "OUI", "duedate": "2024-06-16T04:50:05+00:00", "coordonnees_geo": {"lon": 2.3463253676891327, "lat": 48.88215166773376}, "nom_arrondissement_communes": "Paris", "code_insee_commune": null}, {"stationcode": "8116", "name": "Champs-Elysees - Bassano", "is_installed": "OUI", "capacity": 25, "numdocksavailable": 25, "numbikesavailable": 0, "mechanical": 0, "ebike": 0, "is_renting": "NON", "is_returning": "NON", "duedate": "2021-02-21T19:09:18+00:00", "coordonnees_geo": {"lon": 2.300238981843, "lat": 48.871811807816}, "nom_arrondissement_communes": "Paris", "code_insee_commune": null}, {"stationcode": "18030", "name": "Joseph Dijon - Ornano", "is_installed": "OUI", "capacity": 37, "numdocksavailable": 22, "numbikesavailable": 15, "mechanical": 5, "ebike": 10, "is_renting": "OUI", "is_returning": "OUI", "duedate": "2024-06-16T04:51:02+00:00", "coordonnees_geo": {"lon": 2.3476678133010864, "lat": 48.89374453351521}, "nom_arrondissement_communes": "Paris", "code_insee_commune": null}, {"stationcode": "92006", "name": "Place Nelson Mandela", "is_installed": "OUI", "capacity": 30, "numdocksavailable": 27, "numbikesavailable": 3, "mechanical": 1, "ebike": 2, "is_renting": "OUI", "is_returning": "OUI", "duedate": "2024-06-16T04:45:21+00:00", "coordonnees_geo": {"lon": 2.2182820737361912, "lat": 48.897874318180556}, "nom_arrondissement_communes": "Nanterre", "code_insee_commune": null}, {"stationcode": "5024", "name": "Place Monge", "is_installed": "OUI", "capacity": 21, "numdocksavailable": 0, "numbikesavailable": 19, "mechanical": 14, "ebike": 5, "is_renting": "OUI", "is_returning": "OUI", "duedate": "2024-06-16T04:54:21+00:00", "coordonnees_geo": {"lon": 2.3524079471827, "lat": 48.842761803051}, "nom_arrondissement_communes": "Paris", "code_insee_commune": null}, {"stationcode": "21314", "name": "Chemin de Bretagne", "is_installed": "OUI", "capacity": 29, "numdocksavailable": 12, "numbikesavailable": 16, "mechanical": 11, "ebike": 5, "is_renting": "OUI", "is_returning": "OUI", "duedate": "2024-06-16T04:53:15+00:00", "coordonnees_geo": {"lon": 2.2588385956052, "lat": 48.824753068884}, "nom_arrondissement_communes": "Issy-les-Moulineaux", "code_insee_commune": null}, {"stationcode": "12005", "name": "Crozatier - Faubourg Saint-Antoine", "is_installed": "OUI", "capacity": 42, "numdocksavailable": 28, "numbikesavailable": 12, "mechanical": 8, "ebike": 4, "is_renting": "OUI", "is_returning": "OUI", "duedate": "2024-06-16T04:48:54+00:00", "coordonnees_geo": {"lon": 2.378901366211, "lat": 48.850440013405}, "nom_arrondissement_communes": "Paris", "code_insee_commune": null}, {"stationcode": "9034", "name": "Godot de Mauroy - Madeleine", "is_installed": "OUI", "capacity": 22, "numdocksavailable": 7, "numbikesavailable": 12, "mechanical": 9, "ebike": 3, "is_renting": "OUI", "is_returning": "OUI", "duedate": "2024-06-16T04:47:31+00:00", "coordonnees_geo": {"lon": 2.326347, "lat": 48.869789}, "nom_arrondissement_communes": "Paris", "code_insee_commune": null}, {"stationcode": "12035", "name": "Madagascar - Meuniers", "is_installed": "OUI", "capacity": 33, "numdocksavailable": 8, "numbikesavailable": 24, "mechanical": 17, "ebike": 7, "is_renting": "OUI", "is_returning": "OUI", "duedate": "2024-06-16T04:52:54+00:00", "coordonnees_geo": {"lon": 2.3970650508999825, "lat": 48.83460464474706}, "nom_arrondissement_communes": "Paris", "code_insee_commune": null}, {"stationcode": "10021", "name": "March\u00e9 Saint-Quentin", "is_installed": "OUI", "capacity": 15, "numdocksavailable": 3, "numbikesavailable": 12, "mechanical": 7, "ebike": 5, "is_renting": "OUI", "is_returning": "OUI", "duedate": "2024-06-16T04:54:16+00:00", "coordonnees_geo": {"lon": 2.3545114456374, "lat": 48.877356057652}, "nom_arrondissement_communes": "Paris", "code_insee_commune": null}, {"stationcode": "5115", "name": "Buffon - Jardin des Plantes", "is_installed": "OUI", "capacity": 30, "numdocksavailable": 6, "numbikesavailable": 23, "mechanical": 22, "ebike": 1, "is_renting": "OUI", "is_returning": "OUI", "duedate": "2024-06-16T04:53:20+00:00", "coordonnees_geo": {"lon": 2.3618587106466293, "lat": 48.842668466104875}, "nom_arrondissement_communes": "Paris", "code_insee_commune": null}, {"stationcode": "44011", "name": "Lebrun - Colonel Fabien", "is_installed": "OUI", "capacity": 27, "numdocksavailable": 20, "numbikesavailable": 7, "mechanical": 0, "ebike": 7, "is_renting": "OUI", "is_returning": "OUI", "duedate": "2024-06-16T04:49:27+00:00", "coordonnees_geo": {"lon": 2.381317801773548, "lat": 48.78266870733145}, "nom_arrondissement_communes": "Vitry-sur-Seine", "code_insee_commune": null}, {"stationcode": "2108", "name": "Vivienne - Montmartre", "is_installed": "OUI", "capacity": 39, "numdocksavailable": 27, "numbikesavailable": 12, "mechanical": 12, "ebike": 0, "is_renting": "OUI", "is_returning": "OUI", "duedate": "2024-06-16T04:52:17+00:00", "coordonnees_geo": {"lon": 2.3414588347077, "lat": 48.871347597383}, "nom_arrondissement_communes": "Paris", "code_insee_commune": null}, {"stationcode": "12101", "name": "Charenton - Prague", "is_installed": "OUI", "capacity": 26, "numdocksavailable": 14, "numbikesavailable": 12, "mechanical": 9, "ebike": 3, "is_renting": "OUI", "is_returning": "OUI", "duedate": "2024-06-16T04:54:31+00:00", "coordonnees_geo": {"lon": 2.3763584494312, "lat": 48.848175129981}, "nom_arrondissement_communes": "Paris", "code_insee_commune": null}, {"stationcode": "3102", "name": "Bourg l'Abb\u00e9 - Saint-Martin", "is_installed": "OUI", "capacity": 42, "numdocksavailable": 33, "numbikesavailable": 9, "mechanical": 9, "ebike": 0, "is_renting": "OUI", "is_returning": "OUI", "duedate": "2024-06-16T04:52:23+00:00", "coordonnees_geo": {"lon": 2.352406270802021, "lat": 48.86393331949257}, "nom_arrondissement_communes": "Paris", "code_insee_commune": null}, {"stationcode": "8027", "name": "Mairie du 8\u00e8me", "is_installed": "OUI", "capacity": 14, "numdocksavailable": 4, "numbikesavailable": 9, "mechanical": 4, "ebike": 5, "is_renting": "OUI", "is_returning": "OUI", "duedate": "2024-06-16T04:49:04+00:00", "coordonnees_geo": {"lon": 2.318264, "lat": 48.877932}, "nom_arrondissement_communes": "Paris", "code_insee_commune": null}, {"stationcode": "2112", "name": "Biblioth\u00e8que Nationale - Richelieu", "is_installed": "OUI", "capacity": 17, "numdocksavailable": 9, "numbikesavailable": 8, "mechanical": 5, "ebike": 3, "is_renting": "OUI", "is_returning": "OUI", "duedate": "2024-06-16T04:54:09+00:00", "coordonnees_geo": {"lon": 2.3380893096328, "lat": 48.868288993515}, "nom_arrondissement_communes": "Paris", "code_insee_commune": null}, {"stationcode": "21402", "name": "Place Aim\u00e9 C\u00e9saire", "is_installed": "OUI", "capacity": 27, "numdocksavailable": 24, "numbikesavailable": 3, "mechanical": 0, "ebike": 3, "is_renting": "OUI", "is_returning": "OUI", "duedate": "2024-06-16T04:47:14+00:00", "coordonnees_geo": {"lon": 2.2429127991199493, "lat": 48.783194713067815}, "nom_arrondissement_communes": "Clamart", "code_insee_commune": null}, {"stationcode": "13018", "name": "Bruant - Vincent Auriol", "is_installed": "OUI", "capacity": 25, "numdocksavailable": 1, "numbikesavailable": 20, "mechanical": 16, "ebike": 4, "is_renting": "OUI", "is_returning": "OUI", "duedate": "2024-06-16T04:54:29+00:00", "coordonnees_geo": {"lon": 2.3668264996271, "lat": 48.834848452929}, "nom_arrondissement_communes": "Paris", "code_insee_commune": null}, {"stationcode": "23102", "name": "H\u00f4tel de Ville de S\u00e8vres", "is_installed": "OUI", "capacity": 32, "numdocksavailable": 14, "numbikesavailable": 17, "mechanical": 10, "ebike": 7, "is_renting": "OUI", "is_returning": "OUI", "duedate": "2024-06-16T04:52:39+00:00", "coordonnees_geo": {"lon": 2.2131047397851944, "lat": 48.824363561288756}, "nom_arrondissement_communes": "S\u00e8vres", "code_insee_commune": null}, {"stationcode": "33014", "name": "Parc Eli Lotar", "is_installed": "OUI", "capacity": 20, "numdocksavailable": 16, "numbikesavailable": 4, "mechanical": 0, "ebike": 4, "is_renting": "OUI", "is_returning": "OUI", "duedate": "2024-06-16T04:51:41+00:00", "coordonnees_geo": {"lon": 2.3727085813879967, "lat": 48.91844993053703}, "nom_arrondissement_communes": "Aubervilliers", "code_insee_commune": null}, {"stationcode": "15036", "name": "Croix Nivert - Square Saint-Lambert", "is_installed": "OUI", "capacity": 47, "numdocksavailable": 13, "numbikesavailable": 34, "mechanical": 29, "ebike": 5, "is_renting": "OUI", "is_returning": "OUI", "duedate": "2024-06-16T04:53:27+00:00", "coordonnees_geo": {"lon": 2.295200452208519, "lat": 48.8430515215905}, "nom_arrondissement_communes": "Paris", "code_insee_commune": null}, {"stationcode": "14011", "name": "Place des Droits de l'Enfant", "is_installed": "OUI", "capacity": 24, "numdocksavailable": 10, "numbikesavailable": 14, "mechanical": 1, "ebike": 13, "is_renting": "OUI", "is_returning": "OUI", "duedate": "2024-06-16T04:50:27+00:00", "coordonnees_geo": {"lon": 2.3319217, "lat": 48.8274804}, "nom_arrondissement_communes": "Paris", "code_insee_commune": null}, {"stationcode": "6002", "name": "Saint-Beno\u00eet - Jacob", "is_installed": "OUI", "capacity": 23, "numdocksavailable": 10, "numbikesavailable": 13, "mechanical": 12, "ebike": 1, "is_renting": "OUI", "is_returning": "OUI", "duedate": "2024-06-16T04:52:31+00:00", "coordonnees_geo": {"lon": 2.3334722220897675, "lat": 48.85545136013941}, "nom_arrondissement_communes": "Paris", "code_insee_commune": null}, {"stationcode": "16019", "name": "Porte de la Muette", "is_installed": "OUI", "capacity": 36, "numdocksavailable": 33, "numbikesavailable": 1, "mechanical": 0, "ebike": 1, "is_renting": "OUI", "is_returning": "OUI", "duedate": "2024-06-16T04:52:20+00:00", "coordonnees_geo": {"lon": 2.2687188170157406, "lat": 48.86302317841182}, "nom_arrondissement_communes": "Paris", "code_insee_commune": null}, {"stationcode": "2013", "name": "Favart - Italiens", "is_installed": "OUI", "capacity": 17, "numdocksavailable": 14, "numbikesavailable": 3, "mechanical": 3, "ebike": 0, "is_renting": "OUI", "is_returning": "OUI", "duedate": "2024-06-16T04:52:37+00:00", "coordonnees_geo": {"lon": 2.3382901058508, "lat": 48.871446353921}, "nom_arrondissement_communes": "Paris", "code_insee_commune": null}, {"stationcode": "11033", "name": "Br\u00e9guet - Sabin", "is_installed": "OUI", "capacity": 33, "numdocksavailable": 23, "numbikesavailable": 8, "mechanical": 6, "ebike": 2, "is_renting": "OUI", "is_returning": "OUI", "duedate": "2024-06-16T04:51:21+00:00", "coordonnees_geo": {"lon": 2.3706749462105, "lat": 48.856931678257}, "nom_arrondissement_communes": "Paris", "code_insee_commune": null}, {"stationcode": "10033", "name": "Gare du Nord - Saint-Vincent de Paul", "is_installed": "OUI", "capacity": 24, "numdocksavailable": 16, "numbikesavailable": 6, "mechanical": 5, "ebike": 1, "is_renting": "OUI", "is_returning": "OUI", "duedate": "2024-06-16T04:53:15+00:00", "coordonnees_geo": {"lon": 2.3524305148385, "lat": 48.880955741648}, "nom_arrondissement_communes": "Paris", "code_insee_commune": null}, {"stationcode": "10024", "name": "Buisson Saint-Louis - Saint-Maur", "is_installed": "OUI", "capacity": 19, "numdocksavailable": 6, "numbikesavailable": 13, "mechanical": 7, "ebike": 6, "is_renting": "OUI", "is_returning": "OUI", "duedate": "2024-06-16T04:51:49+00:00", "coordonnees_geo": {"lon": 2.372252832879, "lat": 48.871746849303}, "nom_arrondissement_communes": "Paris", "code_insee_commune": null}, {"stationcode": "18039", "name": "Jardins d'Eole", "is_installed": "OUI", "capacity": 20, "numdocksavailable": 1, "numbikesavailable": 19, "mechanical": 7, "ebike": 12, "is_renting": "OUI", "is_returning": "OUI", "duedate": "2024-06-16T04:53:37+00:00", "coordonnees_geo": {"lon": 2.3668488, "lat": 48.8869703}, "nom_arrondissement_communes": "Paris", "code_insee_commune": null}, {"stationcode": "5007", "name": "Ecoles - Carmes", "is_installed": "OUI", "capacity": 36, "numdocksavailable": 29, "numbikesavailable": 6, "mechanical": 6, "ebike": 0, "is_renting": "OUI", "is_returning": "OUI", "duedate": "2024-06-16T04:52:55+00:00", "coordonnees_geo": {"lon": 2.3473486304283147, "lat": 48.848904447989405}, "nom_arrondissement_communes": "Paris", "code_insee_commune": null}, {"stationcode": "16105", "name": "Crevaux - Bugeaud", "is_installed": "OUI", "capacity": 31, "numdocksavailable": 14, "numbikesavailable": 13, "mechanical": 11, "ebike": 2, "is_renting": "OUI", "is_returning": "OUI", "duedate": "2024-06-16T04:50:42+00:00", "coordonnees_geo": {"lon": 2.281149007691853, "lat": 48.870809428669546}, "nom_arrondissement_communes": "Paris", "code_insee_commune": null}, {"stationcode": "10008", "name": "Cit\u00e9 Riverin - Ch\u00e2teau d'Eau", "is_installed": "OUI", "capacity": 18, "numdocksavailable": 4, "numbikesavailable": 13, "mechanical": 12, "ebike": 1, "is_renting": "OUI", "is_returning": "OUI", "duedate": "2024-06-16T04:53:15+00:00", "coordonnees_geo": {"lon": 2.358739863900845, "lat": 48.870702423554306}, "nom_arrondissement_communes": "Paris", "code_insee_commune": null}, {"stationcode": "8117", "name": "Place de la Madeleine - Royale", "is_installed": "OUI", "capacity": 43, "numdocksavailable": 32, "numbikesavailable": 11, "mechanical": 7, "ebike": 4, "is_renting": "OUI", "is_returning": "OUI", "duedate": "2024-06-16T04:54:34+00:00", "coordonnees_geo": {"lon": 2.324421107769, "lat": 48.869228052648}, "nom_arrondissement_communes": "Paris", "code_insee_commune": null}, {"stationcode": "10032", "name": "Claude Vellefaux - H\u00f4pital Saint-Louis", "is_installed": "OUI", "capacity": 32, "numdocksavailable": 18, "numbikesavailable": 12, "mechanical": 9, "ebike": 3, "is_renting": "OUI", "is_returning": "OUI", "duedate": "2024-06-16T04:52:50+00:00", "coordonnees_geo": {"lon": 2.3700717069851, "lat": 48.872859139003}, "nom_arrondissement_communes": "Paris", "code_insee_commune": null}, {"stationcode": "14001", "name": "Edgar Quinet - Gait\u00e9", "is_installed": "OUI", "capacity": 27, "numdocksavailable": 21, "numbikesavailable": 5, "mechanical": 2, "ebike": 3, "is_renting": "OUI", "is_returning": "OUI", "duedate": "2024-06-16T04:50:49+00:00", "coordonnees_geo": {"lon": 2.324595451355, "lat": 48.841160928966}, "nom_arrondissement_communes": "Paris", "code_insee_commune": null}, {"stationcode": "18139", "name": "Poissonniers - Championnet", "is_installed": "OUI", "capacity": 28, "numdocksavailable": 6, "numbikesavailable": 22, "mechanical": 6, "ebike": 16, "is_renting": "OUI", "is_returning": "OUI", "duedate": "2024-06-16T04:51:31+00:00", "coordonnees_geo": {"lon": 2.3530178144574165, "lat": 48.89543299733937}, "nom_arrondissement_communes": "Paris", "code_insee_commune": null}, {"stationcode": "1006", "name": "Grande Truanderie - Saint-Denis", "is_installed": "OUI", "capacity": 33, "numdocksavailable": 25, "numbikesavailable": 5, "mechanical": 4, "ebike": 1, "is_renting": "OUI", "is_returning": "OUI", "duedate": "2024-06-16T04:50:00+00:00", "coordonnees_geo": {"lon": 2.3498075, "lat": 48.8626302}, "nom_arrondissement_communes": "Paris", "code_insee_commune": null}, {"stationcode": "19110", "name": "Square Claude Bernard", "is_installed": "OUI", "capacity": 30, "numdocksavailable": 24, "numbikesavailable": 4, "mechanical": 0, "ebike": 4, "is_renting": "OUI", "is_returning": "OUI", "duedate": "2024-06-16T04:54:27+00:00", "coordonnees_geo": {"lon": 2.375325746834278, "lat": 48.89876016219984}, "nom_arrondissement_communes": "Paris", "code_insee_commune": null}, {"stationcode": "18202", "name": "Diane Arbus", "is_installed": "OUI", "capacity": 38, "numdocksavailable": 1, "numbikesavailable": 35, "mechanical": 11, "ebike": 24, "is_renting": "OUI", "is_returning": "OUI", "duedate": "2024-06-16T04:49:42+00:00", "coordonnees_geo": {"lon": 2.3524022474885, "lat": 48.898800717199}, "nom_arrondissement_communes": "Paris", "code_insee_commune": null}, {"stationcode": "6010", "name": "Chevreuse - Montparnasse", "is_installed": "OUI", "capacity": 15, "numdocksavailable": 11, "numbikesavailable": 4, "mechanical": 4, "ebike": 0, "is_renting": "OUI", "is_returning": "OUI", "duedate": "2024-06-16T04:51:10+00:00", "coordonnees_geo": {"lon": 2.3315522167367, "lat": 48.841739161231}, "nom_arrondissement_communes": "Paris", "code_insee_commune": null}, {"stationcode": "45002", "name": "Roger Salengro - G\u00e9n\u00e9ral de Gaulle", "is_installed": "OUI", "capacity": 27, "numdocksavailable": 4, "numbikesavailable": 22, "mechanical": 15, "ebike": 7, "is_renting": "OUI", "is_returning": "OUI", "duedate": "2024-06-16T04:52:00+00:00", "coordonnees_geo": {"lon": 2.4846760556101803, "lat": 48.820029010376956}, "nom_arrondissement_communes": "Champigny-sur-Marne", "code_insee_commune": null}, {"stationcode": "12037", "name": "Reuilly - Daumesnil", "is_installed": "OUI", "capacity": 36, "numdocksavailable": 22, "numbikesavailable": 13, "mechanical": 4, "ebike": 9, "is_renting": "OUI", "is_returning": "OUI", "duedate": "2024-06-16T04:53:12+00:00", "coordonnees_geo": {"lon": 2.3972516, "lat": 48.8395385}, "nom_arrondissement_communes": "Paris", "code_insee_commune": null}, {"stationcode": "1007", "name": "Turbigo - Fran\u00e7aise", "is_installed": "OUI", "capacity": 16, "numdocksavailable": 10, "numbikesavailable": 3, "mechanical": 1, "ebike": 2, "is_renting": "OUI", "is_returning": "OUI", "duedate": "2024-06-16T04:52:53+00:00", "coordonnees_geo": {"lon": 2.3477794602513313, "lat": 48.86358858111446}, "nom_arrondissement_communes": "Paris", "code_insee_commune": null}, {"stationcode": "16037", "name": "Molitor - Michel-Ange", "is_installed": "OUI", "capacity": 51, "numdocksavailable": 39, "numbikesavailable": 11, "mechanical": 10, "ebike": 1, "is_renting": "OUI", "is_returning": "OUI", "duedate": "2024-06-16T04:47:52+00:00", "coordonnees_geo": {"lon": 2.26211277356597, "lat": 48.845182081538034}, "nom_arrondissement_communes": "Paris", "code_insee_commune": null}, {"stationcode": "18004", "name": "Place des Abbesses", "is_installed": "OUI", "capacity": 12, "numdocksavailable": 0, "numbikesavailable": 12, "mechanical": 10, "ebike": 2, "is_renting": "OUI", "is_returning": "OUI", "duedate": "2024-06-16T04:53:33+00:00", "coordonnees_geo": {"lon": 2.3386867716908455, "lat": 48.884542726149725}, "nom_arrondissement_communes": "Paris", "code_insee_commune": null}, {"stationcode": "20034", "name": "Sorbier - M\u00e9nilmontant", "is_installed": "OUI", "capacity": 24, "numdocksavailable": 18, "numbikesavailable": 3, "mechanical": 0, "ebike": 3, "is_renting": "OUI", "is_returning": "OUI", "duedate": "2024-06-16T04:50:31+00:00", "coordonnees_geo": {"lon": 2.3897721245884895, "lat": 48.86854239566069}, "nom_arrondissement_communes": "Paris", "code_insee_commune": null}, {"stationcode": "7012", "name": "Cit\u00e9 Vaneau", "is_installed": "OUI", "capacity": 26, "numdocksavailable": 5, "numbikesavailable": 21, "mechanical": 16, "ebike": 5, "is_renting": "OUI", "is_returning": "OUI", "duedate": "2024-06-16T04:54:15+00:00", "coordonnees_geo": {"lon": 2.319614924490452, "lat": 48.8542210666207}, "nom_arrondissement_communes": "Paris", "code_insee_commune": null}, {"stationcode": "21309", "name": "Mairie d'Issy", "is_installed": "OUI", "capacity": 41, "numdocksavailable": 1, "numbikesavailable": 37, "mechanical": 34, "ebike": 3, "is_renting": "OUI", "is_returning": "OUI", "duedate": "2024-06-16T04:54:13+00:00", "coordonnees_geo": {"lon": 2.27231115102768, "lat": 48.8237677924683}, "nom_arrondissement_communes": "Issy-les-Moulineaux", "code_insee_commune": null}, {"stationcode": "3010", "name": "Beaubourg - Michel-le-Comte", "is_installed": "OUI", "capacity": 17, "numdocksavailable": 9, "numbikesavailable": 7, "mechanical": 4, "ebike": 3, "is_renting": "OUI", "is_returning": "OUI", "duedate": "2024-06-16T04:48:04+00:00", "coordonnees_geo": {"lon": 2.3543103039265, "lat": 48.862534941806}, "nom_arrondissement_communes": "Paris", "code_insee_commune": null}, {"stationcode": "12156", "name": "Niger - Soult", "is_installed": "OUI", "capacity": 24, "numdocksavailable": 12, "numbikesavailable": 10, "mechanical": 4, "ebike": 6, "is_renting": "OUI", "is_returning": "OUI", "duedate": "2024-06-16T04:48:38+00:00", "coordonnees_geo": {"lon": 2.410361237220498, "lat": 48.84369906369085}, "nom_arrondissement_communes": "Paris", "code_insee_commune": null}, {"stationcode": "18140", "name": "Porte de Clignancourt - Ney", "is_installed": "OUI", "capacity": 40, "numdocksavailable": 18, "numbikesavailable": 22, "mechanical": 4, "ebike": 18, "is_renting": "OUI", "is_returning": "OUI", "duedate": "2024-06-16T04:54:03+00:00", "coordonnees_geo": {"lon": 2.344321422278881, "lat": 48.899641123987095}, "nom_arrondissement_communes": "Paris", "code_insee_commune": null}, {"stationcode": "13005", "name": "Cordeli\u00e8res - Arago", "is_installed": "OUI", "capacity": 46, "numdocksavailable": 4, "numbikesavailable": 40, "mechanical": 35, "ebike": 5, "is_renting": "OUI", "is_returning": "OUI", "duedate": "2024-06-16T04:54:06+00:00", "coordonnees_geo": {"lon": 2.348572461702221, "lat": 48.83548071896613}, "nom_arrondissement_communes": "Paris", "code_insee_commune": null}, {"stationcode": "6104", "name": "Herschel - Observatoire", "is_installed": "OUI", "capacity": 37, "numdocksavailable": 35, "numbikesavailable": 1, "mechanical": 1, "ebike": 0, "is_renting": "OUI", "is_returning": "OUI", "duedate": "2024-06-16T04:51:35+00:00", "coordonnees_geo": {"lon": 2.3376645147800446, "lat": 48.84342376221923}, "nom_arrondissement_communes": "Paris", "code_insee_commune": null}, {"stationcode": "19010", "name": "Emile Reynaud - Porte de la Villette", "is_installed": "OUI", "capacity": 22, "numdocksavailable": 3, "numbikesavailable": 17, "mechanical": 9, "ebike": 8, "is_renting": "OUI", "is_returning": "OUI", "duedate": "2024-06-16T04:45:44+00:00", "coordonnees_geo": {"lon": 2.3887022584676743, "lat": 48.90098953630053}, "nom_arrondissement_communes": "Paris", "code_insee_commune": null}]