[{"stationcode": "21029", "name": "Cours de l'Ile Seguin - Parc Billancourt", "is_installed": "OUI", "capacity": 29, "numdocksavailable": 23, "numbikesavailable": 6, "mechanical": 4, "ebike": 2, "is_renting": "OUI", "is_returning": "OUI", "duedate": "2024-06-16T15:55:40+00:00", "coordonnees_geo": {"lon": 2.234234511852265, "lat": 48.82714055843935}, "nom_arrondissement_communes": "Boulogne-Billancourt", "code_insee_commune": null}, {"stationcode": "10153", "name": "Gare du Nord - Denain", "is_installed": "OUI", "capacity": 20, "numdocksavailable": 16, "numbikesavailable": 3, "mechanical": 0, "ebike": 3, "is_renting": "OUI", "is_returning": "OUI", "duedate": "2024-06-16T15:51:42+00:00", "coordonnees_geo": {"lon": 2.3544725775719, "lat": 48.879595787608}, "nom_arrondissement_communes": "Paris", "code_insee_commune": null}, {"stationcode": "16003", "name": "Andr\u00e9 Maurois - Joseph et Marie Hackin", "is_installed": "OUI", "capacity": 29, "numdocksavailable": 25, "numbikesavailable": 4, "mechanical": 0, "ebike": 4, "is_renting": "OUI", "is_returning": "OUI", "duedate": "2024-06-16T15:53:15+00:00", "coordonnees_geo": {"lon": 2.2789591, "lat": 48.8778983}, "nom_arrondissement_communes": "Paris", "code_insee_commune": null}, {"stationcode": "16014", "name": "Eylau - Trocad\u00e9ro", "is_installed": "OUI", "capacity": 24, "numdocksavailable": 24, "numbikesavailable": 0, "mechanical": 0, "ebike": 0, "is_renting": "OUI", "is_returning": "OUI", "duedate": "2024-06-16T15:54:25+00:00", "coordonnees_geo": {"lon": 2.2864209115505, "lat": 48.863354122371}, "nom_arrondissement_communes": "Paris", "code_insee_commune": null}, {"stationcode": "21316", "name": "Cimeti\u00e8re d'Issy-les-Moulineaux", "is_installed": "OUI", "capacity": 24, "numdocksavailable": 22, "numbikesavailable": 2, "mechanical": 0, "ebike": 2, "is_renting": "OUI", "is_returning": "OUI", "duedate": "2024-06-16T15:54:42+00:00", "coordonnees_geo": {"lon": 2.2609312087297, "lat": 48.817699773925}, "nom_arrondissement_communes": "Issy-les-Moulineaux", "code_insee_commune": null}, {"stationcode": "42304", "name": "Marc Sangnier - Division Leclerc", "is_installed": "OUI", "capacity": 24, "numdocksavailable": 7, "numbikesavailable": 16, "mechanical": 11, "ebike": 5, "is_renting": "OUI", "is_returning": "OUI", "duedate": "2024-06-16T15:55:34+00:00", "coordonnees_geo": {"lon": 2.329955510795116, "lat": 48.78599652305309}, "nom_arrondissement_communes": "Cachan", "code_insee_commune": null}, {"stationcode": "11109", "name": "Pierre Lev\u00e9e - Fontaine Timbaud", "is_installed": "OUI", "capacity": 23, "numdocksavailable": 0, "numbikesavailable": 21, "mechanical": 10, "ebike": 11, "is_renting": "OUI", "is_returning": "OUI", "duedate": "2024-06-16T15:53:34+00:00", "coordonnees_geo": {"lon": 2.3711163550615306, "lat": 48.86632723374305}, "nom_arrondissement_communes": "Paris", "code_insee_commune": null}, {"stationcode": "15052", "name": "Convention - Vaugirard", "is_installed": "OUI", "capacity": 48, "numdocksavailable": 4, "numbikesavailable": 43, "mechanical": 36, "ebike": 7, "is_renting": "OUI", "is_returning": "OUI", "duedate": "2024-06-16T15:55:32+00:00", "coordonnees_geo": {"lon": 2.295586926020252, "lat": 48.83767682233156}, "nom_arrondissement_communes": "Paris", "code_insee_commune": null}, {"stationcode": "44002", "name": "Paul Vaillant-Couturier - Gare RER", "is_installed": "OUI", "capacity": 26, "numdocksavailable": 6, "numbikesavailable": 19, "mechanical": 15, "ebike": 4, "is_renting": "OUI", "is_returning": "OUI", "duedate": "2024-06-16T15:55:40+00:00", "coordonnees_geo": {"lon": 2.402097210288048, "lat": 48.80108159069614}, "nom_arrondissement_communes": "Vitry-sur-Seine", "code_insee_commune": null}, {"stationcode": "16115", "name": "Raffet - Montmorency", "is_installed": "OUI", "capacity": 42, "numdocksavailable": 32, "numbikesavailable": 9, "mechanical": 3, "ebike": 6, "is_renting": "OUI", "is_returning": "OUI", "duedate": "2024-06-16T15:54:06+00:00", "coordonnees_geo": {"lon": 2.2629252456151954, "lat": 48.85258670812}, "nom_arrondissement_communes": "Paris", "code_insee_commune": null}, {"stationcode": "21030", "name": "Fessart - Ch\u00e2teau", "is_installed": "OUI", "capacity": 20, "numdocksavailable": 11, "numbikesavailable": 8, "mechanical": 6, "ebike": 2, "is_renting": "OUI", "is_returning": "OUI", "duedate": "2024-06-16T15:55:07+00:00", "coordonnees_geo": {"lon": 2.23989, "lat": 48.84245}, "nom_arrondissement_communes": "Boulogne-Billancourt", "code_insee_commune": null}, {"stationcode": "21031", "name": "Cimeti\u00e8re de Boulogne-Billancourt", "is_installed": "OUI", "capacity": 40, "numdocksavailable": 21, "numbikesavailable": 19, "mechanical": 14, "ebike": 5, "is_renting": "OUI", "is_returning": "OUI", "duedate": "2024-06-16T15:54:27+00:00", "coordonnees_geo": {"lon": 2.252024, "lat": 48.830764}, "nom_arrondissement_communes": "Boulogne-Billancourt", "code_insee_commune": null}, {"stationcode": "16024", "name": "Ranelagh - Maison de la Radio", "is_installed": "OUI", "capacity": 22, "numdocksavailable": 6, "numbikesavailable": 16, "mechanical": 14, "ebike": 2, "is_renting": "OUI", "is_returning": "OUI", "duedate": "2024-06-16T15:53:48+00:00", "coordonnees_geo": {"lon": 2.280449643731117, "lat": 48.85293603169479}, "nom_arrondissement_communes": "Paris", "code_insee_commune": null}, {"stationcode": "15043", "name": "Brancion - Lefebvre", "is_installed": "OUI", "capacity": 11, "numdocksavailable": 8, "numbikesavailable": 1, "mechanical": 0, "ebike": 1, "is_renting": "OUI", "is_returning": "OUI", "duedate": "2024-06-16T15:54:21+00:00", "coordonnees_geo": {"lon": 2.301431038163409, "lat": 48.82900222785569}, "nom_arrondissement_communes": "Paris", "code_insee_commune": null}, {"stationcode": "17039", "name": "Place Saint-Ferdinand", "is_installed": "OUI", "capacity": 38, "numdocksavailable": 32, "numbikesavailable": 5, "mechanical": 0, "ebike": 5, "is_renting": "OUI", "is_returning": "OUI", "duedate": "2024-06-16T15:54:43+00:00", "coordonnees_geo": {"lon": 2.288518047864942, "lat": 48.87815529789739}, "nom_arrondissement_communes": "Paris", "code_insee_commune": null}, {"stationcode": "10012", "name": "Vinaigriers - Magenta", "is_installed": "OUI", "capacity": 25, "numdocksavailable": 1, "numbikesavailable": 24, "mechanical": 20, "ebike": 4, "is_renting": "OUI", "is_returning": "OUI", "duedate": "2024-06-16T15:55:27+00:00", "coordonnees_geo": {"lon": 2.3593052, "lat": 48.8731167}, "nom_arrondissement_communes": "Paris", "code_insee_commune": null}, {"stationcode": "42305", "name": "Vanne - Saussaies", "is_installed": "OUI", "capacity": 20, "numdocksavailable": 2, "numbikesavailable": 18, "mechanical": 3, "ebike": 15, "is_renting": "OUI", "is_returning": "OUI", "duedate": "2024-06-16T15:54:31+00:00", "coordonnees_geo": {"lon": 2.338848, "lat": 48.786404}, "nom_arrondissement_communes": "Cachan", "code_insee_commune": null}, {"stationcode": "11032", "name": "Jean-Pierre Timbaud - Vaucouleurs", "is_installed": "OUI", "capacity": 47, "numdocksavailable": 29, "numbikesavailable": 17, "mechanical": 6, "ebike": 11, "is_renting": "OUI", "is_returning": "OUI", "duedate": "2024-06-16T15:55:45+00:00", "coordonnees_geo": {"lon": 2.377885, "lat": 48.867937}, "nom_arrondissement_communes": "Paris", "code_insee_commune": null}, {"stationcode": "13121", "name": "Bruneseau - Quai d'Ivry", "is_installed": "OUI", "capacity": 46, "numdocksavailable": 4, "numbikesavailable": 40, "mechanical": 38, "ebike": 2, "is_renting": "OUI", "is_returning": "OUI", "duedate": "2024-06-16T15:55:44+00:00", "coordonnees_geo": {"lon": 2.388566136360169, "lat": 48.82494563758295}, "nom_arrondissement_communes": "Ivry-sur-Seine", "code_insee_commune": null}, {"stationcode": "5107", "name": "Pontoise - La Tournelle", "is_installed": "OUI", "capacity": 23, "numdocksavailable": 5, "numbikesavailable": 18, "mechanical": 17, "ebike": 1, "is_renting": "OUI", "is_returning": "OUI", "duedate": "2024-06-16T15:49:58+00:00", "coordonnees_geo": {"lon": 2.3524542754922, "lat": 48.850458009188}, "nom_arrondissement_communes": "Paris", "code_insee_commune": null}, {"stationcode": "10018", "name": "Square Alban Satragne", "is_installed": "OUI", "capacity": 30, "numdocksavailable": 14, "numbikesavailable": 13, "mechanical": 13, "ebike": 0, "is_renting": "OUI", "is_returning": "OUI", "duedate": "2024-06-16T15:53:47+00:00", "coordonnees_geo": {"lon": 2.3559567333359, "lat": 48.875388227727}, "nom_arrondissement_communes": "Paris", "code_insee_commune": null}, {"stationcode": "20007", "name": "Buzenval - Avron", "is_installed": "OUI", "capacity": 50, "numdocksavailable": 24, "numbikesavailable": 24, "mechanical": 10, "ebike": 14, "is_renting": "OUI", "is_returning": "OUI", "duedate": "2024-06-16T15:53:01+00:00", "coordonnees_geo": {"lon": 2.401513597307666, "lat": 48.851617204998654}, "nom_arrondissement_communes": "Paris", "code_insee_commune": null}, {"stationcode": "32301", "name": "Mairie de Romainville", "is_installed": "OUI", "capacity": 17, "numdocksavailable": 15, "numbikesavailable": 2, "mechanical": 0, "ebike": 2, "is_renting": "OUI", "is_returning": "OUI", "duedate": "2024-06-16T15:54:49+00:00", "coordonnees_geo": {"lon": 2.435679, "lat": 48.885109}, "nom_arrondissement_communes": "Romainville", "code_insee_commune": null}, {"stationcode": "12043", "name": "Daumesnil - H\u00e9brard", "is_installed": "OUI", "capacity": 40, "numdocksavailable": 14, "numbikesavailable": 23, "mechanical": 16, "ebike": 7, "is_renting": "OUI", "is_returning": "OUI", "duedate": "2024-06-16T15:54:45+00:00", "coordonnees_geo": {"lon": 2.38474, "lat": 48.8429}, "nom_arrondissement_communes": "Paris", "code_insee_commune": null}, {"stationcode": "20108", "name": "Jardin de l'Hospice Debrousse", "is_installed": "OUI", "capacity": 23, "numdocksavailable": 22, "numbikesavailable": 0, "mechanical": 0, "ebike": 0, "is_renting": "OUI", "is_returning": "OUI", "duedate": "2024-06-16T15:48:26+00:00", "coordonnees_geo": {"lon": 2.40568600595, "lat": 48.861451061938}, "nom_arrondissement_communes": "Paris", "code_insee_commune": null}, {"stationcode": "13011", "name": "H\u00f4pital - Campo-Formio", "is_installed": "OUI", "capacity": 7, "numdocksavailable": 3, "numbikesavailable": 2, "mechanical": 2, "ebike": 0, "is_renting": "OUI", "is_returning": "OUI", "duedate": "2024-06-16T15:50:15+00:00", "coordonnees_geo": {"lon": 2.358218, "lat": 48.835405}, "nom_arrondissement_communes": "Paris", "code_insee_commune": null}, {"stationcode": "32001", "name": "Proudhon - Pr\u00e9sident Wilson", "is_installed": "OUI", "capacity": 30, "numdocksavailable": 25, "numbikesavailable": 5, "mechanical": 4, "ebike": 1, "is_renting": "OUI", "is_returning": "OUI", "duedate": "2024-06-16T15:54:38+00:00", "coordonnees_geo": {"lon": 2.3584905266762, "lat": 48.906442763495}, "nom_arrondissement_communes": "Saint-Denis", "code_insee_commune": null}, {"stationcode": "5014", "name": "Jean Calvin - Tournefort", "is_installed": "OUI", "capacity": 28, "numdocksavailable": 22, "numbikesavailable": 6, "mechanical": 4, "ebike": 2, "is_renting": "OUI", "is_returning": "OUI", "duedate": "2024-06-16T15:55:39+00:00", "coordonnees_geo": {"lon": 2.348489575088024, "lat": 48.84158856925782}, "nom_arrondissement_communes": "Paris", "code_insee_commune": null}, {"stationcode": "8549", "name": "George V - Christophe Colomb", "is_installed": "OUI", "capacity": 24, "numdocksavailable": 20, "numbikesavailable": 4, "mechanical": 3, "ebike": 1, "is_renting": "OUI", "is_returning": "OUI", "duedate": "2024-06-16T15:52:17+00:00", "coordonnees_geo": {"lon": 2.30104, "lat": 48.87046}, "nom_arrondissement_communes": "Paris", "code_insee_commune": null}, {"stationcode": "23902", "name": "Gallieni - Lyc\u00e9e Charles Petitet", "is_installed": "OUI", "capacity": 45, "numdocksavailable": 32, "numbikesavailable": 12, "mechanical": 10, "ebike": 2, "is_renting": "OUI", "is_returning": "OUI", "duedate": "2024-06-16T15:55:34+00:00", "coordonnees_geo": {"lon": 2.3308986340524, "lat": 48.927640283627}, "nom_arrondissement_communes": "Villeneuve-la-Garenne", "code_insee_commune": null}, {"stationcode": "42701", "name": "Charles Gide - Fort de Bic\u00eatre", "is_installed": "OUI", "capacity": 30, "numdocksavailable": 25, "numbikesavailable": 5, "mechanical": 0, "ebike": 5, "is_renting": "OUI", "is_returning": "OUI", "duedate": "2024-06-16T15:48:20+00:00", "coordonnees_geo": {"lon": 2.353984415531159, "lat": 48.8071937956922}, "nom_arrondissement_communes": "Le Kremlin-Bic\u00eatre", "code_insee_commune": null}, {"stationcode": "16020", "name": "Place de la Porte de Passy", "is_installed": "OUI", "capacity": 36, "numdocksavailable": 26, "numbikesavailable": 9, "mechanical": 7, "ebike": 2, "is_renting": "OUI", "is_returning": "OUI", "duedate": "2024-06-16T15:55:42+00:00", "coordonnees_geo": {"lon": 2.2644165538827115, "lat": 48.857341095470794}, "nom_arrondissement_communes": "Paris", "code_insee_commune": null}, {"stationcode": "18027", "name": "Damr\u00e9mont - Ordener", "is_installed": "OUI", "capacity": 30, "numdocksavailable": 24, "numbikesavailable": 6, "mechanical": 1, "ebike": 5, "is_renting": "OUI", "is_returning": "OUI", "duedate": "2024-06-16T15:55:43+00:00", "coordonnees_geo": {"lon": 2.336266523912805, "lat": 48.893400392981874}, "nom_arrondissement_communes": "Paris", "code_insee_commune": null}, {"stationcode": "13126", "name": "Place Nationale - Ch\u00e2teau-des-Rentiers", "is_installed": "OUI", "capacity": 18, "numdocksavailable": 15, "numbikesavailable": 2, "mechanical": 1, "ebike": 1, "is_renting": "OUI", "is_returning": "OUI", "duedate": "2024-06-16T15:51:42+00:00", "coordonnees_geo": {"lon": 2.365212, "lat": 48.829268}, "nom_arrondissement_communes": "Paris", "code_insee_commune": null}, {"stationcode": "14101", "name": "Gare Montparnasse - Edgar Quinet", "is_installed": "OUI", "capacity": 33, "numdocksavailable": 31, "numbikesavailable": 1, "mechanical": 0, "ebike": 1, "is_renting": "OUI", "is_returning": "OUI", "duedate": "2024-06-16T15:55:45+00:00", "coordonnees_geo": {"lon": 2.3233232282801, "lat": 48.841487851079}, "nom_arrondissement_communes": "Paris", "code_insee_commune": null}, {"stationcode": "8020", "name": "Batignolles - Beudant", "is_installed": "OUI", "capacity": 44, "numdocksavailable": 41, "numbikesavailable": 3, "mechanical": 1, "ebike": 2, "is_renting": "OUI", "is_returning": "OUI", "duedate": "2024-06-16T15:55:40+00:00", "coordonnees_geo": {"lon": 2.319852970540523, "lat": 48.88216401466375}, "nom_arrondissement_communes": "Paris", "code_insee_commune": null}, {"stationcode": "15023", "name": "La Motte-Picquet - Grenelle", "is_installed": "OUI", "capacity": 34, "numdocksavailable": 5, "numbikesavailable": 29, "mechanical": 27, "ebike": 2, "is_renting": "OUI", "is_returning": "OUI", "duedate": "2024-06-16T15:55:03+00:00", "coordonnees_geo": {"lon": 2.299347817897797, "lat": 48.84858321339195}, "nom_arrondissement_communes": "Paris", "code_insee_commune": null}, {"stationcode": "4001", "name": "Arcole - Notre-Dame", "is_installed": "OUI", "capacity": 31, "numdocksavailable": 7, "numbikesavailable": 23, "mechanical": 17, "ebike": 6, "is_renting": "OUI", "is_returning": "OUI", "duedate": "2024-06-16T15:52:53+00:00", "coordonnees_geo": {"lon": 2.3493797332048, "lat": 48.853883541328}, "nom_arrondissement_communes": "Paris", "code_insee_commune": null}, {"stationcode": "14010", "name": "Jean Moulin - Place Victor et H\u00e9l\u00e8ne Basch", "is_installed": "OUI", "capacity": 41, "numdocksavailable": 37, "numbikesavailable": 3, "mechanical": 0, "ebike": 3, "is_renting": "OUI", "is_returning": "OUI", "duedate": "2024-06-16T15:52:20+00:00", "coordonnees_geo": {"lon": 2.3261967301369, "lat": 48.82764910241}, "nom_arrondissement_communes": "Paris", "code_insee_commune": null}, {"stationcode": "17023", "name": "Porte d'Asni\u00e8res", "is_installed": "OUI", "capacity": 36, "numdocksavailable": 29, "numbikesavailable": 5, "mechanical": 3, "ebike": 2, "is_renting": "OUI", "is_returning": "OUI", "duedate": "2024-06-16T15:55:29+00:00", "coordonnees_geo": {"lon": 2.3036286234855656, "lat": 48.89035817610495}, "nom_arrondissement_communes": "Paris", "code_insee_commune": null}, {"stationcode": "19108", "name": "Gaston Tessier - Rosa Parks RER", "is_installed": "OUI", "capacity": 37, "numdocksavailable": 17, "numbikesavailable": 18, "mechanical": 13, "ebike": 5, "is_renting": "OUI", "is_returning": "OUI", "duedate": "2024-06-16T15:55:24+00:00", "coordonnees_geo": {"lon": 2.3743692, "lat": 48.8963765}, "nom_arrondissement_communes": "Paris", "code_insee_commune": null}, {"stationcode": "4002", "name": "March\u00e9 aux fleurs", "is_installed": "OUI", "capacity": 23, "numdocksavailable": 6, "numbikesavailable": 14, "mechanical": 12, "ebike": 2, "is_renting": "OUI", "is_returning": "OUI", "duedate": "2024-06-16T15:53:58+00:00", "coordonnees_geo": {"lon": 2.3473754525185, "lat": 48.855258115391}, "nom_arrondissement_communes": "Paris", "code_insee_commune": null}, {"stationcode": "44007", "name": "Camille Groult - Guy M\u00f4quet", "is_installed": "OUI", "capacity": 22, "numdocksavailable": 4, "numbikesavailable": 18, "mechanical": 13, "ebike": 5, "is_renting": "OUI", "is_returning": "OUI", "duedate": "2024-06-16T15:52:15+00:00", "coordonnees_geo": {"lon": 2.3976725712418556, "lat": 48.787482746521306}, "nom_arrondissement_communes": "Vitry-sur-Seine", "code_insee_commune": null}, {"stationcode": "4016", "name": "Lobau - H\u00f4tel de Ville", "is_installed": "OUI", "capacity": 60, "numdocksavailable": 0, "numbikesavailable": 60, "mechanical": 42, "ebike": 18, "is_renting": "OUI", "is_returning": "OUI", "duedate": "2024-06-16T15:54:22+00:00", "coordonnees_geo": {"lon": 2.3532536, "lat": 48.8562118}, "nom_arrondissement_communes": "Paris", "code_insee_commune": null}, {"stationcode": "43001", "name": "Paris - Laiti\u00e8res", "is_installed": "OUI", "capacity": 22, "numdocksavailable": 9, "numbikesavailable": 11, "mechanical": 5, "ebike": 6, "is_renting": "OUI", "is_returning": "OUI", "duedate": "2024-06-16T15:55:02+00:00", "coordonnees_geo": {"lon": 2.4207553267478947, "lat": 48.84630274151258}, "nom_arrondissement_communes": "Vincennes", "code_insee_commune": null}, {"stationcode": "13106", "name": "Bobillot - Paulin Mery", "is_installed": "OUI", "capacity": 23, "numdocksavailable": 23, "numbikesavailable": 0, "mechanical": 0, "ebike": 0, "is_renting": "OUI", "is_returning": "OUI", "duedate": "2024-06-16T15:53:01+00:00", "coordonnees_geo": {"lon": 2.3543356766748507, "lat": 48.829899841747384}, "nom_arrondissement_communes": "Paris", "code_insee_commune": null}, {"stationcode": "15030", "name": "Emeriau - Beaugrenelle", "is_installed": "OUI", "capacity": 74, "numdocksavailable": 5, "numbikesavailable": 68, "mechanical": 60, "ebike": 8, "is_renting": "OUI", "is_returning": "OUI", "duedate": "2024-06-16T15:55:17+00:00", "coordonnees_geo": {"lon": 2.2843059897422795, "lat": 48.84791249714942}, "nom_arrondissement_communes": "Paris", "code_insee_commune": null}, {"stationcode": "16011", "name": "Victor Hugo - La Pompe", "is_installed": "OUI", "capacity": 41, "numdocksavailable": 31, "numbikesavailable": 9, "mechanical": 3, "ebike": 6, "is_renting": "OUI", "is_returning": "OUI", "duedate": "2024-06-16T15:55:19+00:00", "coordonnees_geo": {"lon": 2.28146318346262, "lat": 48.86795222470859}, "nom_arrondissement_communes": "Paris", "code_insee_commune": null}, {"stationcode": "12007", "name": "Gare de Lyon - Chalon", "is_installed": "OUI", "capacity": 45, "numdocksavailable": 39, "numbikesavailable": 5, "mechanical": 5, "ebike": 0, "is_renting": "OUI", "is_returning": "OUI", "duedate": "2024-06-16T15:55:45+00:00", "coordonnees_geo": {"lon": 2.3741452395916, "lat": 48.845666194202}, "nom_arrondissement_communes": "Paris", "code_insee_commune": null}, {"stationcode": "35007", "name": "Benjamin Delessert - Jean Lolive", "is_installed": "OUI", "capacity": 21, "numdocksavailable": 15, "numbikesavailable": 5, "mechanical": 0, "ebike": 5, "is_renting": "OUI", "is_returning": "OUI", "duedate": "2024-06-16T15:53:23+00:00", "coordonnees_geo": {"lon": 2.417981922626496, "lat": 48.89392043619345}, "nom_arrondissement_communes": "Pantin", "code_insee_commune": null}, {"stationcode": "10165", "name": "Gare de l'Est - Place du 11 Novembre 1918", "is_installed": "OUI", "capacity": 40, "numdocksavailable": 33, "numbikesavailable": 3, "mechanical": 2, "ebike": 1, "is_renting": "OUI", "is_returning": "OUI", "duedate": "2024-06-16T15:54:20+00:00", "coordonnees_geo": {"lon": 2.3585464, "lat": 48.876327}, "nom_arrondissement_communes": "Paris", "code_insee_commune": null}, {"stationcode": "22303", "name": "Lucien Lanternier - Le Luth", "is_installed": "OUI", "capacity": 27, "numdocksavailable": 7, "numbikesavailable": 19, "mechanical": 12, "ebike": 7, "is_renting": "OUI", "is_returning": "OUI", "duedate": "2024-06-16T15:54:15+00:00", "coordonnees_geo": {"lon": 2.2889783978462224, "lat": 48.93159430558871}, "nom_arrondissement_communes": "Gennevilliers", "code_insee_commune": null}, {"stationcode": "92001", "name": "Mairie de quartier du Plateau - Mont-Val\u00e9rien", "is_installed": "OUI", "capacity": 20, "numdocksavailable": 14, "numbikesavailable": 6, "mechanical": 1, "ebike": 5, "is_renting": "OUI", "is_returning": "OUI", "duedate": "2024-06-16T15:52:44+00:00", "coordonnees_geo": {"lon": 2.2072437, "lat": 48.8799933}, "nom_arrondissement_communes": "Nanterre", "code_insee_commune": null}, {"stationcode": "43010", "name": "La Jarry - Place Diderot", "is_installed": "OUI", "capacity": 25, "numdocksavailable": 21, "numbikesavailable": 4, "mechanical": 0, "ebike": 4, "is_renting": "OUI", "is_returning": "OUI", "duedate": "2024-06-16T15:51:51+00:00", "coordonnees_geo": {"lon": 2.452013790607453, "lat": 48.849726940367326}, "nom_arrondissement_communes": "Vincennes", "code_insee_commune": null}, {"stationcode": "21204", "name": "Estienne d'Orves - Henri Ginoux", "is_installed": "OUI", "capacity": 31, "numdocksavailable": 23, "numbikesavailable": 7, "mechanical": 2, "ebike": 5, "is_renting": "OUI", "is_returning": "OUI", "duedate": "2024-06-16T16:55:28+00:00", "coordonnees_geo": {"lon": 2.320886790760933, "lat": 48.815388220397274}, "nom_arrondissement_communes": "Montrouge", "code_insee_commune": null}, {"stationcode": "43001", "name": "Paris - Laiti\u00e8res", "is_installed": "OUI", "capacity": 22, "numdocksavailable": 9, "numbikesavailable": 11, "mechanical": 6, "ebike": 5, "is_renting": "OUI", "is_returning": "OUI", "duedate": "2024-06-16T16:51:09+00:00", "coordonnees_geo": {"lon": 2.4207553267478947, "lat": 48.84630274151258}, "nom_arrondissement_communes": "Vincennes", "code_insee_commune": null}, {"stationcode": "22206", "name": "Louis Pasteur - Albert Petit", "is_installed": "OUI", "capacity": 31, "numdocksavailable": 30, "numbikesavailable": 1, "mechanical": 0, "ebike": 1, "is_renting": "OUI", "is_returning": "OUI", "duedate": "2024-06-16T16:53:18+00:00", "coordonnees_geo": {"lon": 2.317289, "lat": 48.796261}, "nom_arrondissement_communes": "Bagneux", "code_insee_commune": null}, {"stationcode": "13106", "name": "Bobillot - Paulin Mery", "is_installed": "OUI", "capacity": 23, "numdocksavailable": 21, "numbikesavailable": 2, "mechanical": 0, "ebike": 2, "is_renting": "OUI", "is_returning": "OUI", "duedate": "2024-06-16T16:53:41+00:00", "coordonnees_geo": {"lon": 2.3543356766748507, "lat": 48.829899841747384}, "nom_arrondissement_communes": "Paris", "code_insee_commune": null}, {"stationcode": "21217", "name": "Louis Rolland - R\u00e9publique", "is_installed": "OUI", "capacity": 26, "numdocksavailable": 24, "numbikesavailable": 2, "mechanical": 0, "ebike": 2, "is_renting": "OUI", "is_returning": "OUI", "duedate": "2024-06-16T16:55:03+00:00", "coordonnees_geo": {"lon": 2.3193106434955717, "lat": 48.81710889740748}, "nom_arrondissement_communes": "Montrouge", "code_insee_commune": null}, {"stationcode": "15030", "name": "Emeriau - Beaugrenelle", "is_installed": "OUI", "capacity": 74, "numdocksavailable": 12, "numbikesavailable": 61, "mechanical": 57, "ebike": 4, "is_renting": "OUI", "is_returning": "OUI", "duedate": "2024-06-16T16:55:19+00:00", "coordonnees_geo": {"lon": 2.2843059897422795, "lat": 48.84791249714942}, "nom_arrondissement_communes": "Paris", "code_insee_commune": null}, {"stationcode": "9114", "name": "Faubourg Poissonni\u00e8re - Dunkerque", "is_installed": "OUI", "capacity": 30, "numdocksavailable": 27, "numbikesavailable": 3, "mechanical": 3, "ebike": 0, "is_renting": "OUI", "is_returning": "OUI", "duedate": "2024-06-16T16:54:25+00:00", "coordonnees_geo": {"lon": 2.349934279918671, "lat": 48.880883445404436}, "nom_arrondissement_communes": "Paris", "code_insee_commune": null}, {"stationcode": "16011", "name": "Victor Hugo - La Pompe", "is_installed": "OUI", "capacity": 41, "numdocksavailable": 27, "numbikesavailable": 13, "mechanical": 4, "ebike": 9, "is_renting": "OUI", "is_returning": "OUI", "duedate": "2024-06-16T16:55:41+00:00", "coordonnees_geo": {"lon": 2.28146318346262, "lat": 48.86795222470859}, "nom_arrondissement_communes": "Paris", "code_insee_commune": null}, {"stationcode": "12007", "name": "Gare de Lyon - Chalon", "is_installed": "OUI", "capacity": 45, "numdocksavailable": 41, "numbikesavailable": 3, "mechanical": 0, "ebike": 3, "is_renting": "OUI", "is_returning": "OUI", "duedate": "2024-06-16T16:55:33+00:00", "coordonnees_geo": {"lon": 2.3741452395916, "lat": 48.845666194202}, "nom_arrondissement_communes": "Paris", "code_insee_commune": null}, {"stationcode": "44101", "name": "Place Mongolfier", "is_installed": "OUI", "capacity": 39, "numdocksavailable": 8, "numbikesavailable": 31, "mechanical": 28, "ebike": 3, "is_renting": "OUI", "is_returning": "OUI", "duedate": "2024-06-16T16:54:43+00:00", "coordonnees_geo": {"lon": 2.4592879414558415, "lat": 48.815160030060376}, "nom_arrondissement_communes": "Saint-Maurice", "code_insee_commune": null}, {"stationcode": "43010", "name": "La Jarry - Place Diderot", "is_installed": "OUI", "capacity": 25, "numdocksavailable": 23, "numbikesavailable": 2, "mechanical": 0, "ebike": 2, "is_renting": "OUI", "is_returning": "OUI", "duedate": "2024-06-16T16:55:32+00:00", "coordonnees_geo": {"lon": 2.452013790607453, "lat": 48.849726940367326}, "nom_arrondissement_communes": "Vincennes", "code_insee_commune": null}, {"stationcode": "15004", "name": "Vaugirard - Pasteur", "is_installed": "OUI", "capacity": 21, "numdocksavailable": 14, "numbikesavailable": 5, "mechanical": 1, "ebike": 4, "is_renting": "OUI", "is_returning": "OUI", "duedate": "2024-06-16T16:52:14+00:00", "coordonnees_geo": {"lon": 2.3154367133975033, "lat": 48.84040868803496}, "nom_arrondissement_communes": "Paris", "code_insee_commune": null}, {"stationcode": "19128", "name": "Quai de l'Oise - Aisne", "is_installed": "OUI", "capacity": 30, "numdocksavailable": 22, "numbikesavailable": 5, "mechanical": 1, "ebike": 4, "is_renting": "OUI", "is_returning": "OUI", "duedate": "2024-06-16T16:55:51+00:00", "coordonnees_geo": {"lon": 2.3833701, "lat": 48.8906231}, "nom_arrondissement_communes": "Paris", "code_insee_commune": null}, {"stationcode": "18006", "name": "Square Louise Michel", "is_installed": "OUI", "capacity": 36, "numdocksavailable": 27, "numbikesavailable": 5, "mechanical": 2, "ebike": 3, "is_renting": "OUI", "is_returning": "OUI", "duedate": "2024-06-16T16:55:21+00:00", "coordonnees_geo": {"lon": 2.3441386967897, "lat": 48.884687354509}, "nom_arrondissement_communes": "Paris", "code_insee_commune": null}, {"stationcode": "13044", "name": "Place Jeanne d'Arc", "is_installed": "OUI", "capacity": 36, "numdocksavailable": 26, "numbikesavailable": 10, "mechanical": 6, "ebike": 4, "is_renting": "OUI", "is_returning": "OUI", "duedate": "2024-06-16T16:55:07+00:00", "coordonnees_geo": {"lon": 2.369126, "lat": 48.829575}, "nom_arrondissement_communes": "Paris", "code_insee_commune": null}, {"stationcode": "9027", "name": "Douai - Pierre Fontaine", "is_installed": "OUI", "capacity": 25, "numdocksavailable": 22, "numbikesavailable": 2, "mechanical": 0, "ebike": 2, "is_renting": "OUI", "is_returning": "OUI", "duedate": "2024-06-16T16:55:31+00:00", "coordonnees_geo": {"lon": 2.33324121683836, "lat": 48.88229101148092}, "nom_arrondissement_communes": "Paris", "code_insee_commune": null}, {"stationcode": "15022", "name": "Emile Zola - Fondary", "is_installed": "OUI", "capacity": 42, "numdocksavailable": 2, "numbikesavailable": 11, "mechanical": 11, "ebike": 0, "is_renting": "OUI", "is_returning": "OUI", "duedate": "2024-06-16T16:53:45+00:00", "coordonnees_geo": {"lon": 2.2953405976295476, "lat": 48.847051143113745}, "nom_arrondissement_communes": "Paris", "code_insee_commune": null}, {"stationcode": "16001", "name": "Portugais - Kl\u00e9ber", "is_installed": "OUI", "capacity": 26, "numdocksavailable": 24, "numbikesavailable": 2, "mechanical": 1, "ebike": 1, "is_renting": "OUI", "is_returning": "OUI", "duedate": "2024-06-16T16:46:10+00:00", "coordonnees_geo": {"lon": 2.2937349, "lat": 48.8712148}, "nom_arrondissement_communes": "Paris", "code_insee_commune": null}, {"stationcode": "8037", "name": "Monceau - Malesherbes", "is_installed": "OUI", "capacity": 38, "numdocksavailable": 30, "numbikesavailable": 8, "mechanical": 8, "ebike": 0, "is_renting": "OUI", "is_returning": "OUI", "duedate": "2024-06-16T16:55:53+00:00", "coordonnees_geo": {"lon": 2.3145456, "lat": 48.8795079}, "nom_arrondissement_communes": "Paris", "code_insee_commune": null}, {"stationcode": "33015", "name": "Charles Tillon - Cimeti\u00e8re Communal", "is_installed": "OUI", "capacity": 30, "numdocksavailable": 13, "numbikesavailable": 17, "mechanical": 11, "ebike": 6, "is_renting": "OUI", "is_returning": "OUI", "duedate": "2024-06-16T16:55:48+00:00", "coordonnees_geo": {"lon": 2.3935630917549138, "lat": 48.91844023641836}, "nom_arrondissement_communes": "Aubervilliers", "code_insee_commune": null}, {"stationcode": "7017", "name": "La Motte-Picquet - La Tour Maubourg", "is_installed": "OUI", "capacity": 40, "numdocksavailable": 16, "numbikesavailable": 24, "mechanical": 23, "ebike": 1, "is_renting": "OUI", "is_returning": "OUI", "duedate": "2024-06-16T16:55:43+00:00", "coordonnees_geo": {"lon": 2.3096215831203, "lat": 48.856926701847}, "nom_arrondissement_communes": "Paris", "code_insee_commune": null}, {"stationcode": "12018", "name": "Saint-Mand\u00e9 - Fabre d'Eglantine", "is_installed": "OUI", "capacity": 34, "numdocksavailable": 29, "numbikesavailable": 5, "mechanical": 5, "ebike": 0, "is_renting": "OUI", "is_returning": "OUI", "duedate": "2024-06-16T16:52:52+00:00", "coordonnees_geo": {"lon": 2.3965022, "lat": 48.8453579}, "nom_arrondissement_communes": "Paris", "code_insee_commune": null}, {"stationcode": "44016", "name": "Balzac - Olympes de Gouges", "is_installed": "OUI", "capacity": 28, "numdocksavailable": 6, "numbikesavailable": 22, "mechanical": 13, "ebike": 9, "is_renting": "OUI", "is_returning": "OUI", "duedate": "2024-06-16T16:54:09+00:00", "coordonnees_geo": {"lon": 2.4006786569952965, "lat": 48.77850332486751}, "nom_arrondissement_communes": "Vitry-sur-Seine", "code_insee_commune": null}, {"stationcode": "51002", "name": "Placette Gr\u00e9goire Collas", "is_installed": "OUI", "capacity": 25, "numdocksavailable": 19, "numbikesavailable": 6, "mechanical": 1, "ebike": 5, "is_renting": "OUI", "is_returning": "OUI", "duedate": "2024-06-16T16:54:16+00:00", "coordonnees_geo": {"lon": 2.2487476095557213, "lat": 48.94342014002797}, "nom_arrondissement_communes": "Argenteuil", "code_insee_commune": null}, {"stationcode": "32601", "name": "Porte des Lilas - Faidherbe", "is_installed": "OUI", "capacity": 39, "numdocksavailable": 28, "numbikesavailable": 11, "mechanical": 6, "ebike": 5, "is_renting": "OUI", "is_returning": "OUI", "duedate": "2024-06-16T16:55:48+00:00", "coordonnees_geo": {"lon": 2.4120327830314636, "lat": 48.87861855668978}, "nom_arrondissement_communes": "Les Lilas", "code_insee_commune": null}, {"stationcode": "9024", "name": "Taitbout - La Fayette", "is_installed": "OUI", "capacity": 53, "numdocksavailable": 23, "numbikesavailable": 29, "mechanical": 26, "ebike": 3, "is_renting": "OUI", "is_returning": "OUI", "duedate": "2024-06-16T16:54:52+00:00", "coordonnees_geo": {"lon": 2.3352625966072, "lat": 48.8733298892}, "nom_arrondissement_communes": "Paris", "code_insee_commune": null}, {"stationcode": "10162", "name": "Alexandre Parodi - Quai de Valmy", "is_installed": "OUI", "capacity": 24, "numdocksavailable": 17, "numbikesavailable": 7, "mechanical": 4, "ebike": 3, "is_renting": "OUI", "is_returning": "OUI", "duedate": "2024-06-16T16:52:08+00:00", "coordonnees_geo": {"lon": 2.3665961623192, "lat": 48.879359419425}, "nom_arrondissement_communes": "Paris", "code_insee_commune": null}, {"stationcode": "21319", "name": "Esplanade du Foncet - Camille Desmoulins", "is_installed": "OUI", "capacity": 28, "numdocksavailable": 6, "numbikesavailable": 22, "mechanical": 20, "ebike": 2, "is_renting": "OUI", "is_returning": "OUI", "duedate": "2024-06-16T16:55:36+00:00", "coordonnees_geo": {"lon": 2.2606857866048813, "lat": 48.827090233494964}, "nom_arrondissement_communes": "Issy-les-Moulineaux", "code_insee_commune": null}, {"stationcode": "9006", "name": "Dunkerque - Trudaine", "is_installed": "OUI", "capacity": 16, "numdocksavailable": 14, "numbikesavailable": 2, "mechanical": 0, "ebike": 2, "is_renting": "OUI", "is_returning": "OUI", "duedate": "2024-06-16T16:53:57+00:00", "coordonnees_geo": {"lon": 2.3463253676891327, "lat": 48.88215166773376}, "nom_arrondissement_communes": "Paris", "code_insee_commune": null}, {"stationcode": "8116", "name": "Champs-Elysees - Bassano", "is_installed": "OUI", "capacity": 25, "numdocksavailable": 25, "numbikesavailable": 0, "mechanical": 0, "ebike": 0, "is_renting": "NON", "is_returning": "NON", "duedate": "2021-02-21T19:09:18+00:00", "coordonnees_geo": {"lon": 2.300238981843, "lat": 48.871811807816}, "nom_arrondissement_communes": "Paris", "code_insee_commune": null}, {"stationcode": "92006", "name": "Place Nelson Mandela", "is_installed": "OUI", "capacity": 30, "numdocksavailable": 28, "numbikesavailable": 2, "mechanical": 1, "ebike": 1, "is_renting": "OUI", "is_returning": "OUI", "duedate": "2024-06-16T16:53:47+00:00", "coordonnees_geo": {"lon": 2.2182820737361912, "lat": 48.897874318180556}, "nom_arrondissement_communes": "Nanterre", "code_insee_commune": null}, {"stationcode": "31005", "name": "Square Denise Buisson", "is_installed": "OUI", "capacity": 45, "numdocksavailable": 34, "numbikesavailable": 10, "mechanical": 3, "ebike": 7, "is_renting": "OUI", "is_returning": "OUI", "duedate": "2024-06-16T16:51:02+00:00", "coordonnees_geo": {"lon": 2.426436245441437, "lat": 48.8562322730982}, "nom_arrondissement_communes": "Montreuil", "code_insee_commune": null}, {"stationcode": "21314", "name": "Chemin de Bretagne", "is_installed": "OUI", "capacity": 29, "numdocksavailable": 12, "numbikesavailable": 17, "mechanical": 11, "ebike": 6, "is_renting": "OUI", "is_returning": "OUI", "duedate": "2024-06-16T16:54:59+00:00", "coordonnees_geo": {"lon": 2.2588385956052, "lat": 48.824753068884}, "nom_arrondissement_communes": "Issy-les-Moulineaux", "code_insee_commune": null}, {"stationcode": "12155", "name": "Rottembourg - G\u00e9n\u00e9ral Michel Bizot", "is_installed": "OUI", "capacity": 43, "numdocksavailable": 15, "numbikesavailable": 27, "mechanical": 23, "ebike": 4, "is_renting": "OUI", "is_returning": "OUI", "duedate": "2024-06-16T16:53:24+00:00", "coordonnees_geo": {"lon": 2.4044052511453633, "lat": 48.83787825992554}, "nom_arrondissement_communes": "Paris", "code_insee_commune": null}, {"stationcode": "12028", "name": "Vivaldi - Antoine-Julien H\u00e9nard", "is_installed": "OUI", "capacity": 27, "numdocksavailable": 18, "numbikesavailable": 9, "mechanical": 7, "ebike": 2, "is_renting": "OUI", "is_returning": "OUI", "duedate": "2024-06-16T16:53:30+00:00", "coordonnees_geo": {"lon": 2.389728979467376, "lat": 48.841923663276546}, "nom_arrondissement_communes": "Paris", "code_insee_commune": null}, {"stationcode": "9034", "name": "Godot de Mauroy - Madeleine", "is_installed": "OUI", "capacity": 22, "numdocksavailable": 6, "numbikesavailable": 14, "mechanical": 11, "ebike": 3, "is_renting": "OUI", "is_returning": "OUI", "duedate": "2024-06-16T16:50:40+00:00", "coordonnees_geo": {"lon": 2.326347, "lat": 48.869789}, "nom_arrondissement_communes": "Paris", "code_insee_commune": null}, {"stationcode": "12035", "name": "Madagascar - Meuniers", "is_installed": "OUI", "capacity": 33, "numdocksavailable": 17, "numbikesavailable": 15, "mechanical": 13, "ebike": 2, "is_renting": "OUI", "is_returning": "OUI", "duedate": "2024-06-16T16:54:27+00:00", "coordonnees_geo": {"lon": 2.3970650508999825, "lat": 48.83460464474706}, "nom_arrondissement_communes": "Paris", "code_insee_commune": null}, {"stationcode": "5115", "name": "Buffon - Jardin des Plantes", "is_installed": "OUI", "capacity": 30, "numdocksavailable": 3, "numbikesavailable": 25, "mechanical": 24, "ebike": 1, "is_renting": "OUI", "is_returning": "OUI", "duedate": "2024-06-16T16:55:00+00:00", "coordonnees_geo": {"lon": 2.3618587106466293, "lat": 48.842668466104875}, "nom_arrondissement_communes": "Paris", "code_insee_commune": null}, {"stationcode": "44011", "name": "Lebrun - Colonel Fabien", "is_installed": "OUI", "capacity": 27, "numdocksavailable": 21, "numbikesavailable": 6, "mechanical": 0, "ebike": 6, "is_renting": "OUI", "is_returning": "OUI", "duedate": "2024-06-16T16:48:18+00:00", "coordonnees_geo": {"lon": 2.381317801773548, "lat": 48.78266870733145}, "nom_arrondissement_communes": "Vitry-sur-Seine", "code_insee_commune": null}, {"stationcode": "21707", "name": "Square Etienne Jarousse", "is_installed": "OUI", "capacity": 25, "numdocksavailable": 20, "numbikesavailable": 4, "mechanical": 0, "ebike": 4, "is_renting": "OUI", "is_returning": "OUI", "duedate": "2024-06-16T16:55:27+00:00", "coordonnees_geo": {"lon": 2.2925933450460434, "lat": 48.82485182597129}, "nom_arrondissement_communes": "Vanves", "code_insee_commune": null}, {"stationcode": "15129", "name": "H\u00f4pital Necker", "is_installed": "OUI", "capacity": 40, "numdocksavailable": 13, "numbikesavailable": 27, "mechanical": 20, "ebike": 7, "is_renting": "OUI", "is_returning": "OUI", "duedate": "2024-06-16T16:55:27+00:00", "coordonnees_geo": {"lon": 2.313245013356209, "lat": 48.846043490118454}, "nom_arrondissement_communes": "Paris", "code_insee_commune": null}, {"stationcode": "3102", "name": "Bourg l'Abb\u00e9 - Saint-Martin", "is_installed": "OUI", "capacity": 42, "numdocksavailable": 15, "numbikesavailable": 26, "mechanical": 25, "ebike": 1, "is_renting": "OUI", "is_returning": "OUI", "duedate": "2024-06-16T16:55:14+00:00", "coordonnees_geo": {"lon": 2.352406270802021, "lat": 48.86393331949257}, "nom_arrondissement_communes": "Paris", "code_insee_commune": null}, {"stationcode": "20015", "name": "Bagnolet - Orteaux", "is_installed": "OUI", "capacity": 36, "numdocksavailable": 23, "numbikesavailable": 13, "mechanical": 1, "ebike": 12, "is_renting": "OUI", "is_returning": "OUI", "duedate": "2024-06-16T16:54:42+00:00", "coordonnees_geo": {"lon": 2.3984125256538396, "lat": 48.85708641027236}, "nom_arrondissement_communes": "Paris", "code_insee_commune": null}, {"stationcode": "51001", "name": "Gare d'Argenteuil", "is_installed": "OUI", "capacity": 40, "numdocksavailable": 22, "numbikesavailable": 18, "mechanical": 12, "ebike": 6, "is_renting": "OUI", "is_returning": "OUI", "duedate": "2024-06-16T16:53:32+00:00", "coordonnees_geo": {"lon": 2.256898172199726, "lat": 48.947022436806705}, "nom_arrondissement_communes": "Argenteuil", "code_insee_commune": null}, {"stationcode": "8027", "name": "Mairie du 8\u00e8me", "is_installed": "OUI", "capacity": 14, "numdocksavailable": 9, "numbikesavailable": 4, "mechanical": 1, "ebike": 3, "is_renting": "OUI", "is_returning": "OUI", "duedate": "2024-06-16T16:54:57+00:00", "coordonnees_geo": {"lon": 2.318264, "lat": 48.877932}, "nom_arrondissement_communes": "Paris", "code_insee_commune": null}, {"stationcode": "21315", "name": "Jules Guesdes - G\u00e9n\u00e9ral de Gaulle", "is_installed": "OUI", "capacity": 24, "numdocksavailable": 20, "numbikesavailable": 3, "mechanical": 0, "ebike": 3, "is_renting": "OUI", "is_returning": "OUI", "duedate": "2024-06-16T16:53:46+00:00", "coordonnees_geo": {"lon": 2.278934195637703, "lat": 48.81930581291959}, "nom_arrondissement_communes": "Issy-les-Moulineaux", "code_insee_commune": null}]