[{"stationcode": "32026", "name": "Leroy des Barres - M\u00e9diath\u00e8que", "is_installed": "OUI", "capacity": 26, "numdocksavailable": 17, "numbikesavailable": 8, "mechanical": 5, "ebike": 3, "is_renting": "OUI", "is_returning": "OUI", "duedate": "2024-06-16T14:49:07+00:00", "coordonnees_geo": {"lon": 2.3681719727966, "lat": 48.928253687082}, "nom_arrondissement_communes": "Saint-Denis", "code_insee_commune": null}, {"stationcode": "9005", "name": "Square d'Anvers", "is_installed": "OUI", "capacity": 33, "numdocksavailable": 28, "numbikesavailable": 4, "mechanical": 0, "ebike": 4, "is_renting": "OUI", "is_returning": "OUI", "duedate": "2024-06-16T14:55:23+00:00", "coordonnees_geo": {"lon": 2.3448844062122, "lat": 48.882633484311}, "nom_arrondissement_communes": "Paris", "code_insee_commune": null}, {"stationcode": "1013", "name": "Place du Palais Royal", "is_installed": "OUI", "capacity": 67, "numdocksavailable": 7, "numbikesavailable": 59, "mechanical": 52, "ebike": 7, "is_renting": "OUI", "is_returning": "OUI", "duedate": "2024-06-16T14:55:34+00:00", "coordonnees_geo": {"lon": 2.3384822532535, "lat": 48.862382970647}, "nom_arrondissement_communes": "Paris", "code_insee_commune": null}, {"stationcode": "8025", "name": "Miromesnil - La Bo\u00e9tie", "is_installed": "OUI", "capacity": 35, "numdocksavailable": 26, "numbikesavailable": 8, "mechanical": 6, "ebike": 2, "is_renting": "OUI", "is_returning": "OUI", "duedate": "2024-06-16T14:51:41+00:00", "coordonnees_geo": {"lon": 2.3158480972052, "lat": 48.873722412917}, "nom_arrondissement_communes": "Paris", "code_insee_commune": null}, {"stationcode": "7102", "name": "Mairie du 7\u00e8me", "is_installed": "OUI", "capacity": 48, "numdocksavailable": 36, "numbikesavailable": 10, "mechanical": 7, "ebike": 3, "is_renting": "OUI", "is_returning": "OUI", "duedate": "2024-06-16T14:54:33+00:00", "coordonnees_geo": {"lon": 2.3192664, "lat": 48.8577967}, "nom_arrondissement_communes": "Paris", "code_insee_commune": null}, {"stationcode": "42504", "name": "Gare RER de Gentilly", "is_installed": "OUI", "capacity": 30, "numdocksavailable": 21, "numbikesavailable": 7, "mechanical": 0, "ebike": 7, "is_renting": "OUI", "is_returning": "OUI", "duedate": "2024-06-16T14:51:35+00:00", "coordonnees_geo": {"lon": 2.3410347104072575, "lat": 48.814280450380224}, "nom_arrondissement_communes": "Gentilly", "code_insee_commune": null}, {"stationcode": "20111", "name": "Villiers de l'Isle Adam - Pyr\u00e9n\u00e9es", "is_installed": "OUI", "capacity": 20, "numdocksavailable": 18, "numbikesavailable": 1, "mechanical": 0, "ebike": 1, "is_renting": "OUI", "is_returning": "OUI", "duedate": "2024-06-16T14:55:03+00:00", "coordonnees_geo": {"lon": 2.396222, "lat": 48.867362}, "nom_arrondissement_communes": "Paris", "code_insee_commune": null}, {"stationcode": "15201", "name": "Place Am\u00e9d\u00e9e Gordini - Lefebvre", "is_installed": "OUI", "capacity": 38, "numdocksavailable": 33, "numbikesavailable": 4, "mechanical": 1, "ebike": 3, "is_renting": "OUI", "is_returning": "OUI", "duedate": "2024-06-16T14:51:51+00:00", "coordonnees_geo": {"lon": 2.2920634208276, "lat": 48.83061737745}, "nom_arrondissement_communes": "Paris", "code_insee_commune": null}, {"stationcode": "11004", "name": "Charonne - Faubourg Saint-Antoine", "is_installed": "OUI", "capacity": 34, "numdocksavailable": 27, "numbikesavailable": 6, "mechanical": 2, "ebike": 4, "is_renting": "OUI", "is_returning": "OUI", "duedate": "2024-06-16T14:55:29+00:00", "coordonnees_geo": {"lon": 2.3740932717919, "lat": 48.852191909696}, "nom_arrondissement_communes": "Paris", "code_insee_commune": null}, {"stationcode": "41402", "name": "Victor Hugo - Ecoles", "is_installed": "OUI", "capacity": 25, "numdocksavailable": 3, "numbikesavailable": 22, "mechanical": 18, "ebike": 4, "is_renting": "OUI", "is_returning": "OUI", "duedate": "2024-06-16T14:54:43+00:00", "coordonnees_geo": {"lon": 2.4180373930262093, "lat": 48.80476007936134}, "nom_arrondissement_communes": "Alfortville", "code_insee_commune": null}, {"stationcode": "11036", "name": "Jules Ferry - Faubourg du Temple Paris", "is_installed": "OUI", "capacity": 58, "numdocksavailable": 11, "numbikesavailable": 41, "mechanical": 35, "ebike": 6, "is_renting": "OUI", "is_returning": "OUI", "duedate": "2024-06-16T14:55:44+00:00", "coordonnees_geo": {"lon": 2.3678933, "lat": 48.868397}, "nom_arrondissement_communes": "Paris", "code_insee_commune": null}, {"stationcode": "12009", "name": "Charenton - Diderot", "is_installed": "OUI", "capacity": 18, "numdocksavailable": 13, "numbikesavailable": 5, "mechanical": 1, "ebike": 4, "is_renting": "OUI", "is_returning": "OUI", "duedate": "2024-06-16T14:54:24+00:00", "coordonnees_geo": {"lon": 2.3793068155646, "lat": 48.846171461187}, "nom_arrondissement_communes": "Paris", "code_insee_commune": null}, {"stationcode": "19125", "name": "Place de l'\u00c9dit de Nantes", "is_installed": "OUI", "capacity": 30, "numdocksavailable": 22, "numbikesavailable": 6, "mechanical": 4, "ebike": 2, "is_renting": "OUI", "is_returning": "OUI", "duedate": "2024-06-16T14:53:54+00:00", "coordonnees_geo": {"lon": 2.3785, "lat": 48.88879}, "nom_arrondissement_communes": "Paris", "code_insee_commune": null}, {"stationcode": "18201", "name": "Tristan Tzara -  Tcha\u00efkovski", "is_installed": "OUI", "capacity": 33, "numdocksavailable": 27, "numbikesavailable": 6, "mechanical": 6, "ebike": 0, "is_renting": "OUI", "is_returning": "OUI", "duedate": "2024-06-16T14:54:36+00:00", "coordonnees_geo": {"lon": 2.3648490384221077, "lat": 48.89490221746837}, "nom_arrondissement_communes": "Paris", "code_insee_commune": null}, {"stationcode": "9021", "name": "Saint Georges - d'Aumale", "is_installed": "OUI", "capacity": 23, "numdocksavailable": 22, "numbikesavailable": 1, "mechanical": 0, "ebike": 1, "is_renting": "OUI", "is_returning": "OUI", "duedate": "2024-06-16T14:50:17+00:00", "coordonnees_geo": {"lon": 2.337429821491241, "lat": 48.87778639599673}, "nom_arrondissement_communes": "Paris", "code_insee_commune": null}, {"stationcode": "12027", "name": "Montgallet - Charenton", "is_installed": "OUI", "capacity": 16, "numdocksavailable": 5, "numbikesavailable": 10, "mechanical": 10, "ebike": 0, "is_renting": "OUI", "is_returning": "OUI", "duedate": "2024-06-16T14:55:38+00:00", "coordonnees_geo": {"lon": 2.3861649278137, "lat": 48.842647778701}, "nom_arrondissement_communes": "Paris", "code_insee_commune": null}, {"stationcode": "8035", "name": "Bienfaisance - Place de Narvik", "is_installed": "OUI", "capacity": 36, "numdocksavailable": 30, "numbikesavailable": 6, "mechanical": 1, "ebike": 5, "is_renting": "OUI", "is_returning": "OUI", "duedate": "2024-06-16T14:51:32+00:00", "coordonnees_geo": {"lon": 2.3129771277308464, "lat": 48.87660163459077}, "nom_arrondissement_communes": "Paris", "code_insee_commune": null}, {"stationcode": "28001", "name": "Richard Wallace - Place du 8 Mai 1945", "is_installed": "OUI", "capacity": 30, "numdocksavailable": 14, "numbikesavailable": 13, "mechanical": 9, "ebike": 4, "is_renting": "OUI", "is_returning": "OUI", "duedate": "2024-06-16T14:55:34+00:00", "coordonnees_geo": {"lon": 2.2420343756675725, "lat": 48.87866794788021}, "nom_arrondissement_communes": "Puteaux", "code_insee_commune": null}, {"stationcode": "16111", "name": "Faustin H\u00e9lie - Desbordes-Valmore", "is_installed": "OUI", "capacity": 33, "numdocksavailable": 29, "numbikesavailable": 1, "mechanical": 1, "ebike": 0, "is_renting": "OUI", "is_returning": "OUI", "duedate": "2024-06-16T14:53:40+00:00", "coordonnees_geo": {"lon": 2.276522, "lat": 48.859403}, "nom_arrondissement_communes": "Paris", "code_insee_commune": null}, {"stationcode": "11007", "name": "Jean Mac\u00e9 - Faidherbe", "is_installed": "OUI", "capacity": 63, "numdocksavailable": 45, "numbikesavailable": 14, "mechanical": 11, "ebike": 3, "is_renting": "OUI", "is_returning": "OUI", "duedate": "2024-06-16T14:55:14+00:00", "coordonnees_geo": {"lon": 2.3828620836139, "lat": 48.85337548426}, "nom_arrondissement_communes": "Paris", "code_insee_commune": null}, {"stationcode": "7015", "name": "Varenne", "is_installed": "OUI", "capacity": 47, "numdocksavailable": 34, "numbikesavailable": 12, "mechanical": 9, "ebike": 3, "is_renting": "OUI", "is_returning": "OUI", "duedate": "2024-06-16T14:54:47+00:00", "coordonnees_geo": {"lon": 2.3152771219611, "lat": 48.857202661803}, "nom_arrondissement_communes": "Paris", "code_insee_commune": null}, {"stationcode": "10113", "name": "Parmentier - H\u00f4pital Saint-Louis", "is_installed": "OUI", "capacity": 43, "numdocksavailable": 34, "numbikesavailable": 8, "mechanical": 6, "ebike": 2, "is_renting": "OUI", "is_returning": "OUI", "duedate": "2024-06-16T14:54:06+00:00", "coordonnees_geo": {"lon": 2.3698963836667, "lat": 48.871379874257}, "nom_arrondissement_communes": "Paris", "code_insee_commune": null}, {"stationcode": "41606", "name": "Pasteur - Gambetta", "is_installed": "OUI", "capacity": 19, "numdocksavailable": 5, "numbikesavailable": 12, "mechanical": 9, "ebike": 3, "is_renting": "OUI", "is_returning": "OUI", "duedate": "2024-06-16T14:52:20+00:00", "coordonnees_geo": {"lon": 2.4236011505126953, "lat": 48.84572797384512}, "nom_arrondissement_communes": "Saint-Mand\u00e9", "code_insee_commune": null}, {"stationcode": "17011", "name": "Fragonard - Porte de Clichy", "is_installed": "OUI", "capacity": 56, "numdocksavailable": 30, "numbikesavailable": 25, "mechanical": 18, "ebike": 7, "is_renting": "OUI", "is_returning": "OUI", "duedate": "2024-06-16T14:52:26+00:00", "coordonnees_geo": {"lon": 2.3143893107772, "lat": 48.894155633419}, "nom_arrondissement_communes": "Paris", "code_insee_commune": null}, {"stationcode": "17045", "name": "Place des Ternes.", "is_installed": "OUI", "capacity": 46, "numdocksavailable": 39, "numbikesavailable": 7, "mechanical": 4, "ebike": 3, "is_renting": "OUI", "is_returning": "OUI", "duedate": "2024-06-16T14:52:23+00:00", "coordonnees_geo": {"lon": 2.297727763652802, "lat": 48.878438631226516}, "nom_arrondissement_communes": "Paris", "code_insee_commune": null}, {"stationcode": "43402", "name": "Place de Verdun", "is_installed": "OUI", "capacity": 40, "numdocksavailable": 25, "numbikesavailable": 15, "mechanical": 15, "ebike": 0, "is_renting": "OUI", "is_returning": "OUI", "duedate": "2024-06-16T14:52:12+00:00", "coordonnees_geo": {"lon": 2.473775, "lat": 48.8202823}, "nom_arrondissement_communes": "Joinville-le-Pont", "code_insee_commune": null}, {"stationcode": "33018", "name": "Edouard Poisson - Victor Hugo", "is_installed": "OUI", "capacity": 30, "numdocksavailable": 8, "numbikesavailable": 21, "mechanical": 5, "ebike": 16, "is_renting": "OUI", "is_returning": "OUI", "duedate": "2024-06-16T14:52:35+00:00", "coordonnees_geo": {"lon": 2.379864752692811, "lat": 48.91118557052621}, "nom_arrondissement_communes": "Aubervilliers", "code_insee_commune": null}, {"stationcode": "21305", "name": "Place Jacques Madaule", "is_installed": "OUI", "capacity": 25, "numdocksavailable": 0, "numbikesavailable": 25, "mechanical": 22, "ebike": 3, "is_renting": "OUI", "is_returning": "OUI", "duedate": "2024-06-16T14:54:40+00:00", "coordonnees_geo": {"lon": 2.2606918215752, "lat": 48.823933787309}, "nom_arrondissement_communes": "Issy-les-Moulineaux", "code_insee_commune": null}, {"stationcode": "21955", "name": "Vaugirard - Verrerie", "is_installed": "NON", "capacity": 0, "numdocksavailable": 0, "numbikesavailable": 0, "mechanical": 0, "ebike": 0, "is_renting": "NON", "is_returning": "NON", "duedate": "2024-05-27T09:10:26+00:00", "coordonnees_geo": {"lon": 2.2367222622987, "lat": 48.820881336842}, "nom_arrondissement_communes": "Meudon", "code_insee_commune": null}, {"stationcode": "23801", "name": "Place de la Gare", "is_installed": "NON", "capacity": 0, "numdocksavailable": 0, "numbikesavailable": 0, "mechanical": 0, "ebike": 0, "is_renting": "NON", "is_returning": "NON", "duedate": "2024-05-27T09:42:00+00:00", "coordonnees_geo": {"lon": 2.1866139007512, "lat": 48.838513582184}, "nom_arrondissement_communes": "Garches", "code_insee_commune": null}, {"stationcode": "23001", "name": "Paul Vaillant Couturier - Chaptal", "is_installed": "OUI", "capacity": 39, "numdocksavailable": 31, "numbikesavailable": 6, "mechanical": 3, "ebike": 3, "is_renting": "OUI", "is_returning": "OUI", "duedate": "2024-06-16T14:54:53+00:00", "coordonnees_geo": {"lon": 2.2775253653526, "lat": 48.893479576183}, "nom_arrondissement_communes": "Levallois-Perret", "code_insee_commune": null}, {"stationcode": "15010", "name": "Square Cambronne", "is_installed": "OUI", "capacity": 59, "numdocksavailable": 8, "numbikesavailable": 48, "mechanical": 46, "ebike": 2, "is_renting": "OUI", "is_returning": "OUI", "duedate": "2024-06-16T14:55:08+00:00", "coordonnees_geo": {"lon": 2.3025691509247, "lat": 48.84756654526}, "nom_arrondissement_communes": "Paris", "code_insee_commune": null}, {"stationcode": "18141", "name": "Clignancourt - Sofia", "is_installed": "OUI", "capacity": 19, "numdocksavailable": 14, "numbikesavailable": 5, "mechanical": 1, "ebike": 4, "is_renting": "OUI", "is_returning": "OUI", "duedate": "2024-06-16T14:48:06+00:00", "coordonnees_geo": {"lon": 2.34719488842051, "lat": 48.88511992309783}, "nom_arrondissement_communes": "Paris", "code_insee_commune": null}, {"stationcode": "7009", "name": "Assembl\u00e9e Nationale", "is_installed": "OUI", "capacity": 76, "numdocksavailable": 65, "numbikesavailable": 9, "mechanical": 3, "ebike": 6, "is_renting": "OUI", "is_returning": "OUI", "duedate": "2024-06-16T14:51:46+00:00", "coordonnees_geo": {"lon": 2.3201214185208, "lat": 48.861411014652}, "nom_arrondissement_communes": "Paris", "code_insee_commune": null}, {"stationcode": "5106", "name": "Cujas - Saint-Michel", "is_installed": "OUI", "capacity": 19, "numdocksavailable": 12, "numbikesavailable": 6, "mechanical": 3, "ebike": 3, "is_renting": "OUI", "is_returning": "OUI", "duedate": "2024-06-16T14:49:43+00:00", "coordonnees_geo": {"lon": 2.341831654854, "lat": 48.848191348584}, "nom_arrondissement_communes": "Paris", "code_insee_commune": null}, {"stationcode": "22505", "name": "Mairie de La Garenne Colombes", "is_installed": "OUI", "capacity": 22, "numdocksavailable": 7, "numbikesavailable": 15, "mechanical": 13, "ebike": 2, "is_renting": "OUI", "is_returning": "OUI", "duedate": "2024-06-16T14:55:03+00:00", "coordonnees_geo": {"lon": 2.24679596722126, "lat": 48.90663823468682}, "nom_arrondissement_communes": "La Garenne-Colombes", "code_insee_commune": null}, {"stationcode": "13045", "name": "Jean Colly - Tolbiac", "is_installed": "OUI", "capacity": 36, "numdocksavailable": 28, "numbikesavailable": 5, "mechanical": 5, "ebike": 0, "is_renting": "OUI", "is_returning": "OUI", "duedate": "2024-06-16T14:52:57+00:00", "coordonnees_geo": {"lon": 2.3705490678548813, "lat": 48.827817291597846}, "nom_arrondissement_communes": "Paris", "code_insee_commune": null}, {"stationcode": "19115", "name": "Porte de la Villette", "is_installed": "OUI", "capacity": 27, "numdocksavailable": 7, "numbikesavailable": 17, "mechanical": 10, "ebike": 7, "is_renting": "OUI", "is_returning": "OUI", "duedate": "2024-06-16T14:53:18+00:00", "coordonnees_geo": {"lon": 2.386150136590004, "lat": 48.89835196548483}, "nom_arrondissement_communes": "Paris", "code_insee_commune": null}, {"stationcode": "14034", "name": "Ouest - Ch\u00e2teau", "is_installed": "OUI", "capacity": 23, "numdocksavailable": 12, "numbikesavailable": 10, "mechanical": 0, "ebike": 10, "is_renting": "OUI", "is_returning": "OUI", "duedate": "2024-06-16T14:54:16+00:00", "coordonnees_geo": {"lon": 2.319392143923804, "lat": 48.83617286014242}, "nom_arrondissement_communes": "Paris", "code_insee_commune": null}, {"stationcode": "32010", "name": "Place aux \u00c9toiles", "is_installed": "OUI", "capacity": 40, "numdocksavailable": 34, "numbikesavailable": 6, "mechanical": 1, "ebike": 5, "is_renting": "OUI", "is_returning": "OUI", "duedate": "2024-06-16T14:45:55+00:00", "coordonnees_geo": {"lon": 2.3523425683379173, "lat": 48.91835629408464}, "nom_arrondissement_communes": "Saint-Denis", "code_insee_commune": null}, {"stationcode": "16018", "name": "Flandrin - Henri Martin", "is_installed": "OUI", "capacity": 18, "numdocksavailable": 10, "numbikesavailable": 7, "mechanical": 3, "ebike": 4, "is_renting": "OUI", "is_returning": "OUI", "duedate": "2024-06-16T14:53:57+00:00", "coordonnees_geo": {"lon": 2.2724174, "lat": 48.8643275}, "nom_arrondissement_communes": "Paris", "code_insee_commune": null}, {"stationcode": "19044", "name": "Grands Moulins de Pantin", "is_installed": "OUI", "capacity": 50, "numdocksavailable": 45, "numbikesavailable": 5, "mechanical": 4, "ebike": 1, "is_renting": "OUI", "is_returning": "OUI", "duedate": "2024-06-16T14:54:15+00:00", "coordonnees_geo": {"lon": 2.3959985375404362, "lat": 48.89738369720229}, "nom_arrondissement_communes": "Paris", "code_insee_commune": null}, {"stationcode": "24002", "name": "Gare de Courbevoie", "is_installed": "OUI", "capacity": 35, "numdocksavailable": 29, "numbikesavailable": 5, "mechanical": 1, "ebike": 4, "is_renting": "OUI", "is_returning": "OUI", "duedate": "2024-06-16T14:50:16+00:00", "coordonnees_geo": {"lon": 2.2506506, "lat": 48.8993867}, "nom_arrondissement_communes": "Courbevoie", "code_insee_commune": null}, {"stationcode": "12201", "name": "Dugommier", "is_installed": "OUI", "capacity": 53, "numdocksavailable": 24, "numbikesavailable": 29, "mechanical": 20, "ebike": 9, "is_renting": "OUI", "is_returning": "OUI", "duedate": "2024-06-16T14:55:17+00:00", "coordonnees_geo": {"lon": 2.3896577954292, "lat": 48.838811048815}, "nom_arrondissement_communes": "Paris", "code_insee_commune": null}, {"stationcode": "33001", "name": "Victor Hugo - Magasins G\u00e9n\u00e9raux", "is_installed": "OUI", "capacity": 34, "numdocksavailable": 26, "numbikesavailable": 8, "mechanical": 2, "ebike": 6, "is_renting": "OUI", "is_returning": "OUI", "duedate": "2024-06-16T14:52:32+00:00", "coordonnees_geo": {"lon": 2.368072383105755, "lat": 48.903281401126755}, "nom_arrondissement_communes": "Aubervilliers", "code_insee_commune": null}, {"stationcode": "16034", "name": "Porte d'Auteuil", "is_installed": "OUI", "capacity": 33, "numdocksavailable": 26, "numbikesavailable": 6, "mechanical": 2, "ebike": 4, "is_renting": "OUI", "is_returning": "OUI", "duedate": "2024-06-16T14:54:17+00:00", "coordonnees_geo": {"lon": 2.2608396783471107, "lat": 48.8479394142243}, "nom_arrondissement_communes": "Paris", "code_insee_commune": null}, {"stationcode": "23802", "name": "Raymond Poincar\u00e9 - All\u00e9e de la Marche", "is_installed": "NON", "capacity": 0, "numdocksavailable": 0, "numbikesavailable": 0, "mechanical": 0, "ebike": 0, "is_renting": "NON", "is_returning": "NON", "duedate": "2024-05-27T09:47:05+00:00", "coordonnees_geo": {"lon": 2.1724102640451, "lat": 48.838634069623}, "nom_arrondissement_communes": "Garches", "code_insee_commune": null}, {"stationcode": "19019", "name": "Petit - Manin", "is_installed": "OUI", "capacity": 22, "numdocksavailable": 16, "numbikesavailable": 4, "mechanical": 2, "ebike": 2, "is_renting": "OUI", "is_returning": "OUI", "duedate": "2024-06-16T14:53:31+00:00", "coordonnees_geo": {"lon": 2.3938155401308374, "lat": 48.88650687534334}, "nom_arrondissement_communes": "Paris", "code_insee_commune": null}, {"stationcode": "42207", "name": "Place des Marseillais", "is_installed": "OUI", "capacity": 37, "numdocksavailable": 30, "numbikesavailable": 6, "mechanical": 3, "ebike": 3, "is_renting": "OUI", "is_returning": "OUI", "duedate": "2024-06-16T14:52:33+00:00", "coordonnees_geo": {"lon": 2.4059280753135686, "lat": 48.82663907252554}, "nom_arrondissement_communes": "Charenton-le-Pont", "code_insee_commune": null}, {"stationcode": "31705", "name": "Champeaux - Gallieni", "is_installed": "OUI", "capacity": 50, "numdocksavailable": 44, "numbikesavailable": 5, "mechanical": 0, "ebike": 5, "is_renting": "OUI", "is_returning": "OUI", "duedate": "2024-06-16T14:55:21+00:00", "coordonnees_geo": {"lon": 2.4161778017878532, "lat": 48.864459134684644}, "nom_arrondissement_communes": "Bagnolet", "code_insee_commune": null}, {"stationcode": "27002", "name": "Parc Pierre Lagrav\u00e8re", "is_installed": "OUI", "capacity": 30, "numdocksavailable": 7, "numbikesavailable": 23, "mechanical": 22, "ebike": 1, "is_renting": "OUI", "is_returning": "OUI", "duedate": "2024-06-16T14:55:33+00:00", "coordonnees_geo": {"lon": 2.239069678491417, "lat": 48.92650488131725}, "nom_arrondissement_communes": "Colombes", "code_insee_commune": null}, {"stationcode": "23701", "name": "Parvis Robert Schuman - Roger Salengro", "is_installed": "OUI", "capacity": 24, "numdocksavailable": 12, "numbikesavailable": 12, "mechanical": 6, "ebike": 6, "is_renting": "OUI", "is_returning": "OUI", "duedate": "2024-06-16T14:49:58+00:00", "coordonnees_geo": {"lon": 2.1921751275658607, "lat": 48.812657470558754}, "nom_arrondissement_communes": "Chaville", "code_insee_commune": null}, {"stationcode": "21502", "name": "Verdun - Place Henri IV", "is_installed": "OUI", "capacity": 26, "numdocksavailable": 11, "numbikesavailable": 14, "mechanical": 8, "ebike": 6, "is_renting": "OUI", "is_returning": "OUI", "duedate": "2024-06-16T14:49:47+00:00", "coordonnees_geo": {"lon": 2.2277003154158592, "lat": 48.870797375639214}, "nom_arrondissement_communes": "Suresnes", "code_insee_commune": null}, {"stationcode": "35019", "name": "Anatole France - Jean Lolive", "is_installed": "OUI", "capacity": 28, "numdocksavailable": 10, "numbikesavailable": 15, "mechanical": 8, "ebike": 7, "is_renting": "OUI", "is_returning": "OUI", "duedate": "2024-06-16T14:55:00+00:00", "coordonnees_geo": {"lon": 2.4253764, "lat": 48.8949922}, "nom_arrondissement_communes": "Pantin", "code_insee_commune": null}, {"stationcode": "20113", "name": "Piat - Parc de Belleville", "is_installed": "OUI", "capacity": 21, "numdocksavailable": 14, "numbikesavailable": 6, "mechanical": 0, "ebike": 6, "is_renting": "OUI", "is_returning": "OUI", "duedate": "2024-06-16T14:54:28+00:00", "coordonnees_geo": {"lon": 2.384981390278095, "lat": 48.87195626635528}, "nom_arrondissement_communes": "Paris", "code_insee_commune": null}, {"stationcode": "6030", "name": "Assas - Vaugirard", "is_installed": "OUI", "capacity": 35, "numdocksavailable": 26, "numbikesavailable": 9, "mechanical": 6, "ebike": 3, "is_renting": "OUI", "is_returning": "OUI", "duedate": "2024-06-16T14:55:37+00:00", "coordonnees_geo": {"lon": 2.3292413726449, "lat": 48.848274111398}, "nom_arrondissement_communes": "Paris", "code_insee_commune": null}, {"stationcode": "41604", "name": "Lagny - Joffre", "is_installed": "OUI", "capacity": 31, "numdocksavailable": 21, "numbikesavailable": 10, "mechanical": 7, "ebike": 3, "is_renting": "OUI", "is_returning": "OUI", "duedate": "2024-06-16T14:47:04+00:00", "coordonnees_geo": {"lon": 2.417949736118317, "lat": 48.84930687084088}, "nom_arrondissement_communes": "Saint-Mand\u00e9", "code_insee_commune": null}, {"stationcode": "15017", "name": "Place Falgui\u00e8re", "is_installed": "OUI", "capacity": 23, "numdocksavailable": 21, "numbikesavailable": 2, "mechanical": 0, "ebike": 2, "is_renting": "OUI", "is_returning": "OUI", "duedate": "2024-06-16T14:51:21+00:00", "coordonnees_geo": {"lon": 2.3104464635252953, "lat": 48.83629973941847}, "nom_arrondissement_communes": "Paris", "code_insee_commune": null}, {"stationcode": "15029", "name": "Emeriau - Place de Brazzaville", "is_installed": "OUI", "capacity": 51, "numdocksavailable": 35, "numbikesavailable": 16, "mechanical": 13, "ebike": 3, "is_renting": "OUI", "is_returning": "OUI", "duedate": "2024-06-16T14:51:11+00:00", "coordonnees_geo": {"lon": 2.2871585190296173, "lat": 48.850785261674964}, "nom_arrondissement_communes": "Paris", "code_insee_commune": null}, {"stationcode": "17018", "name": "Parc Monceau", "is_installed": "OUI", "capacity": 18, "numdocksavailable": 9, "numbikesavailable": 6, "mechanical": 1, "ebike": 5, "is_renting": "OUI", "is_returning": "OUI", "duedate": "2024-06-16T14:49:49+00:00", "coordonnees_geo": {"lon": 2.3095492646098, "lat": 48.881077914129}, "nom_arrondissement_communes": "Paris", "code_insee_commune": null}, {"stationcode": "26001", "name": "Gare d'Asni\u00e8res sur Seine", "is_installed": "OUI", "capacity": 24, "numdocksavailable": 19, "numbikesavailable": 5, "mechanical": 3, "ebike": 2, "is_renting": "OUI", "is_returning": "OUI", "duedate": "2024-06-16T14:55:13+00:00", "coordonnees_geo": {"lon": 2.2835066914558415, "lat": 48.90636459217474}, "nom_arrondissement_communes": "Asni\u00e8res-sur-Seine", "code_insee_commune": null}, {"stationcode": "92004", "name": "Nanterre - Universit\u00e9", "is_installed": "OUI", "capacity": 20, "numdocksavailable": 13, "numbikesavailable": 7, "mechanical": 3, "ebike": 4, "is_renting": "OUI", "is_returning": "OUI", "duedate": "2024-06-16T14:49:43+00:00", "coordonnees_geo": {"lon": 2.212693, "lat": 48.901365}, "nom_arrondissement_communes": "Nanterre", "code_insee_commune": null}, {"stationcode": "18020", "name": "Francoeur - Marcadet", "is_installed": "OUI", "capacity": 20, "numdocksavailable": 19, "numbikesavailable": 1, "mechanical": 1, "ebike": 0, "is_renting": "OUI", "is_returning": "OUI", "duedate": "2024-06-16T14:50:08+00:00", "coordonnees_geo": {"lon": 2.340014585442034, "lat": 48.89104123261663}, "nom_arrondissement_communes": "Paris", "code_insee_commune": null}, {"stationcode": "20136", "name": "Henri Chevreau - Couronnes", "is_installed": "OUI", "capacity": 27, "numdocksavailable": 26, "numbikesavailable": 1, "mechanical": 0, "ebike": 1, "is_renting": "OUI", "is_returning": "OUI", "duedate": "2024-06-16T14:53:05+00:00", "coordonnees_geo": {"lon": 2.388777695596218, "lat": 48.87033205312931}, "nom_arrondissement_communes": "Paris", "code_insee_commune": null}, {"stationcode": "5002", "name": "Sommerard - Saint-Jacques", "is_installed": "OUI", "capacity": 34, "numdocksavailable": 1, "numbikesavailable": 32, "mechanical": 30, "ebike": 2, "is_renting": "OUI", "is_returning": "OUI", "duedate": "2024-06-16T14:55:21+00:00", "coordonnees_geo": {"lon": 2.345015835298588, "lat": 48.850310432924466}, "nom_arrondissement_communes": "Paris", "code_insee_commune": null}, {"stationcode": "31702", "name": "Pierre et Marie Curie - Julien Grimau", "is_installed": "OUI", "capacity": 18, "numdocksavailable": 6, "numbikesavailable": 12, "mechanical": 0, "ebike": 12, "is_renting": "OUI", "is_returning": "OUI", "duedate": "2024-06-16T14:50:36+00:00", "coordonnees_geo": {"lon": 2.424097023904324, "lat": 48.870714014863225}, "nom_arrondissement_communes": "Bagnolet", "code_insee_commune": null}, {"stationcode": "42503", "name": "Vladimir Ilitch L\u00e9nine - Andr\u00e9e Chedid", "is_installed": "OUI", "capacity": 31, "numdocksavailable": 27, "numbikesavailable": 3, "mechanical": 0, "ebike": 3, "is_renting": "OUI", "is_returning": "OUI", "duedate": "2024-06-16T14:52:55+00:00", "coordonnees_geo": {"lon": 2.3319716067039, "lat": 48.813240124373}, "nom_arrondissement_communes": "Gentilly", "code_insee_commune": null}, {"stationcode": "7006", "name": "Quai Voltaire", "is_installed": "OUI", "capacity": 32, "numdocksavailable": 9, "numbikesavailable": 21, "mechanical": 14, "ebike": 7, "is_renting": "OUI", "is_returning": "OUI", "duedate": "2024-06-16T14:54:13+00:00", "coordonnees_geo": {"lon": 2.3314182047146, "lat": 48.858942986179}, "nom_arrondissement_communes": "Paris", "code_insee_commune": null}, {"stationcode": "2010", "name": "Uz\u00e8s - Montmartre", "is_installed": "OUI", "capacity": 29, "numdocksavailable": 21, "numbikesavailable": 6, "mechanical": 4, "ebike": 2, "is_renting": "OUI", "is_returning": "OUI", "duedate": "2024-06-16T14:53:07+00:00", "coordonnees_geo": {"lon": 2.3431010171771054, "lat": 48.870790980240706}, "nom_arrondissement_communes": "Paris", "code_insee_commune": null}, {"stationcode": "16006", "name": "Lauriston - Copernic", "is_installed": "OUI", "capacity": 19, "numdocksavailable": 14, "numbikesavailable": 4, "mechanical": 3, "ebike": 1, "is_renting": "OUI", "is_returning": "OUI", "duedate": "2024-06-16T15:47:43+00:00", "coordonnees_geo": {"lon": 2.289918, "lat": 48.86926}, "nom_arrondissement_communes": "Paris", "code_insee_commune": null}, {"stationcode": "12011", "name": "Charenton - Place du Col Bourgoin", "is_installed": "OUI", "capacity": 35, "numdocksavailable": 3, "numbikesavailable": 30, "mechanical": 26, "ebike": 4, "is_renting": "OUI", "is_returning": "OUI", "duedate": "2024-06-16T15:55:11+00:00", "coordonnees_geo": {"lon": 2.3825789350545, "lat": 48.844867319554}, "nom_arrondissement_communes": "Paris", "code_insee_commune": null}, {"stationcode": "21308", "name": "Bara - Henri Farman", "is_installed": "OUI", "capacity": 58, "numdocksavailable": 30, "numbikesavailable": 28, "mechanical": 23, "ebike": 5, "is_renting": "OUI", "is_returning": "OUI", "duedate": "2024-06-16T15:55:31+00:00", "coordonnees_geo": {"lon": 2.2677567601203923, "lat": 48.833218027457846}, "nom_arrondissement_communes": "Issy-les-Moulineaux", "code_insee_commune": null}, {"stationcode": "21019", "name": "Edouard Vaillant - Paul-Adolphe Souriau", "is_installed": "OUI", "capacity": 28, "numdocksavailable": 23, "numbikesavailable": 5, "mechanical": 3, "ebike": 2, "is_renting": "OUI", "is_returning": "OUI", "duedate": "2024-06-16T15:55:10+00:00", "coordonnees_geo": {"lon": 2.2479459643363957, "lat": 48.83484585882868}, "nom_arrondissement_communes": "Boulogne-Billancourt", "code_insee_commune": null}, {"stationcode": "19037", "name": "Belleville - Porte des Lilas", "is_installed": "OUI", "capacity": 32, "numdocksavailable": 29, "numbikesavailable": 2, "mechanical": 0, "ebike": 2, "is_renting": "OUI", "is_returning": "OUI", "duedate": "2024-06-16T15:50:52+00:00", "coordonnees_geo": {"lon": 2.404769691129476, "lat": 48.87660391892763}, "nom_arrondissement_communes": "Paris", "code_insee_commune": null}, {"stationcode": "20109", "name": "Haxo - Surmelin", "is_installed": "OUI", "capacity": 21, "numdocksavailable": 19, "numbikesavailable": 1, "mechanical": 0, "ebike": 1, "is_renting": "OUI", "is_returning": "OUI", "duedate": "2024-06-16T15:55:24+00:00", "coordonnees_geo": {"lon": 2.40539657537972, "lat": 48.8694370761222}, "nom_arrondissement_communes": "Paris", "code_insee_commune": null}, {"stationcode": "6103", "name": "M\u00e9zi\u00e8res - Rennes", "is_installed": "OUI", "capacity": 55, "numdocksavailable": 46, "numbikesavailable": 7, "mechanical": 3, "ebike": 4, "is_renting": "OUI", "is_returning": "OUI", "duedate": "2024-06-16T15:54:59+00:00", "coordonnees_geo": {"lon": 2.3303819820284843, "lat": 48.85023459321703}, "nom_arrondissement_communes": "Paris", "code_insee_commune": null}, {"stationcode": "21032", "name": "S\u00e8vres-Gallieni", "is_installed": "OUI", "capacity": 27, "numdocksavailable": 8, "numbikesavailable": 17, "mechanical": 9, "ebike": 8, "is_renting": "OUI", "is_returning": "OUI", "duedate": "2024-06-16T15:54:32+00:00", "coordonnees_geo": {"lon": 2.2281519323587, "lat": 48.837809408957}, "nom_arrondissement_communes": "Boulogne-Billancourt", "code_insee_commune": null}, {"stationcode": "20021", "name": "Indre - Prairies", "is_installed": "OUI", "capacity": 38, "numdocksavailable": 29, "numbikesavailable": 9, "mechanical": 3, "ebike": 6, "is_renting": "OUI", "is_returning": "OUI", "duedate": "2024-06-16T15:55:01+00:00", "coordonnees_geo": {"lon": 2.403290458023548, "lat": 48.86254398506782}, "nom_arrondissement_communes": "Paris", "code_insee_commune": null}, {"stationcode": "6018", "name": "Michelet - Assas", "is_installed": "OUI", "capacity": 18, "numdocksavailable": 14, "numbikesavailable": 4, "mechanical": 2, "ebike": 2, "is_renting": "OUI", "is_returning": "OUI", "duedate": "2024-06-16T15:50:48+00:00", "coordonnees_geo": {"lon": 2.3350211977959, "lat": 48.842741502832}, "nom_arrondissement_communes": "Paris", "code_insee_commune": null}, {"stationcode": "19109", "name": "Tanger - Place du Maroc", "is_installed": "OUI", "capacity": 19, "numdocksavailable": 12, "numbikesavailable": 6, "mechanical": 2, "ebike": 4, "is_renting": "OUI", "is_returning": "OUI", "duedate": "2024-06-16T15:51:49+00:00", "coordonnees_geo": {"lon": 2.3689296841621403, "lat": 48.8862524447104}, "nom_arrondissement_communes": "Paris", "code_insee_commune": null}, {"stationcode": "31019", "name": "Vincennes - Douy-Delcupe", "is_installed": "OUI", "capacity": 38, "numdocksavailable": 37, "numbikesavailable": 1, "mechanical": 0, "ebike": 1, "is_renting": "OUI", "is_returning": "OUI", "duedate": "2024-06-16T15:49:07+00:00", "coordonnees_geo": {"lon": 2.436049282550812, "lat": 48.85493692155721}, "nom_arrondissement_communes": "Montreuil", "code_insee_commune": null}, {"stationcode": "32014", "name": "Place du Cornillon - Stade de France", "is_installed": "OUI", "capacity": 34, "numdocksavailable": 28, "numbikesavailable": 5, "mechanical": 0, "ebike": 5, "is_renting": "OUI", "is_returning": "OUI", "duedate": "2024-06-16T15:52:39+00:00", "coordonnees_geo": {"lon": 2.3644426837563515, "lat": 48.92540695835961}, "nom_arrondissement_communes": "Saint-Denis", "code_insee_commune": null}, {"stationcode": "18032", "name": "Porte de Clignancourt.", "is_installed": "OUI", "capacity": 56, "numdocksavailable": 46, "numbikesavailable": 9, "mechanical": 7, "ebike": 2, "is_renting": "OUI", "is_returning": "OUI", "duedate": "2024-06-16T15:55:35+00:00", "coordonnees_geo": {"lon": 2.343996, "lat": 48.897488}, "nom_arrondissement_communes": "Paris", "code_insee_commune": null}, {"stationcode": "17124", "name": "Porte de Saint-Ouen - Henri Huchard", "is_installed": "OUI", "capacity": 26, "numdocksavailable": 19, "numbikesavailable": 7, "mechanical": 4, "ebike": 3, "is_renting": "OUI", "is_returning": "OUI", "duedate": "2024-06-16T15:53:45+00:00", "coordonnees_geo": {"lon": 2.3295360803604126, "lat": 48.898708366365064}, "nom_arrondissement_communes": "Paris", "code_insee_commune": null}, {"stationcode": "44012", "name": "G\u00e9nie - Mozart", "is_installed": "OUI", "capacity": 19, "numdocksavailable": 18, "numbikesavailable": 1, "mechanical": 0, "ebike": 1, "is_renting": "OUI", "is_returning": "OUI", "duedate": "2024-06-16T15:46:11+00:00", "coordonnees_geo": {"lon": 2.3734183609485626, "lat": 48.794902381218904}, "nom_arrondissement_communes": "Vitry-sur-Seine", "code_insee_commune": null}, {"stationcode": "17027", "name": "Place du Mar\u00e9chal Juin - P\u00e9reire", "is_installed": "OUI", "capacity": 46, "numdocksavailable": 43, "numbikesavailable": 2, "mechanical": 0, "ebike": 2, "is_renting": "OUI", "is_returning": "OUI", "duedate": "2024-06-16T15:55:09+00:00", "coordonnees_geo": {"lon": 2.298286, "lat": 48.885263}, "nom_arrondissement_communes": "Paris", "code_insee_commune": null}, {"stationcode": "31016", "name": "Lucie Aubrac - Franklin", "is_installed": "OUI", "capacity": 36, "numdocksavailable": 26, "numbikesavailable": 10, "mechanical": 4, "ebike": 6, "is_renting": "OUI", "is_returning": "OUI", "duedate": "2024-06-16T15:50:35+00:00", "coordonnees_geo": {"lon": 2.4435862898826604, "lat": 48.86223916006812}, "nom_arrondissement_communes": "Montreuil", "code_insee_commune": null}, {"stationcode": "22101", "name": "Gare Routi\u00e8re de Saint Cloud", "is_installed": "OUI", "capacity": 31, "numdocksavailable": 15, "numbikesavailable": 14, "mechanical": 14, "ebike": 0, "is_renting": "OUI", "is_returning": "OUI", "duedate": "2024-06-16T15:55:01+00:00", "coordonnees_geo": {"lon": 2.222245037555695, "lat": 48.84288183896324}, "nom_arrondissement_communes": "Saint-Cloud", "code_insee_commune": null}, {"stationcode": "13016", "name": "Primo Levi - Frigos", "is_installed": "OUI", "capacity": 34, "numdocksavailable": 3, "numbikesavailable": 30, "mechanical": 25, "ebike": 5, "is_renting": "OUI", "is_returning": "OUI", "duedate": "2024-06-16T15:53:05+00:00", "coordonnees_geo": {"lon": 2.37965351592796, "lat": 48.83094844846017}, "nom_arrondissement_communes": "Paris", "code_insee_commune": null}, {"stationcode": "13043", "name": "Dunois - Clisson", "is_installed": "OUI", "capacity": 51, "numdocksavailable": 35, "numbikesavailable": 16, "mechanical": 14, "ebike": 2, "is_renting": "OUI", "is_returning": "OUI", "duedate": "2024-06-16T15:54:59+00:00", "coordonnees_geo": {"lon": 2.3674523, "lat": 48.832294}, "nom_arrondissement_communes": "Paris", "code_insee_commune": null}, {"stationcode": "8051", "name": "Batignolles - Rome", "is_installed": "OUI", "capacity": 15, "numdocksavailable": 12, "numbikesavailable": 2, "mechanical": 0, "ebike": 2, "is_renting": "OUI", "is_returning": "OUI", "duedate": "2024-06-16T15:55:40+00:00", "coordonnees_geo": {"lon": 2.3202589899301524, "lat": 48.881823370566806}, "nom_arrondissement_communes": "Paris", "code_insee_commune": null}, {"stationcode": "19039", "name": "Edouard Pailleron - Simon Bolivar", "is_installed": "OUI", "capacity": 24, "numdocksavailable": 13, "numbikesavailable": 11, "mechanical": 1, "ebike": 10, "is_renting": "OUI", "is_returning": "OUI", "duedate": "2024-06-16T15:53:29+00:00", "coordonnees_geo": {"lon": 2.374839261174202, "lat": 48.87979886049996}, "nom_arrondissement_communes": "Paris", "code_insee_commune": null}, {"stationcode": "16032", "name": "Eglise d'Auteuil", "is_installed": "OUI", "capacity": 21, "numdocksavailable": 16, "numbikesavailable": 5, "mechanical": 4, "ebike": 1, "is_renting": "OUI", "is_returning": "OUI", "duedate": "2024-06-16T15:55:04+00:00", "coordonnees_geo": {"lon": 2.26848387135299, "lat": 48.84749841771691}, "nom_arrondissement_communes": "Paris", "code_insee_commune": null}, {"stationcode": "21003", "name": "Jean Jaur\u00e8s - Jean Baptiste Cl\u00e9ment", "is_installed": "OUI", "capacity": 39, "numdocksavailable": 10, "numbikesavailable": 28, "mechanical": 22, "ebike": 6, "is_renting": "OUI", "is_returning": "OUI", "duedate": "2024-06-16T15:55:42+00:00", "coordonnees_geo": {"lon": 2.2369650006294255, "lat": 48.84576261454011}, "nom_arrondissement_communes": "Boulogne-Billancourt", "code_insee_commune": null}, {"stationcode": "17122", "name": "Bridaine - Lamand\u00e9", "is_installed": "OUI", "capacity": 29, "numdocksavailable": 20, "numbikesavailable": 9, "mechanical": 3, "ebike": 6, "is_renting": "OUI", "is_returning": "OUI", "duedate": "2024-06-16T15:52:50+00:00", "coordonnees_geo": {"lon": 2.3206239, "lat": 48.8862074}, "nom_arrondissement_communes": "Paris", "code_insee_commune": null}, {"stationcode": "14122", "name": "Colonel Monteil - Brune", "is_installed": "OUI", "capacity": 19, "numdocksavailable": 16, "numbikesavailable": 3, "mechanical": 2, "ebike": 1, "is_renting": "OUI", "is_returning": "OUI", "duedate": "2024-06-16T15:54:34+00:00", "coordonnees_geo": {"lon": 2.3092747998272, "lat": 48.82650293311}, "nom_arrondissement_communes": "Paris", "code_insee_commune": null}, {"stationcode": "16123", "name": "Mahatma Gandhi", "is_installed": "OUI", "capacity": 26, "numdocksavailable": 22, "numbikesavailable": 4, "mechanical": 2, "ebike": 2, "is_renting": "OUI", "is_returning": "OUI", "duedate": "2024-06-16T15:55:06+00:00", "coordonnees_geo": {"lon": 2.264205, "lat": 48.876356}, "nom_arrondissement_communes": "Paris", "code_insee_commune": null}, {"stationcode": "31007", "name": "Paris - D\u00e9sir\u00e9 Pr\u00e9aux", "is_installed": "OUI", "capacity": 49, "numdocksavailable": 39, "numbikesavailable": 8, "mechanical": 2, "ebike": 6, "is_renting": "OUI", "is_returning": "OUI", "duedate": "2024-06-16T15:55:42+00:00", "coordonnees_geo": {"lon": 2.4323049187660217, "lat": 48.85742876694898}, "nom_arrondissement_communes": "Montreuil", "code_insee_commune": null}, {"stationcode": "19040", "name": "Belleville - T\u00e9l\u00e9graphe", "is_installed": "OUI", "capacity": 41, "numdocksavailable": 40, "numbikesavailable": 1, "mechanical": 0, "ebike": 1, "is_renting": "OUI", "is_returning": "OUI", "duedate": "2024-06-16T15:49:25+00:00", "coordonnees_geo": {"lon": 2.3995549, "lat": 48.8756045}, "nom_arrondissement_communes": "Paris", "code_insee_commune": null}, {"stationcode": "6016", "name": "Danton - Serpente", "is_installed": "OUI", "capacity": 22, "numdocksavailable": 3, "numbikesavailable": 18, "mechanical": 17, "ebike": 1, "is_renting": "OUI", "is_returning": "OUI", "duedate": "2024-06-16T15:54:41+00:00", "coordonnees_geo": {"lon": 2.3414132371545, "lat": 48.852297362582}, "nom_arrondissement_communes": "Paris", "code_insee_commune": null}]