[{"stationcode": "18030", "name": "Joseph Dijon - Ornano", "is_installed": "OUI", "capacity": 37, "numdocksavailable": 31, "numbikesavailable": 5, "mechanical": 3, "ebike": 2, "is_renting": "OUI", "is_returning": "OUI", "duedate": "2024-06-14T15:50:10+00:00", "coordonnees_geo": {"lon": 2.3476678133010864, "lat": 48.89374453351521}, "nom_arrondissement_communes": "Paris", "code_insee_commune": null}, {"stationcode": "31005", "name": "Square Denise Buisson", "is_installed": "OUI", "capacity": 45, "numdocksavailable": 43, "numbikesavailable": 0, "mechanical": 0, "ebike": 0, "is_renting": "OUI", "is_returning": "OUI", "duedate": "2024-06-14T15:43:41+00:00", "coordonnees_geo": {"lon": 2.426436245441437, "lat": 48.8562322730982}, "nom_arrondissement_communes": "Montreuil", "code_insee_commune": null}, {"stationcode": "21314", "name": "Chemin de Bretagne", "is_installed": "OUI", "capacity": 29, "numdocksavailable": 15, "numbikesavailable": 14, "mechanical": 13, "ebike": 1, "is_renting": "OUI", "is_returning": "OUI", "duedate": "2024-06-14T15:48:47+00:00", "coordonnees_geo": {"lon": 2.2588385956052, "lat": 48.824753068884}, "nom_arrondissement_communes": "Issy-les-Moulineaux", "code_insee_commune": null}, {"stationcode": "13516", "name": "Glaci\u00e8re - Soeur Catherine Marie", "is_installed": "OUI", "capacity": 40, "numdocksavailable": 34, "numbikesavailable": 6, "mechanical": 3, "ebike": 3, "is_renting": "OUI", "is_returning": "OUI", "duedate": "2024-06-14T15:49:44+00:00", "coordonnees_geo": {"lon": 2.343570403754711, "lat": 48.829522989420596}, "nom_arrondissement_communes": "Paris", "code_insee_commune": null}, {"stationcode": "10021", "name": "March\u00e9 Saint-Quentin", "is_installed": "OUI", "capacity": 15, "numdocksavailable": 15, "numbikesavailable": 0, "mechanical": 0, "ebike": 0, "is_renting": "OUI", "is_returning": "OUI", "duedate": "2024-06-14T15:49:53+00:00", "coordonnees_geo": {"lon": 2.3545114456374, "lat": 48.877356057652}, "nom_arrondissement_communes": "Paris", "code_insee_commune": null}, {"stationcode": "5115", "name": "Buffon - Jardin des Plantes", "is_installed": "OUI", "capacity": 30, "numdocksavailable": 0, "numbikesavailable": 29, "mechanical": 27, "ebike": 2, "is_renting": "OUI", "is_returning": "OUI", "duedate": "2024-06-14T15:50:07+00:00", "coordonnees_geo": {"lon": 2.3618587106466293, "lat": 48.842668466104875}, "nom_arrondissement_communes": "Paris", "code_insee_commune": null}, {"stationcode": "44011", "name": "Lebrun - Colonel Fabien", "is_installed": "OUI", "capacity": 27, "numdocksavailable": 24, "numbikesavailable": 3, "mechanical": 0, "ebike": 3, "is_renting": "OUI", "is_returning": "OUI", "duedate": "2024-06-14T15:42:01+00:00", "coordonnees_geo": {"lon": 2.381317801773548, "lat": 48.78266870733145}, "nom_arrondissement_communes": "Vitry-sur-Seine", "code_insee_commune": null}, {"stationcode": "12101", "name": "Charenton - Prague", "is_installed": "OUI", "capacity": 26, "numdocksavailable": 1, "numbikesavailable": 25, "mechanical": 20, "ebike": 5, "is_renting": "OUI", "is_returning": "OUI", "duedate": "2024-06-14T15:50:19+00:00", "coordonnees_geo": {"lon": 2.3763584494312, "lat": 48.848175129981}, "nom_arrondissement_communes": "Paris", "code_insee_commune": null}, {"stationcode": "4019", "name": "Clo\u00eetre Saint-Merri - Renard", "is_installed": "OUI", "capacity": 32, "numdocksavailable": 10, "numbikesavailable": 21, "mechanical": 19, "ebike": 2, "is_renting": "OUI", "is_returning": "OUI", "duedate": "2024-06-14T15:49:10+00:00", "coordonnees_geo": {"lon": 2.3518279194832, "lat": 48.858835448898}, "nom_arrondissement_communes": "Paris", "code_insee_commune": null}, {"stationcode": "5001", "name": "Harpe - Saint-Germain", "is_installed": "OUI", "capacity": 45, "numdocksavailable": 19, "numbikesavailable": 25, "mechanical": 21, "ebike": 4, "is_renting": "OUI", "is_returning": "OUI", "duedate": "2024-06-14T15:48:54+00:00", "coordonnees_geo": {"lon": 2.3436703160405, "lat": 48.851518815017}, "nom_arrondissement_communes": "Paris", "code_insee_commune": null}, {"stationcode": "15129", "name": "H\u00f4pital Necker", "is_installed": "OUI", "capacity": 40, "numdocksavailable": 30, "numbikesavailable": 9, "mechanical": 5, "ebike": 4, "is_renting": "OUI", "is_returning": "OUI", "duedate": "2024-06-14T15:48:52+00:00", "coordonnees_geo": {"lon": 2.313245013356209, "lat": 48.846043490118454}, "nom_arrondissement_communes": "Paris", "code_insee_commune": null}, {"stationcode": "3102", "name": "Bourg l'Abb\u00e9 - Saint-Martin", "is_installed": "OUI", "capacity": 42, "numdocksavailable": 11, "numbikesavailable": 28, "mechanical": 24, "ebike": 4, "is_renting": "OUI", "is_returning": "OUI", "duedate": "2024-06-14T15:49:46+00:00", "coordonnees_geo": {"lon": 2.352406270802021, "lat": 48.86393331949257}, "nom_arrondissement_communes": "Paris", "code_insee_commune": null}, {"stationcode": "20015", "name": "Bagnolet - Orteaux", "is_installed": "OUI", "capacity": 36, "numdocksavailable": 23, "numbikesavailable": 11, "mechanical": 1, "ebike": 10, "is_renting": "OUI", "is_returning": "OUI", "duedate": "2024-06-14T15:50:09+00:00", "coordonnees_geo": {"lon": 2.3984125256538396, "lat": 48.85708641027236}, "nom_arrondissement_communes": "Paris", "code_insee_commune": null}, {"stationcode": "51001", "name": "Gare d'Argenteuil", "is_installed": "OUI", "capacity": 40, "numdocksavailable": 26, "numbikesavailable": 14, "mechanical": 12, "ebike": 2, "is_renting": "OUI", "is_returning": "OUI", "duedate": "2024-06-14T15:50:10+00:00", "coordonnees_geo": {"lon": 2.256898172199726, "lat": 48.947022436806705}, "nom_arrondissement_communes": "Argenteuil", "code_insee_commune": null}, {"stationcode": "8027", "name": "Mairie du 8\u00e8me", "is_installed": "OUI", "capacity": 14, "numdocksavailable": 9, "numbikesavailable": 3, "mechanical": 2, "ebike": 1, "is_renting": "OUI", "is_returning": "OUI", "duedate": "2024-06-14T15:48:47+00:00", "coordonnees_geo": {"lon": 2.318264, "lat": 48.877932}, "nom_arrondissement_communes": "Paris", "code_insee_commune": null}, {"stationcode": "15039", "name": "Abb\u00e9 Groult - Convention", "is_installed": "OUI", "capacity": 12, "numdocksavailable": 9, "numbikesavailable": 4, "mechanical": 3, "ebike": 1, "is_renting": "OUI", "is_returning": "OUI", "duedate": "2024-06-14T15:49:52+00:00", "coordonnees_geo": {"lon": 2.302064039509349, "lat": 48.83596927866069}, "nom_arrondissement_communes": "Paris", "code_insee_commune": null}, {"stationcode": "21315", "name": "Jules Guesdes - G\u00e9n\u00e9ral de Gaulle", "is_installed": "OUI", "capacity": 24, "numdocksavailable": 13, "numbikesavailable": 10, "mechanical": 3, "ebike": 7, "is_renting": "OUI", "is_returning": "OUI", "duedate": "2024-06-14T15:50:09+00:00", "coordonnees_geo": {"lon": 2.278934195637703, "lat": 48.81930581291959}, "nom_arrondissement_communes": "Issy-les-Moulineaux", "code_insee_commune": null}, {"stationcode": "2112", "name": "Biblioth\u00e8que Nationale - Richelieu", "is_installed": "OUI", "capacity": 17, "numdocksavailable": 17, "numbikesavailable": 0, "mechanical": 0, "ebike": 0, "is_renting": "OUI", "is_returning": "OUI", "duedate": "2024-06-14T15:50:10+00:00", "coordonnees_geo": {"lon": 2.3380893096328, "lat": 48.868288993515}, "nom_arrondissement_communes": "Paris", "code_insee_commune": null}, {"stationcode": "6022", "name": "March\u00e9 Saint-Germain", "is_installed": "OUI", "capacity": 21, "numdocksavailable": 13, "numbikesavailable": 6, "mechanical": 2, "ebike": 4, "is_renting": "OUI", "is_returning": "OUI", "duedate": "2024-06-14T15:49:32+00:00", "coordonnees_geo": {"lon": 2.335500307381153, "lat": 48.85165625855281}, "nom_arrondissement_communes": "Paris", "code_insee_commune": null}, {"stationcode": "41403", "name": "Gare RER - Malleret-Joinville", "is_installed": "OUI", "capacity": 20, "numdocksavailable": 2, "numbikesavailable": 18, "mechanical": 13, "ebike": 5, "is_renting": "OUI", "is_returning": "OUI", "duedate": "2024-06-14T15:49:01+00:00", "coordonnees_geo": {"lon": 2.42531, "lat": 48.802936}, "nom_arrondissement_communes": "Alfortville", "code_insee_commune": null}, {"stationcode": "13018", "name": "Bruant - Vincent Auriol", "is_installed": "OUI", "capacity": 25, "numdocksavailable": 20, "numbikesavailable": 4, "mechanical": 2, "ebike": 2, "is_renting": "OUI", "is_returning": "OUI", "duedate": "2024-06-14T15:50:19+00:00", "coordonnees_geo": {"lon": 2.3668264996271, "lat": 48.834848452929}, "nom_arrondissement_communes": "Paris", "code_insee_commune": null}, {"stationcode": "23102", "name": "H\u00f4tel de Ville de S\u00e8vres", "is_installed": "OUI", "capacity": 32, "numdocksavailable": 22, "numbikesavailable": 9, "mechanical": 1, "ebike": 8, "is_renting": "OUI", "is_returning": "OUI", "duedate": "2024-06-14T15:49:06+00:00", "coordonnees_geo": {"lon": 2.2131047397851944, "lat": 48.824363561288756}, "nom_arrondissement_communes": "S\u00e8vres", "code_insee_commune": null}, {"stationcode": "13052", "name": "Leredde - Tolbiac", "is_installed": "OUI", "capacity": 44, "numdocksavailable": 9, "numbikesavailable": 34, "mechanical": 30, "ebike": 4, "is_renting": "OUI", "is_returning": "OUI", "duedate": "2024-06-14T15:49:25+00:00", "coordonnees_geo": {"lon": 2.3744382709265, "lat": 48.82887629664}, "nom_arrondissement_communes": "Paris", "code_insee_commune": null}, {"stationcode": "17024", "name": "Villiers - Batignolles", "is_installed": "OUI", "capacity": 23, "numdocksavailable": 21, "numbikesavailable": 2, "mechanical": 0, "ebike": 2, "is_renting": "OUI", "is_returning": "OUI", "duedate": "2024-06-14T15:50:00+00:00", "coordonnees_geo": {"lon": 2.31653843075037, "lat": 48.88125253846116}, "nom_arrondissement_communes": "Paris", "code_insee_commune": null}, {"stationcode": "15127", "name": "Place Charles Michels", "is_installed": "OUI", "capacity": 37, "numdocksavailable": 4, "numbikesavailable": 33, "mechanical": 33, "ebike": 0, "is_renting": "OUI", "is_returning": "OUI", "duedate": "2024-06-14T15:50:04+00:00", "coordonnees_geo": {"lon": 2.28502, "lat": 48.846401}, "nom_arrondissement_communes": "Paris", "code_insee_commune": null}, {"stationcode": "20105", "name": "Beno\u00eet Frachon - R\u00e9publique", "is_installed": "OUI", "capacity": 30, "numdocksavailable": 28, "numbikesavailable": 2, "mechanical": 2, "ebike": 0, "is_renting": "OUI", "is_returning": "OUI", "duedate": "2024-06-14T15:49:36+00:00", "coordonnees_geo": {"lon": 2.415605485439301, "lat": 48.85230729014318}, "nom_arrondissement_communes": "Paris", "code_insee_commune": null}, {"stationcode": "33103", "name": "Jean Jaur\u00e8s - Jules Jacquemin", "is_installed": "OUI", "capacity": 24, "numdocksavailable": 14, "numbikesavailable": 9, "mechanical": 3, "ebike": 6, "is_renting": "OUI", "is_returning": "OUI", "duedate": "2024-06-14T15:49:59+00:00", "coordonnees_geo": {"lon": 2.4082902455152104, "lat": 48.88433053604843}, "nom_arrondissement_communes": "Le Pr\u00e9-Saint-Gervais", "code_insee_commune": null}, {"stationcode": "14011", "name": "Place des Droits de l'Enfant", "is_installed": "OUI", "capacity": 24, "numdocksavailable": 18, "numbikesavailable": 5, "mechanical": 1, "ebike": 4, "is_renting": "OUI", "is_returning": "OUI", "duedate": "2024-06-14T15:49:31+00:00", "coordonnees_geo": {"lon": 2.3319217, "lat": 48.8274804}, "nom_arrondissement_communes": "Paris", "code_insee_commune": null}, {"stationcode": "6002", "name": "Saint-Beno\u00eet - Jacob", "is_installed": "OUI", "capacity": 23, "numdocksavailable": 10, "numbikesavailable": 13, "mechanical": 13, "ebike": 0, "is_renting": "OUI", "is_returning": "OUI", "duedate": "2024-06-14T15:46:14+00:00", "coordonnees_geo": {"lon": 2.3334722220897675, "lat": 48.85545136013941}, "nom_arrondissement_communes": "Paris", "code_insee_commune": null}, {"stationcode": "20044", "name": "Davout - Volga", "is_installed": "OUI", "capacity": 28, "numdocksavailable": 24, "numbikesavailable": 2, "mechanical": 1, "ebike": 1, "is_renting": "OUI", "is_returning": "OUI", "duedate": "2024-06-14T15:49:08+00:00", "coordonnees_geo": {"lon": 2.410522909779111, "lat": 48.852919679957296}, "nom_arrondissement_communes": "Paris", "code_insee_commune": null}, {"stationcode": "10033", "name": "Gare du Nord - Saint-Vincent de Paul", "is_installed": "OUI", "capacity": 24, "numdocksavailable": 22, "numbikesavailable": 1, "mechanical": 1, "ebike": 0, "is_renting": "OUI", "is_returning": "OUI", "duedate": "2024-06-14T15:49:27+00:00", "coordonnees_geo": {"lon": 2.3524305148385, "lat": 48.880955741648}, "nom_arrondissement_communes": "Paris", "code_insee_commune": null}, {"stationcode": "18039", "name": "Jardins d'Eole", "is_installed": "OUI", "capacity": 20, "numdocksavailable": 17, "numbikesavailable": 3, "mechanical": 0, "ebike": 3, "is_renting": "OUI", "is_returning": "OUI", "duedate": "2024-06-14T15:47:41+00:00", "coordonnees_geo": {"lon": 2.3668488, "lat": 48.8869703}, "nom_arrondissement_communes": "Paris", "code_insee_commune": null}, {"stationcode": "16005", "name": "Raymond Poincar\u00e9 - Place Victor Hugo", "is_installed": "OUI", "capacity": 25, "numdocksavailable": 23, "numbikesavailable": 2, "mechanical": 1, "ebike": 1, "is_renting": "OUI", "is_returning": "OUI", "duedate": "2024-06-14T15:48:33+00:00", "coordonnees_geo": {"lon": 2.285074541420228, "lat": 48.870306124369975}, "nom_arrondissement_communes": "Paris", "code_insee_commune": null}, {"stationcode": "20022", "name": "Porte de Bagnolet", "is_installed": "OUI", "capacity": 33, "numdocksavailable": 32, "numbikesavailable": 1, "mechanical": 0, "ebike": 1, "is_renting": "OUI", "is_returning": "OUI", "duedate": "2024-06-14T15:44:15+00:00", "coordonnees_geo": {"lon": 2.408344637349607, "lat": 48.864707139122984}, "nom_arrondissement_communes": "Paris", "code_insee_commune": null}, {"stationcode": "4006", "name": "Bourdon - Pont Morland", "is_installed": "OUI", "capacity": 52, "numdocksavailable": 4, "numbikesavailable": 46, "mechanical": 42, "ebike": 4, "is_renting": "OUI", "is_returning": "OUI", "duedate": "2024-06-14T15:49:43+00:00", "coordonnees_geo": {"lon": 2.3659356, "lat": 48.8478103}, "nom_arrondissement_communes": "Paris", "code_insee_commune": null}, {"stationcode": "16105", "name": "Crevaux - Bugeaud", "is_installed": "OUI", "capacity": 31, "numdocksavailable": 29, "numbikesavailable": 1, "mechanical": 1, "ebike": 0, "is_renting": "OUI", "is_returning": "OUI", "duedate": "2024-06-14T15:41:52+00:00", "coordonnees_geo": {"lon": 2.281149007691853, "lat": 48.870809428669546}, "nom_arrondissement_communes": "Paris", "code_insee_commune": null}, {"stationcode": "16036", "name": "Porte Molitor", "is_installed": "OUI", "capacity": 60, "numdocksavailable": 30, "numbikesavailable": 25, "mechanical": 22, "ebike": 3, "is_renting": "OUI", "is_returning": "OUI", "duedate": "2024-06-14T15:48:14+00:00", "coordonnees_geo": {"lon": 2.2569015249609947, "lat": 48.84524763511433}, "nom_arrondissement_communes": "Paris", "code_insee_commune": null}, {"stationcode": "42505", "name": "Charles Fr\u00e9rot - Albert Guilpin", "is_installed": "OUI", "capacity": 30, "numdocksavailable": 14, "numbikesavailable": 16, "mechanical": 15, "ebike": 1, "is_renting": "OUI", "is_returning": "OUI", "duedate": "2024-06-14T15:49:15+00:00", "coordonnees_geo": {"lon": 2.3505029082298283, "lat": 48.8155839183714}, "nom_arrondissement_communes": "Gentilly", "code_insee_commune": null}, {"stationcode": "8117", "name": "Place de la Madeleine - Royale", "is_installed": "OUI", "capacity": 43, "numdocksavailable": 14, "numbikesavailable": 28, "mechanical": 23, "ebike": 5, "is_renting": "OUI", "is_returning": "OUI", "duedate": "2024-06-14T15:49:45+00:00", "coordonnees_geo": {"lon": 2.324421107769, "lat": 48.869228052648}, "nom_arrondissement_communes": "Paris", "code_insee_commune": null}, {"stationcode": "12015", "name": "Place de la Nation - Picpus", "is_installed": "OUI", "capacity": 36, "numdocksavailable": 28, "numbikesavailable": 8, "mechanical": 2, "ebike": 6, "is_renting": "OUI", "is_returning": "OUI", "duedate": "2024-06-14T15:45:01+00:00", "coordonnees_geo": {"lon": 2.4001130461693, "lat": 48.846821681548}, "nom_arrondissement_communes": "Paris", "code_insee_commune": null}, {"stationcode": "18139", "name": "Poissonniers - Championnet", "is_installed": "OUI", "capacity": 28, "numdocksavailable": 19, "numbikesavailable": 8, "mechanical": 2, "ebike": 6, "is_renting": "OUI", "is_returning": "OUI", "duedate": "2024-06-14T15:48:30+00:00", "coordonnees_geo": {"lon": 2.3530178144574165, "lat": 48.89543299733937}, "nom_arrondissement_communes": "Paris", "code_insee_commune": null}, {"stationcode": "15001", "name": "Gare Montparnasse - Arriv\u00e9e", "is_installed": "OUI", "capacity": 43, "numdocksavailable": 5, "numbikesavailable": 37, "mechanical": 28, "ebike": 9, "is_renting": "OUI", "is_returning": "OUI", "duedate": "2024-06-14T15:49:43+00:00", "coordonnees_geo": {"lon": 2.3225811123848, "lat": 48.843827994315}, "nom_arrondissement_communes": "Paris", "code_insee_commune": null}, {"stationcode": "22201", "name": "Henri Ravera - Gabriel P\u00e9ri", "is_installed": "OUI", "capacity": 30, "numdocksavailable": 30, "numbikesavailable": 0, "mechanical": 0, "ebike": 0, "is_renting": "OUI", "is_returning": "OUI", "duedate": "2024-06-14T15:44:06+00:00", "coordonnees_geo": {"lon": 2.302115857601166, "lat": 48.79722273833844}, "nom_arrondissement_communes": "Bagneux", "code_insee_commune": null}, {"stationcode": "3008", "name": "Perle - Vieille du Temple", "is_installed": "OUI", "capacity": 36, "numdocksavailable": 16, "numbikesavailable": 19, "mechanical": 13, "ebike": 6, "is_renting": "OUI", "is_returning": "OUI", "duedate": "2024-06-14T15:48:36+00:00", "coordonnees_geo": {"lon": 2.3611206, "lat": 48.8601346}, "nom_arrondissement_communes": "Paris", "code_insee_commune": null}, {"stationcode": "5015", "name": "Ep\u00e9e de Bois - Mouffetard", "is_installed": "OUI", "capacity": 63, "numdocksavailable": 53, "numbikesavailable": 9, "mechanical": 5, "ebike": 4, "is_renting": "OUI", "is_returning": "OUI", "duedate": "2024-06-14T15:49:54+00:00", "coordonnees_geo": {"lon": 2.350066713988781, "lat": 48.841508690388835}, "nom_arrondissement_communes": "Paris", "code_insee_commune": null}, {"stationcode": "45002", "name": "Roger Salengro - G\u00e9n\u00e9ral de Gaulle", "is_installed": "OUI", "capacity": 27, "numdocksavailable": 9, "numbikesavailable": 18, "mechanical": 11, "ebike": 7, "is_renting": "OUI", "is_returning": "OUI", "duedate": "2024-06-14T15:49:32+00:00", "coordonnees_geo": {"lon": 2.4846760556101803, "lat": 48.820029010376956}, "nom_arrondissement_communes": "Champigny-sur-Marne", "code_insee_commune": null}, {"stationcode": "15128", "name": "Cadix - Hameau", "is_installed": "OUI", "capacity": 37, "numdocksavailable": 25, "numbikesavailable": 12, "mechanical": 10, "ebike": 2, "is_renting": "OUI", "is_returning": "OUI", "duedate": "2024-06-14T15:47:40+00:00", "coordonnees_geo": {"lon": 2.289516180753708, "lat": 48.8340107632249}, "nom_arrondissement_communes": "Paris", "code_insee_commune": null}, {"stationcode": "44014", "name": "Camille Risch - Paul Armangot", "is_installed": "OUI", "capacity": 25, "numdocksavailable": 23, "numbikesavailable": 2, "mechanical": 0, "ebike": 2, "is_renting": "OUI", "is_returning": "OUI", "duedate": "2024-06-14T15:50:18+00:00", "coordonnees_geo": {"lon": 2.373685, "lat": 48.774703}, "nom_arrondissement_communes": "Vitry-sur-Seine", "code_insee_commune": null}, {"stationcode": "1007", "name": "Turbigo - Fran\u00e7aise", "is_installed": "OUI", "capacity": 16, "numdocksavailable": 0, "numbikesavailable": 16, "mechanical": 8, "ebike": 8, "is_renting": "OUI", "is_returning": "OUI", "duedate": "2024-06-14T15:48:07+00:00", "coordonnees_geo": {"lon": 2.3477794602513313, "lat": 48.86358858111446}, "nom_arrondissement_communes": "Paris", "code_insee_commune": null}, {"stationcode": "16037", "name": "Molitor - Michel-Ange", "is_installed": "OUI", "capacity": 51, "numdocksavailable": 45, "numbikesavailable": 4, "mechanical": 0, "ebike": 4, "is_renting": "OUI", "is_returning": "OUI", "duedate": "2024-06-14T15:46:54+00:00", "coordonnees_geo": {"lon": 2.26211277356597, "lat": 48.845182081538034}, "nom_arrondissement_communes": "Paris", "code_insee_commune": null}, {"stationcode": "47003", "name": "Charentonneau - Maisons Alfort", "is_installed": "OUI", "capacity": 20, "numdocksavailable": 1, "numbikesavailable": 19, "mechanical": 14, "ebike": 5, "is_renting": "OUI", "is_returning": "OUI", "duedate": "2024-06-14T15:46:55+00:00", "coordonnees_geo": {"lon": 2.443288456496946, "lat": 48.809932980484355}, "nom_arrondissement_communes": "Maisons-Alfort", "code_insee_commune": null}, {"stationcode": "16013", "name": "Mairie du 16\u00e8me", "is_installed": "OUI", "capacity": 35, "numdocksavailable": 33, "numbikesavailable": 0, "mechanical": 0, "ebike": 0, "is_renting": "OUI", "is_returning": "OUI", "duedate": "2024-06-14T15:49:31+00:00", "coordonnees_geo": {"lon": 2.2765953093767166, "lat": 48.863936848471994}, "nom_arrondissement_communes": "Paris", "code_insee_commune": null}, {"stationcode": "20008", "name": "Pyr\u00e9n\u00e9es - Avron", "is_installed": "OUI", "capacity": 32, "numdocksavailable": 30, "numbikesavailable": 2, "mechanical": 1, "ebike": 1, "is_renting": "OUI", "is_returning": "OUI", "duedate": "2024-06-14T15:50:17+00:00", "coordonnees_geo": {"lon": 2.405871044529538, "lat": 48.853246898211985}, "nom_arrondissement_communes": "Paris", "code_insee_commune": null}, {"stationcode": "20104", "name": "Louis Lumi\u00e8re.", "is_installed": "OUI", "capacity": 22, "numdocksavailable": 19, "numbikesavailable": 1, "mechanical": 1, "ebike": 0, "is_renting": "OUI", "is_returning": "OUI", "duedate": "2024-06-14T15:49:52+00:00", "coordonnees_geo": {"lon": 2.41112578185621, "lat": 48.86216198070008}, "nom_arrondissement_communes": "Paris", "code_insee_commune": null}, {"stationcode": "21309", "name": "Mairie d'Issy", "is_installed": "OUI", "capacity": 41, "numdocksavailable": 11, "numbikesavailable": 29, "mechanical": 21, "ebike": 8, "is_renting": "OUI", "is_returning": "OUI", "duedate": "2024-06-14T15:49:51+00:00", "coordonnees_geo": {"lon": 2.27231115102768, "lat": 48.8237677924683}, "nom_arrondissement_communes": "Issy-les-Moulineaux", "code_insee_commune": null}, {"stationcode": "8110", "name": "Gare Saint-Lazare - Stockholm", "is_installed": "OUI", "capacity": 32, "numdocksavailable": 25, "numbikesavailable": 7, "mechanical": 3, "ebike": 4, "is_renting": "OUI", "is_returning": "OUI", "duedate": "2024-06-14T15:50:12+00:00", "coordonnees_geo": {"lon": 2.322417162358761, "lat": 48.877127316667654}, "nom_arrondissement_communes": "Paris", "code_insee_commune": null}, {"stationcode": "20024", "name": "Gambetta - P\u00e8re Lachaise", "is_installed": "OUI", "capacity": 29, "numdocksavailable": 24, "numbikesavailable": 5, "mechanical": 1, "ebike": 4, "is_renting": "OUI", "is_returning": "OUI", "duedate": "2024-06-14T15:49:01+00:00", "coordonnees_geo": {"lon": 2.398228667282044, "lat": 48.864295696165875}, "nom_arrondissement_communes": "Paris", "code_insee_commune": null}, {"stationcode": "3010", "name": "Beaubourg - Michel-le-Comte", "is_installed": "OUI", "capacity": 17, "numdocksavailable": 11, "numbikesavailable": 3, "mechanical": 3, "ebike": 0, "is_renting": "OUI", "is_returning": "OUI", "duedate": "2024-06-14T15:50:12+00:00", "coordonnees_geo": {"lon": 2.3543103039265, "lat": 48.862534941806}, "nom_arrondissement_communes": "Paris", "code_insee_commune": null}, {"stationcode": "18140", "name": "Porte de Clignancourt - Ney", "is_installed": "OUI", "capacity": 40, "numdocksavailable": 39, "numbikesavailable": 0, "mechanical": 0, "ebike": 0, "is_renting": "OUI", "is_returning": "OUI", "duedate": "2024-06-14T15:48:38+00:00", "coordonnees_geo": {"lon": 2.344321422278881, "lat": 48.899641123987095}, "nom_arrondissement_communes": "Paris", "code_insee_commune": null}, {"stationcode": "9009", "name": "Square Montholon", "is_installed": "OUI", "capacity": 21, "numdocksavailable": 14, "numbikesavailable": 6, "mechanical": 5, "ebike": 1, "is_renting": "OUI", "is_returning": "OUI", "duedate": "2024-06-14T15:50:09+00:00", "coordonnees_geo": {"lon": 2.3457641154527664, "lat": 48.876620377545024}, "nom_arrondissement_communes": "Paris", "code_insee_commune": null}, {"stationcode": "17019", "name": "Phalsbourg - Villiers", "is_installed": "OUI", "capacity": 20, "numdocksavailable": 19, "numbikesavailable": 0, "mechanical": 0, "ebike": 0, "is_renting": "OUI", "is_returning": "OUI", "duedate": "2024-06-14T15:49:53+00:00", "coordonnees_geo": {"lon": 2.3090453445911407, "lat": 48.88242307900951}, "nom_arrondissement_communes": "Paris", "code_insee_commune": null}, {"stationcode": "19201", "name": "Petit - Georges Thill", "is_installed": "OUI", "capacity": 23, "numdocksavailable": 16, "numbikesavailable": 7, "mechanical": 4, "ebike": 3, "is_renting": "OUI", "is_returning": "OUI", "duedate": "2024-06-14T15:49:41+00:00", "coordonnees_geo": {"lon": 2.3895753175020222, "lat": 48.88603131999171}, "nom_arrondissement_communes": "Paris", "code_insee_commune": null}, {"stationcode": "10009", "name": "Mairie du 10\u00e8me", "is_installed": "OUI", "capacity": 19, "numdocksavailable": 7, "numbikesavailable": 10, "mechanical": 10, "ebike": 0, "is_renting": "OUI", "is_returning": "OUI", "duedate": "2024-06-14T15:48:47+00:00", "coordonnees_geo": {"lon": 2.3575825989246, "lat": 48.872089449907}, "nom_arrondissement_communes": "Paris", "code_insee_commune": null}, {"stationcode": "15132", "name": "Bargue -  Dutot", "is_installed": "OUI", "capacity": 21, "numdocksavailable": 19, "numbikesavailable": 2, "mechanical": 1, "ebike": 1, "is_renting": "OUI", "is_returning": "OUI", "duedate": "2024-06-14T15:43:30+00:00", "coordonnees_geo": {"lon": 2.308876, "lat": 48.837884}, "nom_arrondissement_communes": "Paris", "code_insee_commune": null}, {"stationcode": "20006", "name": "Pyr\u00e9n\u00e9es - Plaine", "is_installed": "OUI", "capacity": 12, "numdocksavailable": 11, "numbikesavailable": 1, "mechanical": 1, "ebike": 0, "is_renting": "OUI", "is_returning": "OUI", "duedate": "2024-06-14T15:49:14+00:00", "coordonnees_geo": {"lon": 2.4062821269035, "lat": 48.85026702458}, "nom_arrondissement_communes": "Paris", "code_insee_commune": null}, {"stationcode": "7021", "name": "Bosquet - Saint-Dominique", "is_installed": "OUI", "capacity": 28, "numdocksavailable": 25, "numbikesavailable": 2, "mechanical": 1, "ebike": 1, "is_renting": "OUI", "is_returning": "OUI", "duedate": "2024-06-14T15:49:21+00:00", "coordonnees_geo": {"lon": 2.303716580234576, "lat": 48.85865170952645}, "nom_arrondissement_communes": "Paris", "code_insee_commune": null}, {"stationcode": "2015", "name": "Louis le Grand - Italiens", "is_installed": "OUI", "capacity": 33, "numdocksavailable": 20, "numbikesavailable": 12, "mechanical": 9, "ebike": 3, "is_renting": "OUI", "is_returning": "OUI", "duedate": "2024-06-14T15:49:11+00:00", "coordonnees_geo": {"lon": 2.3340544619393, "lat": 48.870508937204}, "nom_arrondissement_communes": "Paris", "code_insee_commune": null}, {"stationcode": "14137", "name": "Maurice d'Ocagne - General Maudhuy", "is_installed": "OUI", "capacity": 30, "numdocksavailable": 24, "numbikesavailable": 5, "mechanical": 3, "ebike": 2, "is_renting": "OUI", "is_returning": "OUI", "duedate": "2024-06-14T15:40:40+00:00", "coordonnees_geo": {"lon": 2.3158789426088333, "lat": 48.82414282524159}, "nom_arrondissement_communes": "Paris", "code_insee_commune": null}, {"stationcode": "31709", "name": "Place de la Fraternit\u00e9", "is_installed": "OUI", "capacity": 22, "numdocksavailable": 18, "numbikesavailable": 2, "mechanical": 0, "ebike": 2, "is_renting": "OUI", "is_returning": "OUI", "duedate": "2024-06-14T15:49:46+00:00", "coordonnees_geo": {"lon": 2.422847449779511, "lat": 48.85716405838368}, "nom_arrondissement_communes": "Montreuil", "code_insee_commune": null}, {"stationcode": "10006", "name": "Petites Ecuries - Faubourg Saint-Denis", "is_installed": "OUI", "capacity": 28, "numdocksavailable": 7, "numbikesavailable": 16, "mechanical": 14, "ebike": 2, "is_renting": "OUI", "is_returning": "OUI", "duedate": "2024-06-14T15:50:14+00:00", "coordonnees_geo": {"lon": 2.3542150855064397, "lat": 48.87287120589831}, "nom_arrondissement_communes": "Paris", "code_insee_commune": null}, {"stationcode": "22401", "name": "Charles de Gaulle - Plateau de Vanves", "is_installed": "OUI", "capacity": 33, "numdocksavailable": 29, "numbikesavailable": 4, "mechanical": 2, "ebike": 2, "is_renting": "OUI", "is_returning": "OUI", "duedate": "2024-06-14T15:44:36+00:00", "coordonnees_geo": {"lon": 2.298571803412886, "lat": 48.82233088973263}, "nom_arrondissement_communes": "Malakoff", "code_insee_commune": null}, {"stationcode": "12002", "name": "Lacu\u00e9e - Lyon", "is_installed": "OUI", "capacity": 16, "numdocksavailable": 1, "numbikesavailable": 10, "mechanical": 6, "ebike": 4, "is_renting": "OUI", "is_returning": "OUI", "duedate": "2024-06-14T15:49:39+00:00", "coordonnees_geo": {"lon": 2.3704585433006, "lat": 48.849268481958}, "nom_arrondissement_communes": "Paris", "code_insee_commune": null}, {"stationcode": "19129", "name": "Solitaires - Place des F\u00eates", "is_installed": "OUI", "capacity": 29, "numdocksavailable": 26, "numbikesavailable": 2, "mechanical": 0, "ebike": 2, "is_renting": "OUI", "is_returning": "OUI", "duedate": "2024-06-14T15:45:36+00:00", "coordonnees_geo": {"lon": 2.391769, "lat": 48.876601}, "nom_arrondissement_communes": "Paris", "code_insee_commune": null}, {"stationcode": "21506", "name": "Maurice Payret-Dortail", "is_installed": "OUI", "capacity": 22, "numdocksavailable": 22, "numbikesavailable": 0, "mechanical": 0, "ebike": 0, "is_renting": "OUI", "is_returning": "OUI", "duedate": "2024-06-14T15:47:15+00:00", "coordonnees_geo": {"lon": 2.2233625128865246, "lat": 48.87811957063342}, "nom_arrondissement_communes": "Suresnes", "code_insee_commune": null}, {"stationcode": "4103", "name": "Archives - Rivoli", "is_installed": "OUI", "capacity": 25, "numdocksavailable": 11, "numbikesavailable": 12, "mechanical": 6, "ebike": 6, "is_renting": "OUI", "is_returning": "OUI", "duedate": "2024-06-14T15:49:54+00:00", "coordonnees_geo": {"lon": 2.3539767041802, "lat": 48.857346707443}, "nom_arrondissement_communes": "Paris", "code_insee_commune": null}, {"stationcode": "14103", "name": "Maine - Liancourt", "is_installed": "OUI", "capacity": 27, "numdocksavailable": 21, "numbikesavailable": 5, "mechanical": 2, "ebike": 3, "is_renting": "OUI", "is_returning": "OUI", "duedate": "2024-06-14T15:44:51+00:00", "coordonnees_geo": {"lon": 2.323731449974, "lat": 48.835064363954}, "nom_arrondissement_communes": "Paris", "code_insee_commune": null}, {"stationcode": "3001", "name": "Beaumarchais - Saint-Gilles", "is_installed": "OUI", "capacity": 51, "numdocksavailable": 0, "numbikesavailable": 50, "mechanical": 40, "ebike": 10, "is_renting": "OUI", "is_returning": "OUI", "duedate": "2024-06-14T15:49:23+00:00", "coordonnees_geo": {"lon": 2.3679352, "lat": 48.8580378}, "nom_arrondissement_communes": "Paris", "code_insee_commune": null}, {"stationcode": "21110", "name": "Parc Roger Salengro", "is_installed": "OUI", "capacity": 35, "numdocksavailable": 0, "numbikesavailable": 33, "mechanical": 31, "ebike": 2, "is_renting": "OUI", "is_returning": "OUI", "duedate": "2024-06-14T15:49:45+00:00", "coordonnees_geo": {"lon": 2.31055945158, "lat": 48.905303858642}, "nom_arrondissement_communes": "Clichy", "code_insee_commune": null}, {"stationcode": "13017", "name": "Nationale - Vincent Auriol", "is_installed": "OUI", "capacity": 33, "numdocksavailable": 27, "numbikesavailable": 4, "mechanical": 3, "ebike": 1, "is_renting": "OUI", "is_returning": "OUI", "duedate": "2024-06-14T15:48:05+00:00", "coordonnees_geo": {"lon": 2.362354410392119, "lat": 48.83252708397293}, "nom_arrondissement_communes": "Paris", "code_insee_commune": null}, {"stationcode": "15111", "name": "Olivier de Serres - Leriche", "is_installed": "OUI", "capacity": 25, "numdocksavailable": 23, "numbikesavailable": 2, "mechanical": 2, "ebike": 0, "is_renting": "OUI", "is_returning": "OUI", "duedate": "2024-06-14T15:47:00+00:00", "coordonnees_geo": {"lon": 2.2957482933998112, "lat": 48.83460221715206}, "nom_arrondissement_communes": "Paris", "code_insee_commune": null}, {"stationcode": "12020", "name": "Cours de Vincennes - Soult", "is_installed": "OUI", "capacity": 45, "numdocksavailable": 40, "numbikesavailable": 5, "mechanical": 3, "ebike": 2, "is_renting": "OUI", "is_returning": "OUI", "duedate": "2024-06-14T15:49:41+00:00", "coordonnees_geo": {"lon": 2.4105220288038, "lat": 48.846918761569}, "nom_arrondissement_communes": "Paris", "code_insee_commune": null}, {"stationcode": "2021", "name": "Cl\u00e9ry - Montmartre", "is_installed": "OUI", "capacity": 44, "numdocksavailable": 42, "numbikesavailable": 2, "mechanical": 1, "ebike": 1, "is_renting": "OUI", "is_returning": "OUI", "duedate": "2024-06-14T15:50:12+00:00", "coordonnees_geo": {"lon": 2.3445211, "lat": 48.867458}, "nom_arrondissement_communes": "Paris", "code_insee_commune": null}, {"stationcode": "24006", "name": "Adolphe Lalyre - Armand Silvestre", "is_installed": "OUI", "capacity": 40, "numdocksavailable": 38, "numbikesavailable": 1, "mechanical": 0, "ebike": 1, "is_renting": "OUI", "is_returning": "OUI", "duedate": "2024-06-14T15:48:42+00:00", "coordonnees_geo": {"lon": 2.273416221141815, "lat": 48.90406266961591}, "nom_arrondissement_communes": "Courbevoie", "code_insee_commune": null}, {"stationcode": "13125", "name": "Gare d'Austerlitz - Pont Charles de Gaulle", "is_installed": "OUI", "capacity": 55, "numdocksavailable": 8, "numbikesavailable": 45, "mechanical": 39, "ebike": 6, "is_renting": "OUI", "is_returning": "OUI", "duedate": "2024-06-14T15:49:52+00:00", "coordonnees_geo": {"lon": 2.3670300096273422, "lat": 48.842319830109304}, "nom_arrondissement_communes": "Paris", "code_insee_commune": null}, {"stationcode": "14022", "name": "Didot - Mariniers", "is_installed": "OUI", "capacity": 35, "numdocksavailable": 29, "numbikesavailable": 5, "mechanical": 1, "ebike": 4, "is_renting": "OUI", "is_returning": "OUI", "duedate": "2024-06-14T15:48:23+00:00", "coordonnees_geo": {"lon": 2.313136198271666, "lat": 48.82650543613106}, "nom_arrondissement_communes": "Paris", "code_insee_commune": null}, {"stationcode": "2002", "name": "Etienne Marcel - Montorgueil", "is_installed": "OUI", "capacity": 28, "numdocksavailable": 13, "numbikesavailable": 14, "mechanical": 14, "ebike": 0, "is_renting": "OUI", "is_returning": "OUI", "duedate": "2024-06-14T15:47:09+00:00", "coordonnees_geo": {"lon": 2.3461959511041637, "lat": 48.86450567259199}, "nom_arrondissement_communes": "Paris", "code_insee_commune": null}, {"stationcode": "19012", "name": "Lally-Tollendal - Armand Carrel", "is_installed": "OUI", "capacity": 28, "numdocksavailable": 21, "numbikesavailable": 7, "mechanical": 3, "ebike": 4, "is_renting": "OUI", "is_returning": "OUI", "duedate": "2024-06-14T15:50:13+00:00", "coordonnees_geo": {"lon": 2.374717555940151, "lat": 48.88270066221072}, "nom_arrondissement_communes": "Paris", "code_insee_commune": null}, {"stationcode": "21507", "name": "Gardenat-Lapostol - Velettes", "is_installed": "OUI", "capacity": 20, "numdocksavailable": 19, "numbikesavailable": 1, "mechanical": 1, "ebike": 0, "is_renting": "OUI", "is_returning": "OUI", "duedate": "2024-06-14T15:48:09+00:00", "coordonnees_geo": {"lon": 2.224185, "lat": 48.87387}, "nom_arrondissement_communes": "Suresnes", "code_insee_commune": null}, {"stationcode": "22306", "name": "Place du 17 Octobre", "is_installed": "OUI", "capacity": 20, "numdocksavailable": 3, "numbikesavailable": 16, "mechanical": 13, "ebike": 3, "is_renting": "OUI", "is_returning": "OUI", "duedate": "2024-06-14T15:49:35+00:00", "coordonnees_geo": {"lon": 2.2978286134199792, "lat": 48.91962690034779}, "nom_arrondissement_communes": "Gennevilliers", "code_insee_commune": null}, {"stationcode": "22502", "name": "Kl\u00e9ber - National", "is_installed": "OUI", "capacity": 20, "numdocksavailable": 19, "numbikesavailable": 1, "mechanical": 0, "ebike": 1, "is_renting": "OUI", "is_returning": "OUI", "duedate": "2024-06-14T15:47:19+00:00", "coordonnees_geo": {"lon": 2.2393910586833954, "lat": 48.906333898712234}, "nom_arrondissement_communes": "La Garenne-Colombes", "code_insee_commune": null}, {"stationcode": "3003", "name": "Fille du Calvaire - Turenne", "is_installed": "OUI", "capacity": 29, "numdocksavailable": 4, "numbikesavailable": 22, "mechanical": 13, "ebike": 9, "is_renting": "OUI", "is_returning": "OUI", "duedate": "2024-06-14T15:49:13+00:00", "coordonnees_geo": {"lon": 2.3649600148200993, "lat": 48.86210505412563}, "nom_arrondissement_communes": "Paris", "code_insee_commune": null}, {"stationcode": "19111", "name": "Cesaria Evora - Rosa Parks", "is_installed": "OUI", "capacity": 40, "numdocksavailable": 30, "numbikesavailable": 9, "mechanical": 6, "ebike": 3, "is_renting": "OUI", "is_returning": "OUI", "duedate": "2024-06-14T15:48:22+00:00", "coordonnees_geo": {"lon": 2.3745173960924144, "lat": 48.89717672825043}, "nom_arrondissement_communes": "Paris", "code_insee_commune": null}, {"stationcode": "9111", "name": "Victoire - Laffitte", "is_installed": "OUI", "capacity": 20, "numdocksavailable": 19, "numbikesavailable": 1, "mechanical": 0, "ebike": 1, "is_renting": "OUI", "is_returning": "OUI", "duedate": "2024-06-14T15:46:24+00:00", "coordonnees_geo": {"lon": 2.338118505144376, "lat": 48.87514373494672}, "nom_arrondissement_communes": "Paris", "code_insee_commune": null}, {"stationcode": "5122", "name": "Saint-Michel - Luxembourg", "is_installed": "OUI", "capacity": 29, "numdocksavailable": 23, "numbikesavailable": 4, "mechanical": 1, "ebike": 3, "is_renting": "OUI", "is_returning": "OUI", "duedate": "2024-06-14T15:45:06+00:00", "coordonnees_geo": {"lon": 2.3394941166043, "lat": 48.84501507626}, "nom_arrondissement_communes": "Paris", "code_insee_commune": null}, {"stationcode": "4012", "name": "Tiron - Rivoli", "is_installed": "OUI", "capacity": 28, "numdocksavailable": 2, "numbikesavailable": 23, "mechanical": 17, "ebike": 6, "is_renting": "OUI", "is_returning": "OUI", "duedate": "2024-06-14T15:49:16+00:00", "coordonnees_geo": {"lon": 2.3579058051109, "lat": 48.855692253233}, "nom_arrondissement_communes": "Paris", "code_insee_commune": null}, {"stationcode": "41208", "name": "Alouettes - Mar\u00e9chal de Lattre de Tassigny", "is_installed": "OUI", "capacity": 22, "numdocksavailable": 13, "numbikesavailable": 9, "mechanical": 6, "ebike": 3, "is_renting": "OUI", "is_returning": "OUI", "duedate": "2024-06-14T15:49:43+00:00", "coordonnees_geo": {"lon": 2.4930700287222862, "lat": 48.85511009293948}, "nom_arrondissement_communes": "Fontenay-sous-Bois", "code_insee_commune": null}, {"stationcode": "21706", "name": "Jean Bleuzen - Square du 11 Novembre", "is_installed": "OUI", "capacity": 49, "numdocksavailable": 43, "numbikesavailable": 3, "mechanical": 1, "ebike": 2, "is_renting": "OUI", "is_returning": "OUI", "duedate": "2024-06-14T15:48:40+00:00", "coordonnees_geo": {"lon": 2.2965213, "lat": 48.8232579}, "nom_arrondissement_communes": "Vanves", "code_insee_commune": null}, {"stationcode": "4017", "name": "Place de l'H\u00f4tel de Ville", "is_installed": "OUI", "capacity": 14, "numdocksavailable": 3, "numbikesavailable": 10, "mechanical": 5, "ebike": 5, "is_renting": "OUI", "is_returning": "OUI", "duedate": "2024-06-14T15:50:04+00:00", "coordonnees_geo": {"lon": 2.351458, "lat": 48.8573314}, "nom_arrondissement_communes": "Paris", "code_insee_commune": null}, {"stationcode": "1014", "name": "Rivoli - Mus\u00e9e du Louvre", "is_installed": "OUI", "capacity": 24, "numdocksavailable": 6, "numbikesavailable": 16, "mechanical": 12, "ebike": 4, "is_renting": "OUI", "is_returning": "OUI", "duedate": "2024-06-14T15:47:17+00:00", "coordonnees_geo": {"lon": 2.33409583568573, "lat": 48.86364636851945}, "nom_arrondissement_communes": "Paris", "code_insee_commune": null}, {"stationcode": "26006", "name": "Bas - Gabriel P\u00e9ri", "is_installed": "OUI", "capacity": 30, "numdocksavailable": 22, "numbikesavailable": 7, "mechanical": 3, "ebike": 4, "is_renting": "OUI", "is_returning": "OUI", "duedate": "2024-06-14T15:44:47+00:00", "coordonnees_geo": {"lon": 2.2948095202445984, "lat": 48.91585580539625}, "nom_arrondissement_communes": "Asni\u00e8res-sur-Seine", "code_insee_commune": null}]