[{"stationcode": "14130", "name": "Jonquoy - Didot", "is_installed": "OUI", "capacity": 30, "numdocksavailable": 21, "numbikesavailable": 9, "mechanical": 2, "ebike": 7, "is_renting": "OUI", "is_returning": "OUI", "duedate": "2024-06-16T06:53:29+00:00", "coordonnees_geo": {"lon": 2.31648076325655, "lat": 48.82890454823947}, "nom_arrondissement_communes": "Paris", "code_insee_commune": null}, {"stationcode": "10015", "name": "Lucien Sampaix - R\u00e9collets", "is_installed": "OUI", "capacity": 46, "numdocksavailable": 9, "numbikesavailable": 35, "mechanical": 31, "ebike": 4, "is_renting": "OUI", "is_returning": "OUI", "duedate": "2024-06-16T06:53:56+00:00", "coordonnees_geo": {"lon": 2.3621229082345963, "lat": 48.874330377560476}, "nom_arrondissement_communes": "Paris", "code_insee_commune": null}, {"stationcode": "41207", "name": "Place du G\u00e9n\u00e9ral de Gaulle", "is_installed": "OUI", "capacity": 28, "numdocksavailable": 20, "numbikesavailable": 8, "mechanical": 1, "ebike": 7, "is_renting": "OUI", "is_returning": "OUI", "duedate": "2024-06-16T06:54:07+00:00", "coordonnees_geo": {"lon": 2.4877332, "lat": 48.8525288}, "nom_arrondissement_communes": "Fontenay-sous-Bois", "code_insee_commune": null}, {"stationcode": "12011", "name": "Charenton - Place du Col Bourgoin", "is_installed": "OUI", "capacity": 35, "numdocksavailable": 3, "numbikesavailable": 30, "mechanical": 26, "ebike": 4, "is_renting": "OUI", "is_returning": "OUI", "duedate": "2024-06-16T06:53:53+00:00", "coordonnees_geo": {"lon": 2.3825789350545, "lat": 48.844867319554}, "nom_arrondissement_communes": "Paris", "code_insee_commune": null}, {"stationcode": "20109", "name": "Haxo - Surmelin", "is_installed": "OUI", "capacity": 21, "numdocksavailable": 15, "numbikesavailable": 5, "mechanical": 0, "ebike": 5, "is_renting": "OUI", "is_returning": "OUI", "duedate": "2024-06-16T06:53:58+00:00", "coordonnees_geo": {"lon": 2.40539657537972, "lat": 48.8694370761222}, "nom_arrondissement_communes": "Paris", "code_insee_commune": null}, {"stationcode": "6103", "name": "M\u00e9zi\u00e8res - Rennes", "is_installed": "OUI", "capacity": 55, "numdocksavailable": 46, "numbikesavailable": 9, "mechanical": 5, "ebike": 4, "is_renting": "OUI", "is_returning": "OUI", "duedate": "2024-06-16T06:51:40+00:00", "coordonnees_geo": {"lon": 2.3303819820284843, "lat": 48.85023459321703}, "nom_arrondissement_communes": "Paris", "code_insee_commune": null}, {"stationcode": "20021", "name": "Indre - Prairies", "is_installed": "OUI", "capacity": 38, "numdocksavailable": 36, "numbikesavailable": 2, "mechanical": 0, "ebike": 2, "is_renting": "OUI", "is_returning": "OUI", "duedate": "2024-06-16T06:54:41+00:00", "coordonnees_geo": {"lon": 2.403290458023548, "lat": 48.86254398506782}, "nom_arrondissement_communes": "Paris", "code_insee_commune": null}, {"stationcode": "7005", "name": "Raspail - Bac", "is_installed": "OUI", "capacity": 52, "numdocksavailable": 39, "numbikesavailable": 12, "mechanical": 11, "ebike": 1, "is_renting": "OUI", "is_returning": "OUI", "duedate": "2024-06-16T06:54:31+00:00", "coordonnees_geo": {"lon": 2.3256602883339, "lat": 48.855628721101}, "nom_arrondissement_communes": "Paris", "code_insee_commune": null}, {"stationcode": "6018", "name": "Michelet - Assas", "is_installed": "OUI", "capacity": 18, "numdocksavailable": 12, "numbikesavailable": 6, "mechanical": 3, "ebike": 3, "is_renting": "OUI", "is_returning": "OUI", "duedate": "2024-06-16T06:50:00+00:00", "coordonnees_geo": {"lon": 2.3350211977959, "lat": 48.842741502832}, "nom_arrondissement_communes": "Paris", "code_insee_commune": null}, {"stationcode": "32014", "name": "Place du Cornillon - Stade de France", "is_installed": "OUI", "capacity": 34, "numdocksavailable": 27, "numbikesavailable": 5, "mechanical": 1, "ebike": 4, "is_renting": "OUI", "is_returning": "OUI", "duedate": "2024-06-16T06:50:00+00:00", "coordonnees_geo": {"lon": 2.3644426837563515, "lat": 48.92540695835961}, "nom_arrondissement_communes": "Saint-Denis", "code_insee_commune": null}, {"stationcode": "18032", "name": "Porte de Clignancourt.", "is_installed": "OUI", "capacity": 56, "numdocksavailable": 46, "numbikesavailable": 9, "mechanical": 6, "ebike": 3, "is_renting": "OUI", "is_returning": "OUI", "duedate": "2024-06-16T06:48:35+00:00", "coordonnees_geo": {"lon": 2.343996, "lat": 48.897488}, "nom_arrondissement_communes": "Paris", "code_insee_commune": null}, {"stationcode": "17027", "name": "Place du Mar\u00e9chal Juin - P\u00e9reire", "is_installed": "OUI", "capacity": 46, "numdocksavailable": 30, "numbikesavailable": 15, "mechanical": 8, "ebike": 7, "is_renting": "OUI", "is_returning": "OUI", "duedate": "2024-06-16T06:53:46+00:00", "coordonnees_geo": {"lon": 2.298286, "lat": 48.885263}, "nom_arrondissement_communes": "Paris", "code_insee_commune": null}, {"stationcode": "22101", "name": "Gare Routi\u00e8re de Saint Cloud", "is_installed": "OUI", "capacity": 31, "numdocksavailable": 3, "numbikesavailable": 26, "mechanical": 22, "ebike": 4, "is_renting": "OUI", "is_returning": "OUI", "duedate": "2024-06-16T06:53:49+00:00", "coordonnees_geo": {"lon": 2.222245037555695, "lat": 48.84288183896324}, "nom_arrondissement_communes": "Saint-Cloud", "code_insee_commune": null}, {"stationcode": "9115", "name": "Milton - Manuel", "is_installed": "OUI", "capacity": 22, "numdocksavailable": 20, "numbikesavailable": 2, "mechanical": 0, "ebike": 2, "is_renting": "OUI", "is_returning": "OUI", "duedate": "2024-06-16T06:49:41+00:00", "coordonnees_geo": {"lon": 2.341181, "lat": 48.878249}, "nom_arrondissement_communes": "Paris", "code_insee_commune": null}, {"stationcode": "21003", "name": "Jean Jaur\u00e8s - Jean Baptiste Cl\u00e9ment", "is_installed": "OUI", "capacity": 39, "numdocksavailable": 2, "numbikesavailable": 35, "mechanical": 28, "ebike": 7, "is_renting": "OUI", "is_returning": "OUI", "duedate": "2024-06-16T06:54:13+00:00", "coordonnees_geo": {"lon": 2.2369650006294255, "lat": 48.84576261454011}, "nom_arrondissement_communes": "Boulogne-Billancourt", "code_insee_commune": null}, {"stationcode": "22001", "name": "Ch\u00e2teau - Bineau", "is_installed": "OUI", "capacity": 23, "numdocksavailable": 2, "numbikesavailable": 20, "mechanical": 10, "ebike": 10, "is_renting": "OUI", "is_returning": "OUI", "duedate": "2024-06-16T06:52:27+00:00", "coordonnees_geo": {"lon": 2.270106375217438, "lat": 48.890404028589806}, "nom_arrondissement_communes": "Neuilly-sur-Seine", "code_insee_commune": null}, {"stationcode": "17122", "name": "Bridaine - Lamand\u00e9", "is_installed": "OUI", "capacity": 29, "numdocksavailable": 25, "numbikesavailable": 4, "mechanical": 1, "ebike": 3, "is_renting": "OUI", "is_returning": "OUI", "duedate": "2024-06-16T06:48:06+00:00", "coordonnees_geo": {"lon": 2.3206239, "lat": 48.8862074}, "nom_arrondissement_communes": "Paris", "code_insee_commune": null}, {"stationcode": "20027", "name": "Porte de M\u00e9nilmontant", "is_installed": "OUI", "capacity": 15, "numdocksavailable": 14, "numbikesavailable": 0, "mechanical": 0, "ebike": 0, "is_renting": "OUI", "is_returning": "OUI", "duedate": "2024-06-16T06:49:17+00:00", "coordonnees_geo": {"lon": 2.40932246879487, "lat": 48.8691543609174}, "nom_arrondissement_communes": "Paris", "code_insee_commune": null}, {"stationcode": "16123", "name": "Mahatma Gandhi", "is_installed": "OUI", "capacity": 26, "numdocksavailable": 19, "numbikesavailable": 7, "mechanical": 2, "ebike": 5, "is_renting": "OUI", "is_returning": "OUI", "duedate": "2024-06-16T06:53:38+00:00", "coordonnees_geo": {"lon": 2.264205, "lat": 48.876356}, "nom_arrondissement_communes": "Paris", "code_insee_commune": null}, {"stationcode": "31007", "name": "Paris - D\u00e9sir\u00e9 Pr\u00e9aux", "is_installed": "OUI", "capacity": 49, "numdocksavailable": 39, "numbikesavailable": 9, "mechanical": 3, "ebike": 6, "is_renting": "OUI", "is_returning": "OUI", "duedate": "2024-06-16T06:49:12+00:00", "coordonnees_geo": {"lon": 2.4323049187660217, "lat": 48.85742876694898}, "nom_arrondissement_communes": "Montreuil", "code_insee_commune": null}, {"stationcode": "15108", "name": "Lourmel - Marie Skobtsov", "is_installed": "OUI", "capacity": 22, "numdocksavailable": 2, "numbikesavailable": 20, "mechanical": 16, "ebike": 4, "is_renting": "OUI", "is_returning": "OUI", "duedate": "2024-06-16T06:51:27+00:00", "coordonnees_geo": {"lon": 2.287283, "lat": 48.844974}, "nom_arrondissement_communes": "Paris", "code_insee_commune": null}, {"stationcode": "17047", "name": "Courcelles - Pierre Demours", "is_installed": "OUI", "capacity": 26, "numdocksavailable": 16, "numbikesavailable": 10, "mechanical": 4, "ebike": 6, "is_renting": "OUI", "is_returning": "OUI", "duedate": "2024-06-16T06:45:07+00:00", "coordonnees_geo": {"lon": 2.29858466343129, "lat": 48.883769733273496}, "nom_arrondissement_communes": "Paris", "code_insee_commune": null}, {"stationcode": "41204", "name": "R\u00e9publique - Danton", "is_installed": "OUI", "capacity": 20, "numdocksavailable": 17, "numbikesavailable": 3, "mechanical": 0, "ebike": 3, "is_renting": "OUI", "is_returning": "OUI", "duedate": "2024-06-16T06:50:12+00:00", "coordonnees_geo": {"lon": 2.462034523487091, "lat": 48.85249172181667}, "nom_arrondissement_communes": "Fontenay-sous-Bois", "code_insee_commune": null}, {"stationcode": "17046", "name": "Mac-Mahon - Brey", "is_installed": "OUI", "capacity": 25, "numdocksavailable": 23, "numbikesavailable": 2, "mechanical": 1, "ebike": 1, "is_renting": "OUI", "is_returning": "OUI", "duedate": "2024-06-16T06:50:58+00:00", "coordonnees_geo": {"lon": 2.294512536052928, "lat": 48.877532084130166}, "nom_arrondissement_communes": "Paris", "code_insee_commune": null}, {"stationcode": "17121", "name": "Square des Epinettes", "is_installed": "OUI", "capacity": 20, "numdocksavailable": 5, "numbikesavailable": 14, "mechanical": 6, "ebike": 8, "is_renting": "OUI", "is_returning": "OUI", "duedate": "2024-06-16T06:53:56+00:00", "coordonnees_geo": {"lon": 2.325953990221024, "lat": 48.89383909781389}, "nom_arrondissement_communes": "Paris", "code_insee_commune": null}, {"stationcode": "47006", "name": "Les Plan\u00e8tes", "is_installed": "OUI", "capacity": 16, "numdocksavailable": 4, "numbikesavailable": 12, "mechanical": 7, "ebike": 5, "is_renting": "OUI", "is_returning": "OUI", "duedate": "2024-06-16T06:53:32+00:00", "coordonnees_geo": {"lon": 2.4580853059887886, "lat": 48.8099849920804}, "nom_arrondissement_communes": "Maisons-Alfort", "code_insee_commune": null}, {"stationcode": "10020", "name": "Chabrol - d'Hauteville", "is_installed": "OUI", "capacity": 11, "numdocksavailable": 4, "numbikesavailable": 5, "mechanical": 4, "ebike": 1, "is_renting": "OUI", "is_returning": "OUI", "duedate": "2024-06-16T06:54:42+00:00", "coordonnees_geo": {"lon": 2.3513179644942284, "lat": 48.87701838803332}, "nom_arrondissement_communes": "Paris", "code_insee_commune": null}, {"stationcode": "18113", "name": "Lepic - Arm\u00e9e d'Orient", "is_installed": "OUI", "capacity": 24, "numdocksavailable": 9, "numbikesavailable": 15, "mechanical": 14, "ebike": 1, "is_renting": "OUI", "is_returning": "OUI", "duedate": "2024-06-16T06:52:51+00:00", "coordonnees_geo": {"lon": 2.334307730197907, "lat": 48.88753640381415}, "nom_arrondissement_communes": "Paris", "code_insee_commune": null}, {"stationcode": "18109", "name": "Pajol - Riquet", "is_installed": "OUI", "capacity": 47, "numdocksavailable": 5, "numbikesavailable": 40, "mechanical": 21, "ebike": 19, "is_renting": "OUI", "is_returning": "OUI", "duedate": "2024-06-16T06:54:18+00:00", "coordonnees_geo": {"lon": 2.3628534749150276, "lat": 48.88960028134536}, "nom_arrondissement_communes": "Paris", "code_insee_commune": null}, {"stationcode": "16021", "name": "Fran\u00e7ois Ponsard - La Muette", "is_installed": "OUI", "capacity": 23, "numdocksavailable": 15, "numbikesavailable": 8, "mechanical": 8, "ebike": 0, "is_renting": "OUI", "is_returning": "OUI", "duedate": "2024-06-16T06:52:08+00:00", "coordonnees_geo": {"lon": 2.2744515, "lat": 48.8583666}, "nom_arrondissement_communes": "Paris", "code_insee_commune": null}, {"stationcode": "9117", "name": "Bellefond - Maubeuge", "is_installed": "OUI", "capacity": 31, "numdocksavailable": 12, "numbikesavailable": 17, "mechanical": 10, "ebike": 7, "is_renting": "OUI", "is_returning": "OUI", "duedate": "2024-06-16T06:47:50+00:00", "coordonnees_geo": {"lon": 2.3452642187476, "lat": 48.878255397645}, "nom_arrondissement_communes": "Paris", "code_insee_commune": null}, {"stationcode": "14002", "name": "Edgar Quinet - Raspail", "is_installed": "OUI", "capacity": 46, "numdocksavailable": 26, "numbikesavailable": 18, "mechanical": 15, "ebike": 3, "is_renting": "OUI", "is_returning": "OUI", "duedate": "2024-06-16T06:54:13+00:00", "coordonnees_geo": {"lon": 2.32971478253603, "lat": 48.83940266673835}, "nom_arrondissement_communes": "Paris", "code_insee_commune": null}, {"stationcode": "35003", "name": "Gabrielle Josserand - Edouard Vaillant", "is_installed": "OUI", "capacity": 25, "numdocksavailable": 10, "numbikesavailable": 14, "mechanical": 13, "ebike": 1, "is_renting": "OUI", "is_returning": "OUI", "duedate": "2024-06-16T06:51:57+00:00", "coordonnees_geo": {"lon": 2.3933270573616032, "lat": 48.90271566255436}, "nom_arrondissement_communes": "Pantin", "code_insee_commune": null}, {"stationcode": "35014", "name": "Charles de Gaulle - Jean Lolive", "is_installed": "OUI", "capacity": 26, "numdocksavailable": 22, "numbikesavailable": 3, "mechanical": 1, "ebike": 2, "is_renting": "OUI", "is_returning": "OUI", "duedate": "2024-06-16T06:52:59+00:00", "coordonnees_geo": {"lon": 2.4126765131950383, "lat": 48.8932644350857}, "nom_arrondissement_communes": "Pantin", "code_insee_commune": null}, {"stationcode": "15070", "name": "Balard - Montagne de la Fage", "is_installed": "OUI", "capacity": 36, "numdocksavailable": 7, "numbikesavailable": 25, "mechanical": 22, "ebike": 3, "is_renting": "OUI", "is_returning": "OUI", "duedate": "2024-06-16T06:50:02+00:00", "coordonnees_geo": {"lon": 2.2782871127128606, "lat": 48.83850740333351}, "nom_arrondissement_communes": "Paris", "code_insee_commune": null}, {"stationcode": "1120", "name": "Lavandieres Sainte Opportune - Rivoli", "is_installed": "OUI", "capacity": 27, "numdocksavailable": 24, "numbikesavailable": 2, "mechanical": 1, "ebike": 1, "is_renting": "OUI", "is_returning": "OUI", "duedate": "2024-06-16T06:50:47+00:00", "coordonnees_geo": {"lon": 2.3466217517853, "lat": 48.859279702476}, "nom_arrondissement_communes": "Paris", "code_insee_commune": null}, {"stationcode": "14112", "name": "M\u00e9chain - Faubourg Saint-Jacques", "is_installed": "OUI", "capacity": 16, "numdocksavailable": 12, "numbikesavailable": 4, "mechanical": 1, "ebike": 3, "is_renting": "OUI", "is_returning": "OUI", "duedate": "2024-06-16T06:48:49+00:00", "coordonnees_geo": {"lon": 2.33798034198275, "lat": 48.83586772099485}, "nom_arrondissement_communes": "Paris", "code_insee_commune": null}, {"stationcode": "9026", "name": "Jean-Baptiste Pigalle - La Bruyere", "is_installed": "OUI", "capacity": 17, "numdocksavailable": 15, "numbikesavailable": 1, "mechanical": 1, "ebike": 0, "is_renting": "OUI", "is_returning": "OUI", "duedate": "2024-06-16T06:53:13+00:00", "coordonnees_geo": {"lon": 2.333709173337285, "lat": 48.87939826447722}, "nom_arrondissement_communes": "Paris", "code_insee_commune": null}, {"stationcode": "18033", "name": "Belliard - Damr\u00e9mont", "is_installed": "OUI", "capacity": 34, "numdocksavailable": 25, "numbikesavailable": 9, "mechanical": 8, "ebike": 1, "is_renting": "OUI", "is_returning": "OUI", "duedate": "2024-06-16T06:54:36+00:00", "coordonnees_geo": {"lon": 2.338023450388167, "lat": 48.89669238777841}, "nom_arrondissement_communes": "Paris", "code_insee_commune": null}, {"stationcode": "15002", "name": "Maine - Antoine Bourdelle", "is_installed": "OUI", "capacity": 17, "numdocksavailable": 11, "numbikesavailable": 4, "mechanical": 3, "ebike": 1, "is_renting": "OUI", "is_returning": "OUI", "duedate": "2024-06-16T06:49:02+00:00", "coordonnees_geo": {"lon": 2.320263946784738, "lat": 48.84308531746595}, "nom_arrondissement_communes": "Paris", "code_insee_commune": null}, {"stationcode": "20016", "name": "Pyr\u00e9n\u00e9es - Mara\u00eechers", "is_installed": "OUI", "capacity": 19, "numdocksavailable": 15, "numbikesavailable": 4, "mechanical": 0, "ebike": 4, "is_renting": "OUI", "is_returning": "OUI", "duedate": "2024-06-16T06:54:31+00:00", "coordonnees_geo": {"lon": 2.4043509364128113, "lat": 48.85714001395299}, "nom_arrondissement_communes": "Paris", "code_insee_commune": null}, {"stationcode": "32015", "name": "Gare RER de Saint-Denis", "is_installed": "OUI", "capacity": 40, "numdocksavailable": 12, "numbikesavailable": 22, "mechanical": 6, "ebike": 16, "is_renting": "OUI", "is_returning": "OUI", "duedate": "2024-06-16T06:51:40+00:00", "coordonnees_geo": {"lon": 2.3471488058567047, "lat": 48.93554324248177}, "nom_arrondissement_communes": "Saint-Denis", "code_insee_commune": null}, {"stationcode": "10010", "name": "Place Jacques Bonsergent", "is_installed": "OUI", "capacity": 33, "numdocksavailable": 18, "numbikesavailable": 14, "mechanical": 11, "ebike": 3, "is_renting": "OUI", "is_returning": "OUI", "duedate": "2024-06-16T06:54:16+00:00", "coordonnees_geo": {"lon": 2.3612049221992, "lat": 48.870948218595}, "nom_arrondissement_communes": "Paris", "code_insee_commune": null}, {"stationcode": "5121", "name": "Square Ren\u00e9 Viviani - Montebello", "is_installed": "OUI", "capacity": 34, "numdocksavailable": 15, "numbikesavailable": 19, "mechanical": 17, "ebike": 2, "is_renting": "OUI", "is_returning": "OUI", "duedate": "2024-06-16T06:53:46+00:00", "coordonnees_geo": {"lon": 2.347842156887055, "lat": 48.851904891406384}, "nom_arrondissement_communes": "Paris", "code_insee_commune": null}, {"stationcode": "16027", "name": "Mozart - Jasmin", "is_installed": "OUI", "capacity": 62, "numdocksavailable": 23, "numbikesavailable": 39, "mechanical": 31, "ebike": 8, "is_renting": "OUI", "is_returning": "OUI", "duedate": "2024-06-16T06:53:39+00:00", "coordonnees_geo": {"lon": 2.268483570651513, "lat": 48.85286124871689}, "nom_arrondissement_communes": "Paris", "code_insee_commune": null}, {"stationcode": "6107", "name": "Place Alphonse Deville", "is_installed": "OUI", "capacity": 23, "numdocksavailable": 13, "numbikesavailable": 10, "mechanical": 8, "ebike": 2, "is_renting": "OUI", "is_returning": "OUI", "duedate": "2024-06-16T06:50:28+00:00", "coordonnees_geo": {"lon": 2.3275961726904, "lat": 48.850188262662}, "nom_arrondissement_communes": "Paris", "code_insee_commune": null}, {"stationcode": "16029", "name": "Maison de Radio - France", "is_installed": "OUI", "capacity": 47, "numdocksavailable": 14, "numbikesavailable": 32, "mechanical": 31, "ebike": 1, "is_renting": "OUI", "is_returning": "OUI", "duedate": "2024-06-16T06:52:48+00:00", "coordonnees_geo": {"lon": 2.277785539627075, "lat": 48.85132886434057}, "nom_arrondissement_communes": "Paris", "code_insee_commune": null}, {"stationcode": "18008", "name": "Square L\u00e9on", "is_installed": "OUI", "capacity": 33, "numdocksavailable": 21, "numbikesavailable": 11, "mechanical": 0, "ebike": 11, "is_renting": "OUI", "is_returning": "OUI", "duedate": "2024-06-16T06:54:07+00:00", "coordonnees_geo": {"lon": 2.353205569088459, "lat": 48.88667396788626}, "nom_arrondissement_communes": "Paris", "code_insee_commune": null}, {"stationcode": "7008", "name": "Villersexel - Saint-Germain", "is_installed": "OUI", "capacity": 16, "numdocksavailable": 10, "numbikesavailable": 5, "mechanical": 4, "ebike": 1, "is_renting": "OUI", "is_returning": "OUI", "duedate": "2024-06-16T06:45:56+00:00", "coordonnees_geo": {"lon": 2.3237934708595, "lat": 48.858297001218}, "nom_arrondissement_communes": "Paris", "code_insee_commune": null}, {"stationcode": "14030", "name": "Pernety - Raymond Losserand", "is_installed": "OUI", "capacity": 32, "numdocksavailable": 23, "numbikesavailable": 9, "mechanical": 3, "ebike": 6, "is_renting": "OUI", "is_returning": "OUI", "duedate": "2024-06-16T06:52:18+00:00", "coordonnees_geo": {"lon": 2.317609339387, "lat": 48.834254627953}, "nom_arrondissement_communes": "Paris", "code_insee_commune": null}, {"stationcode": "20201", "name": "Eug\u00e8ne Reisz - Davout", "is_installed": "OUI", "capacity": 20, "numdocksavailable": 14, "numbikesavailable": 5, "mechanical": 2, "ebike": 3, "is_renting": "OUI", "is_returning": "OUI", "duedate": "2024-06-16T06:49:52+00:00", "coordonnees_geo": {"lon": 2.410396970808506, "lat": 48.85631874632638}, "nom_arrondissement_communes": "Paris", "code_insee_commune": null}, {"stationcode": "22102", "name": "Mont Val\u00e9rien - Michel Salles", "is_installed": "OUI", "capacity": 24, "numdocksavailable": 17, "numbikesavailable": 6, "mechanical": 1, "ebike": 5, "is_renting": "OUI", "is_returning": "OUI", "duedate": "2024-06-16T06:49:44+00:00", "coordonnees_geo": {"lon": 2.2152966, "lat": 48.8561915}, "nom_arrondissement_communes": "Saint-Cloud", "code_insee_commune": null}, {"stationcode": "15003", "name": "Gare Montparnasse - Vaugirard", "is_installed": "OUI", "capacity": 66, "numdocksavailable": 35, "numbikesavailable": 27, "mechanical": 4, "ebike": 23, "is_renting": "OUI", "is_returning": "OUI", "duedate": "2024-06-16T06:53:53+00:00", "coordonnees_geo": {"lon": 2.31951002690117, "lat": 48.8418071798797}, "nom_arrondissement_communes": "Paris", "code_insee_commune": null}, {"stationcode": "6032", "name": "Sabot - Rennes", "is_installed": "OUI", "capacity": 26, "numdocksavailable": 19, "numbikesavailable": 7, "mechanical": 3, "ebike": 4, "is_renting": "OUI", "is_returning": "OUI", "duedate": "2024-06-16T06:54:21+00:00", "coordonnees_geo": {"lon": 2.331552766263485, "lat": 48.852575112948415}, "nom_arrondissement_communes": "Paris", "code_insee_commune": null}, {"stationcode": "17022", "name": "Pereire - Place de Wagram", "is_installed": "OUI", "capacity": 46, "numdocksavailable": 41, "numbikesavailable": 5, "mechanical": 1, "ebike": 4, "is_renting": "OUI", "is_returning": "OUI", "duedate": "2024-06-16T06:50:37+00:00", "coordonnees_geo": {"lon": 2.304111124531457, "lat": 48.887070607581215}, "nom_arrondissement_communes": "Paris", "code_insee_commune": null}, {"stationcode": "23304", "name": "Mairie de Sceaux", "is_installed": "OUI", "capacity": 33, "numdocksavailable": 25, "numbikesavailable": 8, "mechanical": 2, "ebike": 6, "is_renting": "OUI", "is_returning": "OUI", "duedate": "2024-06-16T06:47:22+00:00", "coordonnees_geo": {"lon": 2.2887361764861, "lat": 48.778916905132}, "nom_arrondissement_communes": "Sceaux", "code_insee_commune": null}, {"stationcode": "13103", "name": "H\u00f4pital Piti\u00e9 Salp\u00eatri\u00e8re", "is_installed": "OUI", "capacity": 50, "numdocksavailable": 19, "numbikesavailable": 29, "mechanical": 20, "ebike": 9, "is_renting": "OUI", "is_returning": "OUI", "duedate": "2024-06-16T06:54:28+00:00", "coordonnees_geo": {"lon": 2.3604946, "lat": 48.8377016}, "nom_arrondissement_communes": "Paris", "code_insee_commune": null}, {"stationcode": "9101", "name": "Cadet - La Fayette", "is_installed": "OUI", "capacity": 19, "numdocksavailable": 5, "numbikesavailable": 13, "mechanical": 11, "ebike": 2, "is_renting": "OUI", "is_returning": "OUI", "duedate": "2024-06-16T06:53:39+00:00", "coordonnees_geo": {"lon": 2.3435704037547, "lat": 48.875601632672}, "nom_arrondissement_communes": "Paris", "code_insee_commune": null}, {"stationcode": "1117", "name": "Pont Neuf - Rivoli", "is_installed": "OUI", "capacity": 27, "numdocksavailable": 23, "numbikesavailable": 3, "mechanical": 2, "ebike": 1, "is_renting": "OUI", "is_returning": "OUI", "duedate": "2024-06-16T06:53:55+00:00", "coordonnees_geo": {"lon": 2.344057559967, "lat": 48.860089892617}, "nom_arrondissement_communes": "Paris", "code_insee_commune": null}, {"stationcode": "19041", "name": "Belleville - Pyr\u00e9n\u00e9es", "is_installed": "OUI", "capacity": 42, "numdocksavailable": 9, "numbikesavailable": 29, "mechanical": 13, "ebike": 16, "is_renting": "OUI", "is_returning": "OUI", "duedate": "2024-06-16T06:49:36+00:00", "coordonnees_geo": {"lon": 2.3860039, "lat": 48.8741908}, "nom_arrondissement_communes": "Paris", "code_insee_commune": null}, {"stationcode": "21114", "name": "Gustave Eiffel - Parc des Impressionnistes", "is_installed": "OUI", "capacity": 30, "numdocksavailable": 8, "numbikesavailable": 21, "mechanical": 6, "ebike": 15, "is_renting": "OUI", "is_returning": "OUI", "duedate": "2024-06-16T06:53:34+00:00", "coordonnees_geo": {"lon": 2.2946908324956894, "lat": 48.90390619651018}, "nom_arrondissement_communes": "Clichy", "code_insee_commune": null}, {"stationcode": "20137", "name": "Borr\u00e9go - Gambetta", "is_installed": "OUI", "capacity": 25, "numdocksavailable": 5, "numbikesavailable": 20, "mechanical": 13, "ebike": 7, "is_renting": "OUI", "is_returning": "OUI", "duedate": "2024-06-16T06:51:53+00:00", "coordonnees_geo": {"lon": 2.4014145880937576, "lat": 48.87330497045532}, "nom_arrondissement_communes": "Paris", "code_insee_commune": null}, {"stationcode": "32603", "name": "Calmette", "is_installed": "OUI", "capacity": 32, "numdocksavailable": 19, "numbikesavailable": 12, "mechanical": 1, "ebike": 11, "is_renting": "OUI", "is_returning": "OUI", "duedate": "2024-06-16T06:53:55+00:00", "coordonnees_geo": {"lon": 2.424993216991425, "lat": 48.88104925098552}, "nom_arrondissement_communes": "Les Lilas", "code_insee_commune": null}, {"stationcode": "17201", "name": "Porte Maillot - Perreire", "is_installed": "OUI", "capacity": 51, "numdocksavailable": 44, "numbikesavailable": 7, "mechanical": 4, "ebike": 3, "is_renting": "OUI", "is_returning": "OUI", "duedate": "2024-06-16T06:53:24+00:00", "coordonnees_geo": {"lon": 2.2842371277102, "lat": 48.878021154637}, "nom_arrondissement_communes": "Paris", "code_insee_commune": null}, {"stationcode": "21311", "name": "Parvis Corentin Celton", "is_installed": "OUI", "capacity": 55, "numdocksavailable": 1, "numbikesavailable": 52, "mechanical": 49, "ebike": 3, "is_renting": "OUI", "is_returning": "OUI", "duedate": "2024-06-16T06:53:52+00:00", "coordonnees_geo": {"lon": 2.2784319519996648, "lat": 48.82747252522725}, "nom_arrondissement_communes": "Issy-les-Moulineaux", "code_insee_commune": null}, {"stationcode": "12041", "name": "Bois de Vincennes.", "is_installed": "OUI", "capacity": 60, "numdocksavailable": 35, "numbikesavailable": 23, "mechanical": 19, "ebike": 4, "is_renting": "OUI", "is_returning": "OUI", "duedate": "2024-06-16T06:54:36+00:00", "coordonnees_geo": {"lon": 2.4132221, "lat": 48.8338064}, "nom_arrondissement_communes": "Saint-Mand\u00e9", "code_insee_commune": null}, {"stationcode": "15059", "name": "Parc Andr\u00e9 Citro\u00ebn", "is_installed": "OUI", "capacity": 65, "numdocksavailable": 36, "numbikesavailable": 29, "mechanical": 29, "ebike": 0, "is_renting": "OUI", "is_returning": "OUI", "duedate": "2024-06-16T06:54:23+00:00", "coordonnees_geo": {"lon": 2.2780618071556096, "lat": 48.840639944296655}, "nom_arrondissement_communes": "Paris", "code_insee_commune": null}, {"stationcode": "23403", "name": "Chateau", "is_installed": "OUI", "capacity": 22, "numdocksavailable": 6, "numbikesavailable": 16, "mechanical": 12, "ebike": 4, "is_renting": "OUI", "is_returning": "OUI", "duedate": "2024-06-16T06:53:38+00:00", "coordonnees_geo": {"lon": 2.3135878035462, "lat": 48.774661399959}, "nom_arrondissement_communes": "Bourg-la-Reine", "code_insee_commune": null}, {"stationcode": "4011", "name": "H\u00f4tel de Ville - Pont-Marie", "is_installed": "OUI", "capacity": 36, "numdocksavailable": 32, "numbikesavailable": 3, "mechanical": 0, "ebike": 3, "is_renting": "OUI", "is_returning": "OUI", "duedate": "2024-06-16T06:53:31+00:00", "coordonnees_geo": {"lon": 2.3569472506642, "lat": 48.853899645527}, "nom_arrondissement_communes": "Paris", "code_insee_commune": null}, {"stationcode": "9118", "name": "Faubourg Poissonniere - Delta", "is_installed": "OUI", "capacity": 36, "numdocksavailable": 34, "numbikesavailable": 2, "mechanical": 0, "ebike": 2, "is_renting": "OUI", "is_returning": "OUI", "duedate": "2024-06-16T06:50:28+00:00", "coordonnees_geo": {"lon": 2.3497482016682625, "lat": 48.882555807626765}, "nom_arrondissement_communes": "Paris", "code_insee_commune": null}, {"stationcode": "21024", "name": "Billancourt - G\u00e9n\u00e9ral Leclerc", "is_installed": "OUI", "capacity": 22, "numdocksavailable": 8, "numbikesavailable": 14, "mechanical": 7, "ebike": 7, "is_renting": "OUI", "is_returning": "OUI", "duedate": "2024-06-16T06:50:05+00:00", "coordonnees_geo": {"lon": 2.2380413, "lat": 48.8322649}, "nom_arrondissement_communes": "Boulogne-Billancourt", "code_insee_commune": null}, {"stationcode": "2001", "name": "Greneta - Sebastopol", "is_installed": "OUI", "capacity": 32, "numdocksavailable": 21, "numbikesavailable": 11, "mechanical": 11, "ebike": 0, "is_renting": "OUI", "is_returning": "OUI", "duedate": "2024-06-16T06:52:28+00:00", "coordonnees_geo": {"lon": 2.3516669869423, "lat": 48.865242333228}, "nom_arrondissement_communes": "Paris", "code_insee_commune": null}, {"stationcode": "7016", "name": "Surcouf - Universit\u00e9", "is_installed": "OUI", "capacity": 58, "numdocksavailable": 48, "numbikesavailable": 4, "mechanical": 2, "ebike": 2, "is_renting": "NON", "is_returning": "NON", "duedate": "2024-06-16T06:51:25+00:00", "coordonnees_geo": {"lon": 2.3094535509142, "lat": 48.861273016278}, "nom_arrondissement_communes": "Paris", "code_insee_commune": null}, {"stationcode": "18137", "name": "Poissonniers - Nord", "is_installed": "OUI", "capacity": 28, "numdocksavailable": 6, "numbikesavailable": 21, "mechanical": 6, "ebike": 15, "is_renting": "OUI", "is_returning": "OUI", "duedate": "2024-06-16T06:54:14+00:00", "coordonnees_geo": {"lon": 2.3522228747606277, "lat": 48.892511213520656}, "nom_arrondissement_communes": "Paris", "code_insee_commune": null}, {"stationcode": "12108", "name": "Bercy.", "is_installed": "OUI", "capacity": 66, "numdocksavailable": 36, "numbikesavailable": 29, "mechanical": 26, "ebike": 3, "is_renting": "OUI", "is_returning": "OUI", "duedate": "2024-06-16T06:52:05+00:00", "coordonnees_geo": {"lon": 2.3788625746965, "lat": 48.839966914994}, "nom_arrondissement_communes": "Paris", "code_insee_commune": null}, {"stationcode": "18138", "name": "Station Paris Basketball - Ney - Charles Hermite", "is_installed": "OUI", "capacity": 20, "numdocksavailable": 7, "numbikesavailable": 12, "mechanical": 4, "ebike": 8, "is_renting": "OUI", "is_returning": "OUI", "duedate": "2024-06-16T06:51:29+00:00", "coordonnees_geo": {"lon": 2.3645754531026, "lat": 48.898748039775}, "nom_arrondissement_communes": "Paris", "code_insee_commune": null}, {"stationcode": "13041", "name": "Porte d'Ivry", "is_installed": "OUI", "capacity": 50, "numdocksavailable": 47, "numbikesavailable": 2, "mechanical": 2, "ebike": 0, "is_renting": "OUI", "is_returning": "OUI", "duedate": "2024-06-16T06:50:41+00:00", "coordonnees_geo": {"lon": 2.3688706755638, "lat": 48.821768747596}, "nom_arrondissement_communes": "Paris", "code_insee_commune": null}, {"stationcode": "14006", "name": "Saint-Jacques - Tombe Issoire", "is_installed": "OUI", "capacity": 23, "numdocksavailable": 10, "numbikesavailable": 13, "mechanical": 7, "ebike": 6, "is_renting": "OUI", "is_returning": "OUI", "duedate": "2024-06-16T06:47:36+00:00", "coordonnees_geo": {"lon": 2.3369108140468597, "lat": 48.833206330538864}, "nom_arrondissement_communes": "Paris", "code_insee_commune": null}, {"stationcode": "31013", "name": "Centenaire - Sorins", "is_installed": "OUI", "capacity": 45, "numdocksavailable": 26, "numbikesavailable": 19, "mechanical": 3, "ebike": 16, "is_renting": "OUI", "is_returning": "OUI", "duedate": "2024-06-16T06:53:27+00:00", "coordonnees_geo": {"lon": 2.4273508787155156, "lat": 48.85853523359734}, "nom_arrondissement_communes": "Montreuil", "code_insee_commune": null}, {"stationcode": "18001", "name": "Damr\u00e9mont - Caulaincourt", "is_installed": "OUI", "capacity": 18, "numdocksavailable": 10, "numbikesavailable": 8, "mechanical": 3, "ebike": 5, "is_renting": "OUI", "is_returning": "OUI", "duedate": "2024-06-16T06:53:21+00:00", "coordonnees_geo": {"lon": 2.3325880989432335, "lat": 48.88714509078738}, "nom_arrondissement_communes": "Paris", "code_insee_commune": null}, {"stationcode": "17016", "name": "Brochant - Square des Batignolles", "is_installed": "OUI", "capacity": 31, "numdocksavailable": 29, "numbikesavailable": 2, "mechanical": 0, "ebike": 2, "is_renting": "OUI", "is_returning": "OUI", "duedate": "2024-06-16T06:51:50+00:00", "coordonnees_geo": {"lon": 2.316861143151153, "lat": 48.88818698581028}, "nom_arrondissement_communes": "Paris", "code_insee_commune": null}, {"stationcode": "20202", "name": "Dupont de l'Eure - Gambetta", "is_installed": "OUI", "capacity": 31, "numdocksavailable": 12, "numbikesavailable": 18, "mechanical": 0, "ebike": 18, "is_renting": "OUI", "is_returning": "OUI", "duedate": "2024-06-16T06:54:28+00:00", "coordonnees_geo": {"lon": 2.4003649, "lat": 48.8679385}, "nom_arrondissement_communes": "Paris", "code_insee_commune": null}, {"stationcode": "18019", "name": "Square Raymond Souplex", "is_installed": "OUI", "capacity": 52, "numdocksavailable": 42, "numbikesavailable": 8, "mechanical": 2, "ebike": 6, "is_renting": "OUI", "is_returning": "OUI", "duedate": "2024-06-16T06:53:27+00:00", "coordonnees_geo": {"lon": 2.335426103165901, "lat": 48.89183721478911}, "nom_arrondissement_communes": "Paris", "code_insee_commune": null}, {"stationcode": "5019", "name": "Poissy - Saint-Germain", "is_installed": "OUI", "capacity": 25, "numdocksavailable": 8, "numbikesavailable": 16, "mechanical": 16, "ebike": 0, "is_renting": "OUI", "is_returning": "OUI", "duedate": "2024-06-16T06:54:27+00:00", "coordonnees_geo": {"lon": 2.3529685288668, "lat": 48.84969649427}, "nom_arrondissement_communes": "Paris", "code_insee_commune": null}, {"stationcode": "11003", "name": "Keller - La Roquette", "is_installed": "OUI", "capacity": 34, "numdocksavailable": 18, "numbikesavailable": 10, "mechanical": 9, "ebike": 1, "is_renting": "OUI", "is_returning": "OUI", "duedate": "2024-06-16T06:52:28+00:00", "coordonnees_geo": {"lon": 2.3752778, "lat": 48.8555508}, "nom_arrondissement_communes": "Paris", "code_insee_commune": null}, {"stationcode": "11034", "name": "Parmentier - Fontaine au Roi", "is_installed": "OUI", "capacity": 48, "numdocksavailable": 6, "numbikesavailable": 41, "mechanical": 36, "ebike": 5, "is_renting": "OUI", "is_returning": "OUI", "duedate": "2024-06-16T06:50:20+00:00", "coordonnees_geo": {"lon": 2.372705978671471, "lat": 48.86787670551736}, "nom_arrondissement_communes": "Paris", "code_insee_commune": null}, {"stationcode": "1016", "name": "Th\u00e9r\u00e8se - Op\u00e9ra", "is_installed": "OUI", "capacity": 25, "numdocksavailable": 4, "numbikesavailable": 21, "mechanical": 20, "ebike": 1, "is_renting": "OUI", "is_returning": "OUI", "duedate": "2024-06-16T06:52:51+00:00", "coordonnees_geo": {"lon": 2.3344334212238, "lat": 48.866483514509}, "nom_arrondissement_communes": "Paris", "code_insee_commune": null}, {"stationcode": "15020", "name": "Mairie du 15\u00e8me", "is_installed": "OUI", "capacity": 32, "numdocksavailable": 18, "numbikesavailable": 13, "mechanical": 8, "ebike": 5, "is_renting": "OUI", "is_returning": "OUI", "duedate": "2024-06-16T06:52:53+00:00", "coordonnees_geo": {"lon": 2.2986539, "lat": 48.8417762}, "nom_arrondissement_communes": "Paris", "code_insee_commune": null}, {"stationcode": "41206", "name": "Place des Larris", "is_installed": "OUI", "capacity": 34, "numdocksavailable": 23, "numbikesavailable": 11, "mechanical": 0, "ebike": 11, "is_renting": "OUI", "is_returning": "OUI", "duedate": "2024-06-16T06:52:20+00:00", "coordonnees_geo": {"lon": 2.4780236, "lat": 48.8568363}, "nom_arrondissement_communes": "Fontenay-sous-Bois", "code_insee_commune": null}, {"stationcode": "13113", "name": "Vistule - Choisy", "is_installed": "OUI", "capacity": 33, "numdocksavailable": 27, "numbikesavailable": 5, "mechanical": 3, "ebike": 2, "is_renting": "OUI", "is_returning": "OUI", "duedate": "2024-06-16T06:54:10+00:00", "coordonnees_geo": {"lon": 2.3615723848342896, "lat": 48.82365543660611}, "nom_arrondissement_communes": "Paris", "code_insee_commune": null}, {"stationcode": "13114", "name": "Nationale - Marcel Duchamp", "is_installed": "OUI", "capacity": 23, "numdocksavailable": 12, "numbikesavailable": 11, "mechanical": 4, "ebike": 7, "is_renting": "OUI", "is_returning": "OUI", "duedate": "2024-06-16T06:53:54+00:00", "coordonnees_geo": {"lon": 2.3678014799952507, "lat": 48.82463749337136}, "nom_arrondissement_communes": "Paris", "code_insee_commune": null}, {"stationcode": "15061", "name": "Square Desnouettes", "is_installed": "OUI", "capacity": 22, "numdocksavailable": 7, "numbikesavailable": 15, "mechanical": 15, "ebike": 0, "is_renting": "OUI", "is_returning": "OUI", "duedate": "2024-06-16T06:53:46+00:00", "coordonnees_geo": {"lon": 2.284142297394666, "lat": 48.83476837934194}, "nom_arrondissement_communes": "Paris", "code_insee_commune": null}, {"stationcode": "15063", "name": "Convention - Saint-Charles", "is_installed": "OUI", "capacity": 23, "numdocksavailable": 21, "numbikesavailable": 2, "mechanical": 2, "ebike": 0, "is_renting": "NON", "is_returning": "NON", "duedate": "2023-12-14T02:53:24+00:00", "coordonnees_geo": {"lon": 2.2831090539694, "lat": 48.843156111116}, "nom_arrondissement_communes": "Paris", "code_insee_commune": null}, {"stationcode": "8015", "name": "Roqu\u00e9pine - Malesherbes", "is_installed": "OUI", "capacity": 37, "numdocksavailable": 29, "numbikesavailable": 8, "mechanical": 4, "ebike": 4, "is_renting": "OUI", "is_returning": "OUI", "duedate": "2024-06-16T06:53:54+00:00", "coordonnees_geo": {"lon": 2.320404499769211, "lat": 48.87345073390807}, "nom_arrondissement_communes": "Paris", "code_insee_commune": null}, {"stationcode": "7026", "name": "Place de Finlande", "is_installed": "OUI", "capacity": 25, "numdocksavailable": 21, "numbikesavailable": 3, "mechanical": 3, "ebike": 0, "is_renting": "OUI", "is_returning": "OUI", "duedate": "2024-06-16T06:53:39+00:00", "coordonnees_geo": {"lon": 2.3113624379039, "lat": 48.862408335967}, "nom_arrondissement_communes": "Paris", "code_insee_commune": null}, {"stationcode": "14116", "name": "Romain Rolland", "is_installed": "OUI", "capacity": 25, "numdocksavailable": 18, "numbikesavailable": 7, "mechanical": 2, "ebike": 5, "is_renting": "OUI", "is_returning": "OUI", "duedate": "2024-06-16T06:51:24+00:00", "coordonnees_geo": {"lon": 2.3234144234418346, "lat": 48.820215229662765}, "nom_arrondissement_communes": "Montrouge", "code_insee_commune": null}, {"stationcode": "31018", "name": "Gambetta - Michelet", "is_installed": "OUI", "capacity": 33, "numdocksavailable": 17, "numbikesavailable": 16, "mechanical": 7, "ebike": 9, "is_renting": "OUI", "is_returning": "OUI", "duedate": "2024-06-16T06:54:29+00:00", "coordonnees_geo": {"lon": 2.429966032505036, "lat": 48.85273792380526}, "nom_arrondissement_communes": "Montreuil", "code_insee_commune": null}, {"stationcode": "2110", "name": "Je\u00fbneurs - Mulhouse", "is_installed": "OUI", "capacity": 28, "numdocksavailable": 13, "numbikesavailable": 12, "mechanical": 11, "ebike": 1, "is_renting": "OUI", "is_returning": "OUI", "duedate": "2024-06-16T06:50:58+00:00", "coordonnees_geo": {"lon": 2.346925, "lat": 48.868997}, "nom_arrondissement_communes": "Paris", "code_insee_commune": null}, {"stationcode": "17033", "name": "Carnot - G\u00e9n\u00e9ral Lanrezac", "is_installed": "OUI", "capacity": 30, "numdocksavailable": 29, "numbikesavailable": 1, "mechanical": 0, "ebike": 1, "is_renting": "OUI", "is_returning": "OUI", "duedate": "2024-06-16T06:53:47+00:00", "coordonnees_geo": {"lon": 2.2938242935036, "lat": 48.875443870736}, "nom_arrondissement_communes": "Paris", "code_insee_commune": null}, {"stationcode": "2014", "name": "Daunou - Louis le Grand", "is_installed": "OUI", "capacity": 17, "numdocksavailable": 12, "numbikesavailable": 4, "mechanical": 3, "ebike": 1, "is_renting": "OUI", "is_returning": "OUI", "duedate": "2024-06-16T06:50:04+00:00", "coordonnees_geo": {"lon": 2.332515, "lat": 48.869113}, "nom_arrondissement_communes": "Paris", "code_insee_commune": null}]