[{"stationcode": "23302", "name": "Parc de Sceaux - Centre-Ville", "is_installed": "OUI", "capacity": 33, "numdocksavailable": 33, "numbikesavailable": 0, "mechanical": 0, "ebike": 0, "is_renting": "NON", "is_returning": "NON", "duedate": "2024-06-07T14:37:22+00:00", "coordonnees_geo": {"lon": 2.2957214713097, "lat": 48.77695298261}, "nom_arrondissement_communes": "Sceaux", "code_insee_commune": null}, {"stationcode": "16031", "name": "Vignes - Boulainvilliers", "is_installed": "OUI", "capacity": 21, "numdocksavailable": 16, "numbikesavailable": 4, "mechanical": 3, "ebike": 1, "is_renting": "OUI", "is_returning": "OUI", "duedate": "2024-06-14T16:42:13+00:00", "coordonnees_geo": {"lon": 2.275240458548069, "lat": 48.856399483950504}, "nom_arrondissement_communes": "Paris", "code_insee_commune": null}, {"stationcode": "12153", "name": "Terroirs de France - Lheureux", "is_installed": "OUI", "capacity": 55, "numdocksavailable": 45, "numbikesavailable": 8, "mechanical": 7, "ebike": 1, "is_renting": "OUI", "is_returning": "OUI", "duedate": "2024-06-14T16:49:38+00:00", "coordonnees_geo": {"lon": 2.388618104159832, "lat": 48.83212027074841}, "nom_arrondissement_communes": "Paris", "code_insee_commune": null}, {"stationcode": "6031", "name": "Pierre Sarrazin - Saint-Michel", "is_installed": "OUI", "capacity": 33, "numdocksavailable": 6, "numbikesavailable": 25, "mechanical": 19, "ebike": 6, "is_renting": "OUI", "is_returning": "OUI", "duedate": "2024-06-14T17:46:13+00:00", "coordonnees_geo": {"lon": 2.342130728066, "lat": 48.850908146398}, "nom_arrondissement_communes": "Paris", "code_insee_commune": null}, {"stationcode": "11048", "name": "Place Mireille Havet", "is_installed": "OUI", "capacity": 43, "numdocksavailable": 1, "numbikesavailable": 38, "mechanical": 28, "ebike": 10, "is_renting": "OUI", "is_returning": "OUI", "duedate": "2024-06-14T17:50:17+00:00", "coordonnees_geo": {"lon": 2.383756, "lat": 48.850533}, "nom_arrondissement_communes": "Paris", "code_insee_commune": null}, {"stationcode": "8049", "name": "Georges V - Fran\u00e7ois 1er", "is_installed": "OUI", "capacity": 22, "numdocksavailable": 19, "numbikesavailable": 2, "mechanical": 2, "ebike": 0, "is_renting": "OUI", "is_returning": "OUI", "duedate": "2024-06-14T17:48:17+00:00", "coordonnees_geo": {"lon": 2.30082, "lat": 48.87034}, "nom_arrondissement_communes": "Paris", "code_insee_commune": null}, {"stationcode": "12154", "name": "Square Georges Melies", "is_installed": "OUI", "capacity": 40, "numdocksavailable": 19, "numbikesavailable": 19, "mechanical": 14, "ebike": 5, "is_renting": "OUI", "is_returning": "OUI", "duedate": "2024-06-14T17:47:15+00:00", "coordonnees_geo": {"lon": 2.409667745232582, "lat": 48.84070239213081}, "nom_arrondissement_communes": "Paris", "code_insee_commune": null}, {"stationcode": "5030", "name": "Sorbonne - Ecoles", "is_installed": "OUI", "capacity": 50, "numdocksavailable": 40, "numbikesavailable": 8, "mechanical": 2, "ebike": 6, "is_renting": "OUI", "is_returning": "OUI", "duedate": "2024-06-14T17:50:14+00:00", "coordonnees_geo": {"lon": 2.3434996604919, "lat": 48.849686566191}, "nom_arrondissement_communes": "Paris", "code_insee_commune": null}, {"stationcode": "9015", "name": "Lamartine - Faubourg Montmartre", "is_installed": "OUI", "capacity": 32, "numdocksavailable": 16, "numbikesavailable": 15, "mechanical": 10, "ebike": 5, "is_renting": "OUI", "is_returning": "OUI", "duedate": "2024-06-14T17:50:29+00:00", "coordonnees_geo": {"lon": 2.339765690267086, "lat": 48.87661398289084}, "nom_arrondissement_communes": "Paris", "code_insee_commune": null}, {"stationcode": "22017", "name": "Charles de Gaulle - Louis Philippe", "is_installed": "OUI", "capacity": 28, "numdocksavailable": 23, "numbikesavailable": 4, "mechanical": 0, "ebike": 4, "is_renting": "OUI", "is_returning": "OUI", "duedate": "2024-06-14T17:50:21+00:00", "coordonnees_geo": {"lon": 2.2710045335353, "lat": 48.881742142181}, "nom_arrondissement_communes": "Neuilly-sur-Seine", "code_insee_commune": null}, {"stationcode": "17104", "name": "Jardin Marguerite Long", "is_installed": "OUI", "capacity": 22, "numdocksavailable": 12, "numbikesavailable": 10, "mechanical": 8, "ebike": 2, "is_renting": "OUI", "is_returning": "OUI", "duedate": "2024-06-14T17:44:40+00:00", "coordonnees_geo": {"lon": 2.2836575657129288, "lat": 48.8816985773914}, "nom_arrondissement_communes": "Paris", "code_insee_commune": null}, {"stationcode": "20045", "name": "Louis Ganne - Davout", "is_installed": "OUI", "capacity": 30, "numdocksavailable": 29, "numbikesavailable": 1, "mechanical": 0, "ebike": 1, "is_renting": "OUI", "is_returning": "OUI", "duedate": "2024-06-14T17:49:18+00:00", "coordonnees_geo": {"lon": 2.409725748002529, "lat": 48.86338720692607}, "nom_arrondissement_communes": "Paris", "code_insee_commune": null}, {"stationcode": "13019", "name": "Fernand Braudel - Vincent Auriol", "is_installed": "OUI", "capacity": 36, "numdocksavailable": 3, "numbikesavailable": 31, "mechanical": 20, "ebike": 11, "is_renting": "OUI", "is_returning": "OUI", "duedate": "2024-06-14T17:50:33+00:00", "coordonnees_geo": {"lon": 2.3723404482007027, "lat": 48.83637852318147}, "nom_arrondissement_communes": "Paris", "code_insee_commune": null}, {"stationcode": "23302", "name": "Parc de Sceaux - Centre-Ville", "is_installed": "OUI", "capacity": 33, "numdocksavailable": 33, "numbikesavailable": 0, "mechanical": 0, "ebike": 0, "is_renting": "NON", "is_returning": "NON", "duedate": "2024-06-07T14:37:22+00:00", "coordonnees_geo": {"lon": 2.2957214713097, "lat": 48.77695298261}, "nom_arrondissement_communes": "Sceaux", "code_insee_commune": null}, {"stationcode": "11110", "name": "Roquette - Folie Regnault", "is_installed": "OUI", "capacity": 52, "numdocksavailable": 37, "numbikesavailable": 13, "mechanical": 7, "ebike": 6, "is_renting": "OUI", "is_returning": "OUI", "duedate": "2024-06-14T17:50:01+00:00", "coordonnees_geo": {"lon": 2.386553623578705, "lat": 48.859246959155485}, "nom_arrondissement_communes": "Paris", "code_insee_commune": null}, {"stationcode": "12153", "name": "Terroirs de France - Lheureux", "is_installed": "OUI", "capacity": 55, "numdocksavailable": 44, "numbikesavailable": 9, "mechanical": 8, "ebike": 1, "is_renting": "OUI", "is_returning": "OUI", "duedate": "2024-06-14T17:42:58+00:00", "coordonnees_geo": {"lon": 2.388618104159832, "lat": 48.83212027074841}, "nom_arrondissement_communes": "Paris", "code_insee_commune": null}, {"stationcode": "21017", "name": "Place Marcel Sembat", "is_installed": "OUI", "capacity": 56, "numdocksavailable": 32, "numbikesavailable": 24, "mechanical": 24, "ebike": 0, "is_renting": "OUI", "is_returning": "OUI", "duedate": "2024-06-14T17:48:53+00:00", "coordonnees_geo": {"lon": 2.2441747784614567, "lat": 48.83328865030686}, "nom_arrondissement_communes": "Boulogne-Billancourt", "code_insee_commune": null}, {"stationcode": "14016", "name": "Ren\u00e9 Coty - Parc Montsouris", "is_installed": "OUI", "capacity": 55, "numdocksavailable": 48, "numbikesavailable": 6, "mechanical": 3, "ebike": 3, "is_renting": "OUI", "is_returning": "OUI", "duedate": "2024-06-14T17:48:55+00:00", "coordonnees_geo": {"lon": 2.336124926805496, "lat": 48.82479134498032}, "nom_arrondissement_communes": "Paris", "code_insee_commune": null}, {"stationcode": "12033", "name": "Fran\u00e7ois Truffaut - Saint Emilion", "is_installed": "OUI", "capacity": 66, "numdocksavailable": 3, "numbikesavailable": 61, "mechanical": 58, "ebike": 3, "is_renting": "OUI", "is_returning": "OUI", "duedate": "2024-06-14T17:50:15+00:00", "coordonnees_geo": {"lon": 2.386601903271428, "lat": 48.83372354344807}, "nom_arrondissement_communes": "Paris", "code_insee_commune": null}, {"stationcode": "12120", "name": "Lac Daumesnil - Saint-Maurice", "is_installed": "OUI", "capacity": 50, "numdocksavailable": 42, "numbikesavailable": 8, "mechanical": 2, "ebike": 6, "is_renting": "OUI", "is_returning": "OUI", "duedate": "2024-06-14T17:49:49+00:00", "coordonnees_geo": {"lon": 2.4183654785156246, "lat": 48.82774555743318}, "nom_arrondissement_communes": "Paris", "code_insee_commune": null}, {"stationcode": "18142", "name": "Jessaint - Marx Dormoy", "is_installed": "OUI", "capacity": 30, "numdocksavailable": 18, "numbikesavailable": 10, "mechanical": 5, "ebike": 5, "is_renting": "OUI", "is_returning": "OUI", "duedate": "2024-06-14T17:49:52+00:00", "coordonnees_geo": {"lon": 2.358930408954621, "lat": 48.88484543106364}, "nom_arrondissement_communes": "Paris", "code_insee_commune": null}, {"stationcode": "18014", "name": "L\u00e9on - Doudeauville", "is_installed": "OUI", "capacity": 13, "numdocksavailable": 8, "numbikesavailable": 4, "mechanical": 1, "ebike": 3, "is_renting": "OUI", "is_returning": "OUI", "duedate": "2024-06-14T17:49:15+00:00", "coordonnees_geo": {"lon": 2.353573372638597, "lat": 48.88832421845225}, "nom_arrondissement_communes": "Paris", "code_insee_commune": null}, {"stationcode": "18035", "name": "Ren\u00e9 Binet - Porte de Montmartre", "is_installed": "OUI", "capacity": 37, "numdocksavailable": 27, "numbikesavailable": 9, "mechanical": 6, "ebike": 3, "is_renting": "OUI", "is_returning": "OUI", "duedate": "2024-06-14T17:49:28+00:00", "coordonnees_geo": {"lon": 2.3365534096956253, "lat": 48.89905109950848}, "nom_arrondissement_communes": "Paris", "code_insee_commune": null}, {"stationcode": "13110", "name": "Moulin de la Pointe", "is_installed": "OUI", "capacity": 22, "numdocksavailable": 15, "numbikesavailable": 7, "mechanical": 2, "ebike": 5, "is_renting": "OUI", "is_returning": "OUI", "duedate": "2024-06-14T17:50:26+00:00", "coordonnees_geo": {"lon": 2.3563179373741145, "lat": 48.82092946051445}, "nom_arrondissement_communes": "Paris", "code_insee_commune": null}, {"stationcode": "15009", "name": "Suffren - P\u00e9rignon", "is_installed": "OUI", "capacity": 46, "numdocksavailable": 35, "numbikesavailable": 11, "mechanical": 7, "ebike": 4, "is_renting": "OUI", "is_returning": "OUI", "duedate": "2024-06-14T17:47:16+00:00", "coordonnees_geo": {"lon": 2.307052147596786, "lat": 48.84717561492764}, "nom_arrondissement_communes": "Paris", "code_insee_commune": null}, {"stationcode": "21120", "name": "Docteur Calmette - Martre", "is_installed": "OUI", "capacity": 30, "numdocksavailable": 25, "numbikesavailable": 5, "mechanical": 4, "ebike": 1, "is_renting": "OUI", "is_returning": "OUI", "duedate": "2024-06-14T17:45:24+00:00", "coordonnees_geo": {"lon": 2.3086513252383, "lat": 48.898969358483}, "nom_arrondissement_communes": "Clichy", "code_insee_commune": null}, {"stationcode": "20117", "name": "Saint-Fargeau - Mortier", "is_installed": "OUI", "capacity": 31, "numdocksavailable": 24, "numbikesavailable": 7, "mechanical": 1, "ebike": 6, "is_renting": "OUI", "is_returning": "OUI", "duedate": "2024-06-14T17:45:58+00:00", "coordonnees_geo": {"lon": 2.407912909984589, "lat": 48.87266656122256}, "nom_arrondissement_communes": "Paris", "code_insee_commune": null}, {"stationcode": "48009", "name": "R\u00e9publique - Auguste Perret", "is_installed": "OUI", "capacity": 30, "numdocksavailable": 27, "numbikesavailable": 2, "mechanical": 0, "ebike": 2, "is_renting": "OUI", "is_returning": "OUI", "duedate": "2024-06-14T17:48:03+00:00", "coordonnees_geo": {"lon": 2.3518594354391094, "lat": 48.78695280952244}, "nom_arrondissement_communes": "Villejuif", "code_insee_commune": null}, {"stationcode": "14125", "name": "Dareau - Broussais", "is_installed": "OUI", "capacity": 24, "numdocksavailable": 20, "numbikesavailable": 3, "mechanical": 2, "ebike": 1, "is_renting": "OUI", "is_returning": "OUI", "duedate": "2024-06-14T17:48:48+00:00", "coordonnees_geo": {"lon": 2.3361804, "lat": 48.8307758}, "nom_arrondissement_communes": "Paris", "code_insee_commune": null}, {"stationcode": "21009", "name": "Le Corbusier - Jean Jaur\u00e8s", "is_installed": "OUI", "capacity": 46, "numdocksavailable": 34, "numbikesavailable": 11, "mechanical": 9, "ebike": 2, "is_renting": "OUI", "is_returning": "OUI", "duedate": "2024-06-14T17:50:29+00:00", "coordonnees_geo": {"lon": 2.2408381104469304, "lat": 48.83780830557548}, "nom_arrondissement_communes": "Boulogne-Billancourt", "code_insee_commune": null}, {"stationcode": "31017", "name": "Jean Moulin - Paul Doumer", "is_installed": "OUI", "capacity": 20, "numdocksavailable": 9, "numbikesavailable": 11, "mechanical": 0, "ebike": 11, "is_renting": "OUI", "is_returning": "OUI", "duedate": "2024-06-14T17:44:53+00:00", "coordonnees_geo": {"lon": 2.45533436536789, "lat": 48.8622179854695}, "nom_arrondissement_communes": "Montreuil", "code_insee_commune": null}, {"stationcode": "13047", "name": "Boutroux - Porte de Vitry", "is_installed": "OUI", "capacity": 49, "numdocksavailable": 7, "numbikesavailable": 39, "mechanical": 38, "ebike": 1, "is_renting": "OUI", "is_returning": "OUI", "duedate": "2024-06-14T17:50:27+00:00", "coordonnees_geo": {"lon": 2.377738, "lat": 48.822632}, "nom_arrondissement_communes": "Paris", "code_insee_commune": null}, {"stationcode": "18114", "name": "V\u00e9ron - Lepic", "is_installed": "OUI", "capacity": 23, "numdocksavailable": 19, "numbikesavailable": 4, "mechanical": 0, "ebike": 4, "is_renting": "OUI", "is_returning": "OUI", "duedate": "2024-06-14T17:47:04+00:00", "coordonnees_geo": {"lon": 2.334559857845307, "lat": 48.88526123395252}, "nom_arrondissement_communes": "Paris", "code_insee_commune": null}, {"stationcode": "44103", "name": "Pont De Charenton", "is_installed": "OUI", "capacity": 18, "numdocksavailable": 2, "numbikesavailable": 13, "mechanical": 13, "ebike": 0, "is_renting": "OUI", "is_returning": "OUI", "duedate": "2024-06-14T17:49:52+00:00", "coordonnees_geo": {"lon": 2.4199531, "lat": 48.8179685}, "nom_arrondissement_communes": "Saint-Maurice", "code_insee_commune": null}, {"stationcode": "22403", "name": "Pierre Brossolette - Adolphe Pinard", "is_installed": "OUI", "capacity": 24, "numdocksavailable": 12, "numbikesavailable": 12, "mechanical": 4, "ebike": 8, "is_renting": "OUI", "is_returning": "OUI", "duedate": "2024-06-14T17:50:10+00:00", "coordonnees_geo": {"lon": 2.313155829906464, "lat": 48.82177227954821}, "nom_arrondissement_communes": "Malakoff", "code_insee_commune": null}, {"stationcode": "4107", "name": "Beaumarchais - Pas de la Mule", "is_installed": "OUI", "capacity": 18, "numdocksavailable": 1, "numbikesavailable": 17, "mechanical": 15, "ebike": 2, "is_renting": "OUI", "is_returning": "OUI", "duedate": "2024-06-14T17:49:47+00:00", "coordonnees_geo": {"lon": 2.3684333673431, "lat": 48.855580507049}, "nom_arrondissement_communes": "Paris", "code_insee_commune": null}, {"stationcode": "21951", "name": "Place Centrale", "is_installed": "OUI", "capacity": 22, "numdocksavailable": 22, "numbikesavailable": 0, "mechanical": 0, "ebike": 0, "is_renting": "OUI", "is_returning": "OUI", "duedate": "2024-06-14T17:43:56+00:00", "coordonnees_geo": {"lon": 2.2278830409049992, "lat": 48.78740167690531}, "nom_arrondissement_communes": "Meudon", "code_insee_commune": null}, {"stationcode": "92005", "name": "Gare de Nanterre Ville", "is_installed": "OUI", "capacity": 43, "numdocksavailable": 15, "numbikesavailable": 26, "mechanical": 19, "ebike": 7, "is_renting": "OUI", "is_returning": "OUI", "duedate": "2024-06-14T17:46:35+00:00", "coordonnees_geo": {"lon": 2.1957932, "lat": 48.8950295}, "nom_arrondissement_communes": "Nanterre", "code_insee_commune": null}, {"stationcode": "19113", "name": "Pr\u00e9 Saint-Gervais - Lilas", "is_installed": "OUI", "capacity": 28, "numdocksavailable": 26, "numbikesavailable": 2, "mechanical": 0, "ebike": 2, "is_renting": "OUI", "is_returning": "OUI", "duedate": "2024-06-14T17:50:00+00:00", "coordonnees_geo": {"lon": 2.3959073424339, "lat": 48.877870626988}, "nom_arrondissement_communes": "Paris", "code_insee_commune": null}, {"stationcode": "14128", "name": "Gergovie - Vercing\u00e9torix", "is_installed": "OUI", "capacity": 29, "numdocksavailable": 28, "numbikesavailable": 1, "mechanical": 0, "ebike": 1, "is_renting": "OUI", "is_returning": "OUI", "duedate": "2024-06-14T17:50:13+00:00", "coordonnees_geo": {"lon": 2.313154547426182, "lat": 48.83453413883994}, "nom_arrondissement_communes": "Paris", "code_insee_commune": null}, {"stationcode": "10039", "name": "Sambre et Meuse - Villette", "is_installed": "OUI", "capacity": 25, "numdocksavailable": 8, "numbikesavailable": 17, "mechanical": 8, "ebike": 9, "is_renting": "OUI", "is_returning": "OUI", "duedate": "2024-06-14T17:49:13+00:00", "coordonnees_geo": {"lon": 2.3738072379951, "lat": 48.874405666217}, "nom_arrondissement_communes": "Paris", "code_insee_commune": null}, {"stationcode": "31026", "name": "Demi-Lune - Aristide Briand", "is_installed": "OUI", "capacity": 20, "numdocksavailable": 18, "numbikesavailable": 2, "mechanical": 0, "ebike": 2, "is_renting": "OUI", "is_returning": "OUI", "duedate": "2024-06-14T17:47:57+00:00", "coordonnees_geo": {"lon": 2.4562818557024, "lat": 48.87626381919953}, "nom_arrondissement_communes": "Montreuil", "code_insee_commune": null}, {"stationcode": "12129", "name": "Bois de Vincennes - Porte Jaune", "is_installed": "OUI", "capacity": 35, "numdocksavailable": 11, "numbikesavailable": 23, "mechanical": 17, "ebike": 6, "is_renting": "OUI", "is_returning": "OUI", "duedate": "2024-06-14T17:49:51+00:00", "coordonnees_geo": {"lon": 2.4605489149689674, "lat": 48.838751246689455}, "nom_arrondissement_communes": "Paris", "code_insee_commune": null}, {"stationcode": "9016", "name": "Choron - Martyrs", "is_installed": "OUI", "capacity": 17, "numdocksavailable": 5, "numbikesavailable": 10, "mechanical": 7, "ebike": 3, "is_renting": "OUI", "is_returning": "OUI", "duedate": "2024-06-14T17:48:16+00:00", "coordonnees_geo": {"lon": 2.3396701365709305, "lat": 48.877851443502536}, "nom_arrondissement_communes": "Paris", "code_insee_commune": null}, {"stationcode": "8011", "name": "Clapeyron - Moscou", "is_installed": "OUI", "capacity": 15, "numdocksavailable": 14, "numbikesavailable": 1, "mechanical": 1, "ebike": 0, "is_renting": "OUI", "is_returning": "OUI", "duedate": "2024-06-14T17:44:12+00:00", "coordonnees_geo": {"lon": 2.324815057218075, "lat": 48.88078819514121}, "nom_arrondissement_communes": "Paris", "code_insee_commune": null}, {"stationcode": "7010", "name": "Constantine - Universit\u00e9", "is_installed": "OUI", "capacity": 65, "numdocksavailable": 38, "numbikesavailable": 24, "mechanical": 18, "ebike": 6, "is_renting": "OUI", "is_returning": "OUI", "duedate": "2024-06-14T17:49:48+00:00", "coordonnees_geo": {"lon": 2.3148481955842, "lat": 48.860680473738}, "nom_arrondissement_communes": "Paris", "code_insee_commune": null}, {"stationcode": "10152", "name": "Gare du Nord - Place de Valenciennes", "is_installed": "OUI", "capacity": 25, "numdocksavailable": 1, "numbikesavailable": 23, "mechanical": 14, "ebike": 9, "is_renting": "OUI", "is_returning": "OUI", "duedate": "2024-06-14T17:49:15+00:00", "coordonnees_geo": {"lon": 2.354235, "lat": 48.879089}, "nom_arrondissement_communes": "Paris", "code_insee_commune": null}, {"stationcode": "20004", "name": "Commandant l'Herminier - Gallieni", "is_installed": "OUI", "capacity": 17, "numdocksavailable": 15, "numbikesavailable": 2, "mechanical": 2, "ebike": 0, "is_renting": "OUI", "is_returning": "OUI", "duedate": "2024-06-14T17:49:51+00:00", "coordonnees_geo": {"lon": 2.4160453677177, "lat": 48.847040552603}, "nom_arrondissement_communes": "Paris", "code_insee_commune": null}, {"stationcode": "11031", "name": "Jacquard - Ternaux", "is_installed": "OUI", "capacity": 0, "numdocksavailable": 0, "numbikesavailable": 0, "mechanical": 0, "ebike": 0, "is_renting": "NON", "is_returning": "NON", "duedate": "2024-03-27T06:55:09+00:00", "coordonnees_geo": {"lon": 2.373162, "lat": 48.8646605}, "nom_arrondissement_communes": "Paris", "code_insee_commune": null}, {"stationcode": "16007", "name": "Longchamp - Place d'I\u00e9na", "is_installed": "OUI", "capacity": 40, "numdocksavailable": 37, "numbikesavailable": 1, "mechanical": 0, "ebike": 1, "is_renting": "OUI", "is_returning": "OUI", "duedate": "2024-06-14T17:44:09+00:00", "coordonnees_geo": {"lon": 2.2926748171448708, "lat": 48.86491723343388}, "nom_arrondissement_communes": "Paris", "code_insee_commune": null}, {"stationcode": "10037", "name": "Quai de Valmy", "is_installed": "OUI", "capacity": 26, "numdocksavailable": 13, "numbikesavailable": 12, "mechanical": 6, "ebike": 6, "is_renting": "OUI", "is_returning": "OUI", "duedate": "2024-06-14T17:47:06+00:00", "coordonnees_geo": {"lon": 2.368186041712761, "lat": 48.88126951579429}, "nom_arrondissement_communes": "Paris", "code_insee_commune": null}, {"stationcode": "20002", "name": "Square de la rue Pix\u00e9r\u00e9court", "is_installed": "OUI", "capacity": 15, "numdocksavailable": 15, "numbikesavailable": 0, "mechanical": 0, "ebike": 0, "is_renting": "OUI", "is_returning": "OUI", "duedate": "2024-06-14T17:44:53+00:00", "coordonnees_geo": {"lon": 2.3960278, "lat": 48.8736824}, "nom_arrondissement_communes": "Paris", "code_insee_commune": null}, {"stationcode": "9036", "name": "Ath\u00e8nes - Clichy", "is_installed": "OUI", "capacity": 20, "numdocksavailable": 5, "numbikesavailable": 13, "mechanical": 9, "ebike": 4, "is_renting": "OUI", "is_returning": "OUI", "duedate": "2024-06-14T17:48:12+00:00", "coordonnees_geo": {"lon": 2.32956021945824, "lat": 48.878113787876}, "nom_arrondissement_communes": "Paris", "code_insee_commune": null}, {"stationcode": "12006", "name": "Gare de Lyon - Van Gogh", "is_installed": "OUI", "capacity": 41, "numdocksavailable": 0, "numbikesavailable": 37, "mechanical": 27, "ebike": 10, "is_renting": "OUI", "is_returning": "OUI", "duedate": "2024-06-14T17:49:41+00:00", "coordonnees_geo": {"lon": 2.3704450240357, "lat": 48.843839785643}, "nom_arrondissement_communes": "Paris", "code_insee_commune": null}, {"stationcode": "13117", "name": "Stade Georges Carpentier", "is_installed": "OUI", "capacity": 40, "numdocksavailable": 28, "numbikesavailable": 11, "mechanical": 4, "ebike": 7, "is_renting": "OUI", "is_returning": "OUI", "duedate": "2024-06-14T17:49:34+00:00", "coordonnees_geo": {"lon": 2.3668321967125, "lat": 48.820482438381}, "nom_arrondissement_communes": "Paris", "code_insee_commune": null}, {"stationcode": "10004", "name": "Metz - Faubourg Saint-Denis", "is_installed": "OUI", "capacity": 48, "numdocksavailable": 2, "numbikesavailable": 40, "mechanical": 29, "ebike": 11, "is_renting": "OUI", "is_returning": "OUI", "duedate": "2024-06-14T17:50:18+00:00", "coordonnees_geo": {"lon": 2.353521, "lat": 48.870893}, "nom_arrondissement_communes": "Paris", "code_insee_commune": null}, {"stationcode": "11103", "name": "Pel\u00e9e - Alphonse Baudin", "is_installed": "OUI", "capacity": 38, "numdocksavailable": 1, "numbikesavailable": 36, "mechanical": 27, "ebike": 9, "is_renting": "OUI", "is_returning": "OUI", "duedate": "2024-06-14T17:50:01+00:00", "coordonnees_geo": {"lon": 2.3710541, "lat": 48.8600265}, "nom_arrondissement_communes": "Paris", "code_insee_commune": null}, {"stationcode": "8008", "name": "Joseph Sansboeuf - Saint Lazare", "is_installed": "OUI", "capacity": 18, "numdocksavailable": 13, "numbikesavailable": 4, "mechanical": 4, "ebike": 0, "is_renting": "OUI", "is_returning": "OUI", "duedate": "2024-06-14T17:42:45+00:00", "coordonnees_geo": {"lon": 2.3229019716382027, "lat": 48.87531563065266}, "nom_arrondissement_communes": "Paris", "code_insee_commune": null}, {"stationcode": "21203", "name": "Place Jules Ferry", "is_installed": "OUI", "capacity": 28, "numdocksavailable": 21, "numbikesavailable": 6, "mechanical": 3, "ebike": 3, "is_renting": "OUI", "is_returning": "OUI", "duedate": "2024-06-14T17:41:43+00:00", "coordonnees_geo": {"lon": 2.325837314128876, "lat": 48.812107928414775}, "nom_arrondissement_communes": "Montrouge", "code_insee_commune": null}, {"stationcode": "10017", "name": "Gare de l'Est - Fid\u00e9lit\u00e9", "is_installed": "OUI", "capacity": 15, "numdocksavailable": 1, "numbikesavailable": 10, "mechanical": 4, "ebike": 6, "is_renting": "OUI", "is_returning": "OUI", "duedate": "2024-06-14T17:49:18+00:00", "coordonnees_geo": {"lon": 2.356796, "lat": 48.874575}, "nom_arrondissement_communes": "Paris", "code_insee_commune": null}, {"stationcode": "21115", "name": "Chanc\u00e9 Milly - Cimeti\u00e8re Communal Sud", "is_installed": "OUI", "capacity": 32, "numdocksavailable": 16, "numbikesavailable": 12, "mechanical": 10, "ebike": 2, "is_renting": "OUI", "is_returning": "OUI", "duedate": "2024-06-14T17:49:23+00:00", "coordonnees_geo": {"lon": 2.303922325372696, "lat": 48.89687189382465}, "nom_arrondissement_communes": "Clichy", "code_insee_commune": null}, {"stationcode": "16009", "name": "Saint-Didier - Raymond Poincar\u00e9", "is_installed": "OUI", "capacity": 17, "numdocksavailable": 15, "numbikesavailable": 2, "mechanical": 0, "ebike": 2, "is_renting": "OUI", "is_returning": "OUI", "duedate": "2024-06-14T17:50:09+00:00", "coordonnees_geo": {"lon": 2.285863497192411, "lat": 48.86642312020962}, "nom_arrondissement_communes": "Paris", "code_insee_commune": null}, {"stationcode": "15072", "name": "Place Fernand Forest", "is_installed": "OUI", "capacity": 33, "numdocksavailable": 14, "numbikesavailable": 18, "mechanical": 17, "ebike": 1, "is_renting": "OUI", "is_returning": "OUI", "duedate": "2024-06-14T17:50:28+00:00", "coordonnees_geo": {"lon": 2.2818631678819656, "lat": 48.849269143835926}, "nom_arrondissement_communes": "Paris", "code_insee_commune": null}, {"stationcode": "16014", "name": "Eylau - Trocad\u00e9ro", "is_installed": "OUI", "capacity": 24, "numdocksavailable": 22, "numbikesavailable": 2, "mechanical": 0, "ebike": 2, "is_renting": "OUI", "is_returning": "OUI", "duedate": "2024-06-14T17:49:30+00:00", "coordonnees_geo": {"lon": 2.2864209115505, "lat": 48.863354122371}, "nom_arrondissement_communes": "Paris", "code_insee_commune": null}, {"stationcode": "13048", "name": "Wurtz - Tolbiac", "is_installed": "OUI", "capacity": 28, "numdocksavailable": 23, "numbikesavailable": 5, "mechanical": 1, "ebike": 4, "is_renting": "OUI", "is_returning": "OUI", "duedate": "2024-06-14T17:48:26+00:00", "coordonnees_geo": {"lon": 2.344585955142975, "lat": 48.82631195621006}, "nom_arrondissement_communes": "Paris", "code_insee_commune": null}, {"stationcode": "11109", "name": "Pierre Lev\u00e9e - Fontaine Timbaud", "is_installed": "OUI", "capacity": 23, "numdocksavailable": 10, "numbikesavailable": 10, "mechanical": 6, "ebike": 4, "is_renting": "OUI", "is_returning": "OUI", "duedate": "2024-06-14T17:49:46+00:00", "coordonnees_geo": {"lon": 2.3711163550615306, "lat": 48.86632723374305}, "nom_arrondissement_communes": "Paris", "code_insee_commune": null}, {"stationcode": "21307", "name": "Victor Cresson - Telles de la Poterie", "is_installed": "OUI", "capacity": 31, "numdocksavailable": 6, "numbikesavailable": 25, "mechanical": 20, "ebike": 5, "is_renting": "OUI", "is_returning": "OUI", "duedate": "2024-06-14T17:49:45+00:00", "coordonnees_geo": {"lon": 2.2686498274964, "lat": 48.822698842979}, "nom_arrondissement_communes": "Issy-les-Moulineaux", "code_insee_commune": null}, {"stationcode": "15052", "name": "Convention - Vaugirard", "is_installed": "OUI", "capacity": 48, "numdocksavailable": 4, "numbikesavailable": 42, "mechanical": 32, "ebike": 10, "is_renting": "OUI", "is_returning": "OUI", "duedate": "2024-06-14T17:50:32+00:00", "coordonnees_geo": {"lon": 2.295586926020252, "lat": 48.83767682233156}, "nom_arrondissement_communes": "Paris", "code_insee_commune": null}, {"stationcode": "31021", "name": "R\u00e9sistance - Hoche", "is_installed": "OUI", "capacity": 29, "numdocksavailable": 20, "numbikesavailable": 7, "mechanical": 4, "ebike": 3, "is_renting": "OUI", "is_returning": "OUI", "duedate": "2024-06-14T17:48:30+00:00", "coordonnees_geo": {"lon": 2.435784414410591, "lat": 48.864273423741956}, "nom_arrondissement_communes": "Montreuil", "code_insee_commune": null}, {"stationcode": "15123", "name": "Commerce - Letellier", "is_installed": "OUI", "capacity": 44, "numdocksavailable": 1, "numbikesavailable": 42, "mechanical": 36, "ebike": 6, "is_renting": "OUI", "is_returning": "OUI", "duedate": "2024-06-14T17:45:31+00:00", "coordonnees_geo": {"lon": 2.2966245196598805, "lat": 48.84797660373612}, "nom_arrondissement_communes": "Paris", "code_insee_commune": null}, {"stationcode": "13039", "name": "Ivry - Simone Weil", "is_installed": "OUI", "capacity": 18, "numdocksavailable": 14, "numbikesavailable": 4, "mechanical": 0, "ebike": 4, "is_renting": "OUI", "is_returning": "OUI", "duedate": "2024-06-14T17:50:15+00:00", "coordonnees_geo": {"lon": 2.3659095168113713, "lat": 48.823283932030755}, "nom_arrondissement_communes": "Paris", "code_insee_commune": null}, {"stationcode": "21031", "name": "Cimeti\u00e8re de Boulogne-Billancourt", "is_installed": "OUI", "capacity": 40, "numdocksavailable": 24, "numbikesavailable": 13, "mechanical": 10, "ebike": 3, "is_renting": "OUI", "is_returning": "OUI", "duedate": "2024-06-14T17:50:17+00:00", "coordonnees_geo": {"lon": 2.252024, "lat": 48.830764}, "nom_arrondissement_communes": "Boulogne-Billancourt", "code_insee_commune": null}, {"stationcode": "21702", "name": "Gare SNCF Vanves-Malakoff", "is_installed": "OUI", "capacity": 51, "numdocksavailable": 37, "numbikesavailable": 14, "mechanical": 3, "ebike": 11, "is_renting": "OUI", "is_returning": "OUI", "duedate": "2024-06-14T17:49:46+00:00", "coordonnees_geo": {"lon": 2.292150005103606, "lat": 48.819002163836444}, "nom_arrondissement_communes": "Vanves", "code_insee_commune": null}, {"stationcode": "17039", "name": "Place Saint-Ferdinand", "is_installed": "OUI", "capacity": 38, "numdocksavailable": 38, "numbikesavailable": 0, "mechanical": 0, "ebike": 0, "is_renting": "OUI", "is_returning": "OUI", "duedate": "2024-06-14T17:42:59+00:00", "coordonnees_geo": {"lon": 2.288518047864942, "lat": 48.87815529789739}, "nom_arrondissement_communes": "Paris", "code_insee_commune": null}, {"stationcode": "22604", "name": "H\u00f4tel de Ville de Fontenay-aux-Roses", "is_installed": "OUI", "capacity": 34, "numdocksavailable": 34, "numbikesavailable": 0, "mechanical": 0, "ebike": 0, "is_renting": "OUI", "is_returning": "OUI", "duedate": "2024-06-14T17:49:02+00:00", "coordonnees_geo": {"lon": 2.2871455930319455, "lat": 48.790844603480856}, "nom_arrondissement_communes": "Fontenay-aux-Roses", "code_insee_commune": null}, {"stationcode": "10012", "name": "Vinaigriers - Magenta", "is_installed": "OUI", "capacity": 25, "numdocksavailable": 10, "numbikesavailable": 13, "mechanical": 10, "ebike": 3, "is_renting": "OUI", "is_returning": "OUI", "duedate": "2024-06-14T17:42:08+00:00", "coordonnees_geo": {"lon": 2.3593052, "lat": 48.8731167}, "nom_arrondissement_communes": "Paris", "code_insee_commune": null}, {"stationcode": "8001", "name": "Petit Palais", "is_installed": "OUI", "capacity": 46, "numdocksavailable": 42, "numbikesavailable": 2, "mechanical": 0, "ebike": 2, "is_renting": "OUI", "is_returning": "OUI", "duedate": "2024-06-14T17:50:10+00:00", "coordonnees_geo": {"lon": 2.3157655, "lat": 48.8667692}, "nom_arrondissement_communes": "Paris", "code_insee_commune": null}, {"stationcode": "42305", "name": "Vanne - Saussaies", "is_installed": "OUI", "capacity": 20, "numdocksavailable": 15, "numbikesavailable": 5, "mechanical": 0, "ebike": 5, "is_renting": "OUI", "is_returning": "OUI", "duedate": "2024-06-14T17:41:19+00:00", "coordonnees_geo": {"lon": 2.338848, "lat": 48.786404}, "nom_arrondissement_communes": "Cachan", "code_insee_commune": null}, {"stationcode": "12043", "name": "Daumesnil - H\u00e9brard", "is_installed": "OUI", "capacity": 40, "numdocksavailable": 1, "numbikesavailable": 36, "mechanical": 34, "ebike": 2, "is_renting": "OUI", "is_returning": "OUI", "duedate": "2024-06-14T17:50:10+00:00", "coordonnees_geo": {"lon": 2.38474, "lat": 48.8429}, "nom_arrondissement_communes": "Paris", "code_insee_commune": null}, {"stationcode": "20108", "name": "Jardin de l'Hospice Debrousse", "is_installed": "OUI", "capacity": 23, "numdocksavailable": 22, "numbikesavailable": 1, "mechanical": 0, "ebike": 1, "is_renting": "OUI", "is_returning": "OUI", "duedate": "2024-06-14T17:49:28+00:00", "coordonnees_geo": {"lon": 2.40568600595, "lat": 48.861451061938}, "nom_arrondissement_communes": "Paris", "code_insee_commune": null}, {"stationcode": "21219", "name": "Amaury Duval - Gabriel P\u00e9ri", "is_installed": "OUI", "capacity": 36, "numdocksavailable": 35, "numbikesavailable": 1, "mechanical": 0, "ebike": 1, "is_renting": "OUI", "is_returning": "OUI", "duedate": "2024-06-14T17:44:14+00:00", "coordonnees_geo": {"lon": 2.323841750621796, "lat": 48.81718759671675}, "nom_arrondissement_communes": "Montrouge", "code_insee_commune": null}, {"stationcode": "13011", "name": "H\u00f4pital - Campo-Formio", "is_installed": "OUI", "capacity": 7, "numdocksavailable": 4, "numbikesavailable": 3, "mechanical": 1, "ebike": 2, "is_renting": "OUI", "is_returning": "OUI", "duedate": "2024-06-14T17:49:55+00:00", "coordonnees_geo": {"lon": 2.358218, "lat": 48.835405}, "nom_arrondissement_communes": "Paris", "code_insee_commune": null}, {"stationcode": "31025", "name": "Paul Signac - Aristide Briand", "is_installed": "OUI", "capacity": 35, "numdocksavailable": 25, "numbikesavailable": 9, "mechanical": 0, "ebike": 9, "is_renting": "OUI", "is_returning": "OUI", "duedate": "2024-06-14T17:49:49+00:00", "coordonnees_geo": {"lon": 2.4502260982990265, "lat": 48.86950262156371}, "nom_arrondissement_communes": "Montreuil", "code_insee_commune": null}, {"stationcode": "5014", "name": "Jean Calvin - Tournefort", "is_installed": "OUI", "capacity": 28, "numdocksavailable": 25, "numbikesavailable": 3, "mechanical": 1, "ebike": 2, "is_renting": "OUI", "is_returning": "OUI", "duedate": "2024-06-14T17:49:30+00:00", "coordonnees_geo": {"lon": 2.348489575088024, "lat": 48.84158856925782}, "nom_arrondissement_communes": "Paris", "code_insee_commune": null}, {"stationcode": "8549", "name": "George V - Christophe Colomb", "is_installed": "OUI", "capacity": 24, "numdocksavailable": 23, "numbikesavailable": 0, "mechanical": 0, "ebike": 0, "is_renting": "OUI", "is_returning": "OUI", "duedate": "2024-06-14T17:48:17+00:00", "coordonnees_geo": {"lon": 2.30104, "lat": 48.87046}, "nom_arrondissement_communes": "Paris", "code_insee_commune": null}, {"stationcode": "13033", "name": "Porte d'Italie", "is_installed": "OUI", "capacity": 13, "numdocksavailable": 9, "numbikesavailable": 4, "mechanical": 0, "ebike": 4, "is_renting": "OUI", "is_returning": "OUI", "duedate": "2024-06-14T17:43:39+00:00", "coordonnees_geo": {"lon": 2.360236309468746, "lat": 48.817161987718954}, "nom_arrondissement_communes": "Paris", "code_insee_commune": null}, {"stationcode": "42701", "name": "Charles Gide - Fort de Bic\u00eatre", "is_installed": "OUI", "capacity": 30, "numdocksavailable": 29, "numbikesavailable": 1, "mechanical": 0, "ebike": 1, "is_renting": "OUI", "is_returning": "OUI", "duedate": "2024-06-14T17:50:26+00:00", "coordonnees_geo": {"lon": 2.353984415531159, "lat": 48.8071937956922}, "nom_arrondissement_communes": "Le Kremlin-Bic\u00eatre", "code_insee_commune": null}, {"stationcode": "16020", "name": "Place de la Porte de Passy", "is_installed": "OUI", "capacity": 36, "numdocksavailable": 35, "numbikesavailable": 1, "mechanical": 1, "ebike": 0, "is_renting": "OUI", "is_returning": "OUI", "duedate": "2024-06-14T17:47:50+00:00", "coordonnees_geo": {"lon": 2.2644165538827115, "lat": 48.857341095470794}, "nom_arrondissement_communes": "Paris", "code_insee_commune": null}, {"stationcode": "18027", "name": "Damr\u00e9mont - Ordener", "is_installed": "OUI", "capacity": 30, "numdocksavailable": 24, "numbikesavailable": 2, "mechanical": 1, "ebike": 1, "is_renting": "OUI", "is_returning": "OUI", "duedate": "2024-06-14T17:46:52+00:00", "coordonnees_geo": {"lon": 2.336266523912805, "lat": 48.893400392981874}, "nom_arrondissement_communes": "Paris", "code_insee_commune": null}, {"stationcode": "13126", "name": "Place Nationale - Ch\u00e2teau-des-Rentiers", "is_installed": "OUI", "capacity": 18, "numdocksavailable": 16, "numbikesavailable": 1, "mechanical": 0, "ebike": 1, "is_renting": "OUI", "is_returning": "OUI", "duedate": "2024-06-14T17:45:02+00:00", "coordonnees_geo": {"lon": 2.365212, "lat": 48.829268}, "nom_arrondissement_communes": "Paris", "code_insee_commune": null}, {"stationcode": "4003", "name": "Quai aux Fleurs - Pont Saint-Louis", "is_installed": "OUI", "capacity": 21, "numdocksavailable": 0, "numbikesavailable": 21, "mechanical": 11, "ebike": 10, "is_renting": "OUI", "is_returning": "OUI", "duedate": "2024-06-14T17:49:59+00:00", "coordonnees_geo": {"lon": 2.352195717394352, "lat": 48.85291595620935}, "nom_arrondissement_communes": "Paris", "code_insee_commune": null}, {"stationcode": "14101", "name": "Gare Montparnasse - Edgar Quinet", "is_installed": "OUI", "capacity": 33, "numdocksavailable": 3, "numbikesavailable": 27, "mechanical": 15, "ebike": 12, "is_renting": "OUI", "is_returning": "OUI", "duedate": "2024-06-14T17:48:08+00:00", "coordonnees_geo": {"lon": 2.3233232282801, "lat": 48.841487851079}, "nom_arrondissement_communes": "Paris", "code_insee_commune": null}, {"stationcode": "8020", "name": "Batignolles - Beudant", "is_installed": "OUI", "capacity": 44, "numdocksavailable": 39, "numbikesavailable": 3, "mechanical": 3, "ebike": 0, "is_renting": "OUI", "is_returning": "OUI", "duedate": "2024-06-14T17:47:28+00:00", "coordonnees_geo": {"lon": 2.319852970540523, "lat": 48.88216401466375}, "nom_arrondissement_communes": "Paris", "code_insee_commune": null}, {"stationcode": "22501", "name": "Th\u00e9\u00e2tre de La Garenne", "is_installed": "OUI", "capacity": 20, "numdocksavailable": 12, "numbikesavailable": 8, "mechanical": 3, "ebike": 5, "is_renting": "OUI", "is_returning": "OUI", "duedate": "2024-06-14T17:49:18+00:00", "coordonnees_geo": {"lon": 2.2345951981176, "lat": 48.905658361454}, "nom_arrondissement_communes": "La Garenne-Colombes", "code_insee_commune": null}, {"stationcode": "42003", "name": "Place de l'Insurrection d'Ao\u00fbt 1944", "is_installed": "OUI", "capacity": 30, "numdocksavailable": 6, "numbikesavailable": 24, "mechanical": 22, "ebike": 2, "is_renting": "OUI", "is_returning": "OUI", "duedate": "2024-06-14T17:50:01+00:00", "coordonnees_geo": {"lon": 2.398074567317963, "lat": 48.81477852751594}, "nom_arrondissement_communes": "Ivry-sur-Seine", "code_insee_commune": null}, {"stationcode": "4001", "name": "Arcole - Notre-Dame", "is_installed": "OUI", "capacity": 31, "numdocksavailable": 21, "numbikesavailable": 8, "mechanical": 7, "ebike": 1, "is_renting": "OUI", "is_returning": "OUI", "duedate": "2024-06-14T17:48:52+00:00", "coordonnees_geo": {"lon": 2.3493797332048, "lat": 48.853883541328}, "nom_arrondissement_communes": "Paris", "code_insee_commune": null}, {"stationcode": "23003", "name": "Pr\u00e9sident Wilson - Baudin", "is_installed": "OUI", "capacity": 28, "numdocksavailable": 15, "numbikesavailable": 13, "mechanical": 7, "ebike": 6, "is_renting": "OUI", "is_returning": "OUI", "duedate": "2024-06-14T17:45:01+00:00", "coordonnees_geo": {"lon": 2.2849336266517644, "lat": 48.89826887103676}, "nom_arrondissement_communes": "Levallois-Perret", "code_insee_commune": null}, {"stationcode": "19108", "name": "Gaston Tessier - Rosa Parks RER", "is_installed": "OUI", "capacity": 37, "numdocksavailable": 32, "numbikesavailable": 4, "mechanical": 2, "ebike": 2, "is_renting": "OUI", "is_returning": "OUI", "duedate": "2024-06-14T17:50:16+00:00", "coordonnees_geo": {"lon": 2.3743692, "lat": 48.8963765}, "nom_arrondissement_communes": "Paris", "code_insee_commune": null}, {"stationcode": "4002", "name": "March\u00e9 aux fleurs", "is_installed": "OUI", "capacity": 23, "numdocksavailable": 10, "numbikesavailable": 12, "mechanical": 12, "ebike": 0, "is_renting": "OUI", "is_returning": "OUI", "duedate": "2024-06-14T17:50:04+00:00", "coordonnees_geo": {"lon": 2.3473754525185, "lat": 48.855258115391}, "nom_arrondissement_communes": "Paris", "code_insee_commune": null}, {"stationcode": "44007", "name": "Camille Groult - Guy M\u00f4quet", "is_installed": "OUI", "capacity": 22, "numdocksavailable": 7, "numbikesavailable": 15, "mechanical": 11, "ebike": 4, "is_renting": "OUI", "is_returning": "OUI", "duedate": "2024-06-14T17:46:30+00:00", "coordonnees_geo": {"lon": 2.3976725712418556, "lat": 48.787482746521306}, "nom_arrondissement_communes": "Vitry-sur-Seine", "code_insee_commune": null}]