[{"stationcode": "8055", "name": "Courcelles - Place des Ternes", "is_installed": "OUI", "capacity": 31, "numdocksavailable": 29, "numbikesavailable": 2, "mechanical": 0, "ebike": 2, "is_renting": "OUI", "is_returning": "OUI", "duedate": "2024-06-16T17:54:56+00:00", "coordonnees_geo": {"lon": 2.2992860188665043, "lat": 48.878199928923124}, "nom_arrondissement_communes": "Paris", "code_insee_commune": null}, {"stationcode": "23701", "name": "Parvis Robert Schuman - Roger Salengro", "is_installed": "OUI", "capacity": 24, "numdocksavailable": 12, "numbikesavailable": 12, "mechanical": 5, "ebike": 7, "is_renting": "OUI", "is_returning": "OUI", "duedate": "2024-06-16T17:50:27+00:00", "coordonnees_geo": {"lon": 2.1921751275658607, "lat": 48.812657470558754}, "nom_arrondissement_communes": "Chaville", "code_insee_commune": null}, {"stationcode": "17007", "name": "Navier - Epinettes", "is_installed": "OUI", "capacity": 36, "numdocksavailable": 25, "numbikesavailable": 11, "mechanical": 7, "ebike": 4, "is_renting": "OUI", "is_returning": "OUI", "duedate": "2024-06-16T17:55:37+00:00", "coordonnees_geo": {"lon": 2.3226776719093327, "lat": 48.89587780769155}, "nom_arrondissement_communes": "Paris", "code_insee_commune": null}, {"stationcode": "12126", "name": "Gravelle - Route du Bac", "is_installed": "OUI", "capacity": 51, "numdocksavailable": 26, "numbikesavailable": 23, "mechanical": 15, "ebike": 8, "is_renting": "OUI", "is_returning": "OUI", "duedate": "2024-06-16T17:54:26+00:00", "coordonnees_geo": {"lon": 2.418455, "lat": 48.824407}, "nom_arrondissement_communes": "Paris", "code_insee_commune": null}, {"stationcode": "35019", "name": "Anatole France - Jean Lolive", "is_installed": "OUI", "capacity": 28, "numdocksavailable": 7, "numbikesavailable": 18, "mechanical": 11, "ebike": 7, "is_renting": "OUI", "is_returning": "OUI", "duedate": "2024-06-16T17:55:26+00:00", "coordonnees_geo": {"lon": 2.4253764, "lat": 48.8949922}, "nom_arrondissement_communes": "Pantin", "code_insee_commune": null}, {"stationcode": "20113", "name": "Piat - Parc de Belleville", "is_installed": "OUI", "capacity": 21, "numdocksavailable": 8, "numbikesavailable": 13, "mechanical": 1, "ebike": 12, "is_renting": "OUI", "is_returning": "OUI", "duedate": "2024-06-16T17:55:38+00:00", "coordonnees_geo": {"lon": 2.384981390278095, "lat": 48.87195626635528}, "nom_arrondissement_communes": "Paris", "code_insee_commune": null}, {"stationcode": "6030", "name": "Assas - Vaugirard", "is_installed": "OUI", "capacity": 35, "numdocksavailable": 26, "numbikesavailable": 7, "mechanical": 6, "ebike": 1, "is_renting": "OUI", "is_returning": "OUI", "duedate": "2024-06-16T17:53:34+00:00", "coordonnees_geo": {"lon": 2.3292413726449, "lat": 48.848274111398}, "nom_arrondissement_communes": "Paris", "code_insee_commune": null}, {"stationcode": "41604", "name": "Lagny - Joffre", "is_installed": "OUI", "capacity": 31, "numdocksavailable": 19, "numbikesavailable": 12, "mechanical": 10, "ebike": 2, "is_renting": "OUI", "is_returning": "OUI", "duedate": "2024-06-16T17:53:48+00:00", "coordonnees_geo": {"lon": 2.417949736118317, "lat": 48.84930687084088}, "nom_arrondissement_communes": "Saint-Mand\u00e9", "code_insee_commune": null}, {"stationcode": "5116", "name": "Place Valhubert", "is_installed": "OUI", "capacity": 51, "numdocksavailable": 38, "numbikesavailable": 11, "mechanical": 9, "ebike": 2, "is_renting": "OUI", "is_returning": "OUI", "duedate": "2024-06-16T17:54:43+00:00", "coordonnees_geo": {"lon": 2.3640366643667, "lat": 48.844182577315}, "nom_arrondissement_communes": "Paris", "code_insee_commune": null}, {"stationcode": "10005", "name": "Petites Ecuries - Faubourg Poissonni\u00e8re", "is_installed": "OUI", "capacity": 17, "numdocksavailable": 4, "numbikesavailable": 12, "mechanical": 12, "ebike": 0, "is_renting": "OUI", "is_returning": "OUI", "duedate": "2024-06-16T17:55:44+00:00", "coordonnees_geo": {"lon": 2.348388757504776, "lat": 48.87397217237368}, "nom_arrondissement_communes": "Paris", "code_insee_commune": null}, {"stationcode": "26001", "name": "Gare d'Asni\u00e8res sur Seine", "is_installed": "OUI", "capacity": 24, "numdocksavailable": 7, "numbikesavailable": 17, "mechanical": 14, "ebike": 3, "is_renting": "OUI", "is_returning": "OUI", "duedate": "2024-06-16T17:55:20+00:00", "coordonnees_geo": {"lon": 2.2835066914558415, "lat": 48.90636459217474}, "nom_arrondissement_communes": "Asni\u00e8res-sur-Seine", "code_insee_commune": null}, {"stationcode": "92004", "name": "Nanterre - Universit\u00e9", "is_installed": "OUI", "capacity": 20, "numdocksavailable": 12, "numbikesavailable": 8, "mechanical": 3, "ebike": 5, "is_renting": "OUI", "is_returning": "OUI", "duedate": "2024-06-16T17:50:22+00:00", "coordonnees_geo": {"lon": 2.212693, "lat": 48.901365}, "nom_arrondissement_communes": "Nanterre", "code_insee_commune": null}, {"stationcode": "18020", "name": "Francoeur - Marcadet", "is_installed": "OUI", "capacity": 20, "numdocksavailable": 11, "numbikesavailable": 9, "mechanical": 1, "ebike": 8, "is_renting": "OUI", "is_returning": "OUI", "duedate": "2024-06-16T17:51:04+00:00", "coordonnees_geo": {"lon": 2.340014585442034, "lat": 48.89104123261663}, "nom_arrondissement_communes": "Paris", "code_insee_commune": null}, {"stationcode": "15028", "name": "Grenelle - Dr Finlay", "is_installed": "OUI", "capacity": 71, "numdocksavailable": 40, "numbikesavailable": 30, "mechanical": 28, "ebike": 2, "is_renting": "OUI", "is_returning": "OUI", "duedate": "2024-06-16T17:54:55+00:00", "coordonnees_geo": {"lon": 2.2919502854347233, "lat": 48.851315406715976}, "nom_arrondissement_communes": "Paris", "code_insee_commune": null}, {"stationcode": "31702", "name": "Pierre et Marie Curie - Julien Grimau", "is_installed": "OUI", "capacity": 18, "numdocksavailable": 7, "numbikesavailable": 11, "mechanical": 0, "ebike": 11, "is_renting": "OUI", "is_returning": "OUI", "duedate": "2024-06-16T17:51:08+00:00", "coordonnees_geo": {"lon": 2.424097023904324, "lat": 48.870714014863225}, "nom_arrondissement_communes": "Bagnolet", "code_insee_commune": null}, {"stationcode": "42503", "name": "Vladimir Ilitch L\u00e9nine - Andr\u00e9e Chedid", "is_installed": "OUI", "capacity": 31, "numdocksavailable": 17, "numbikesavailable": 13, "mechanical": 3, "ebike": 10, "is_renting": "OUI", "is_returning": "OUI", "duedate": "2024-06-16T17:52:54+00:00", "coordonnees_geo": {"lon": 2.3319716067039, "lat": 48.813240124373}, "nom_arrondissement_communes": "Gentilly", "code_insee_commune": null}, {"stationcode": "21111", "name": "Professeur Ren\u00e9 Leriche - G\u00e9n\u00e9ral Leclerc", "is_installed": "OUI", "capacity": 50, "numdocksavailable": 14, "numbikesavailable": 35, "mechanical": 27, "ebike": 8, "is_renting": "OUI", "is_returning": "OUI", "duedate": "2024-06-16T17:55:56+00:00", "coordonnees_geo": {"lon": 2.307887971401215, "lat": 48.90782845483013}, "nom_arrondissement_communes": "Clichy", "code_insee_commune": null}, {"stationcode": "7014", "name": "Saint-Fran\u00e7ois-Xavier", "is_installed": "OUI", "capacity": 42, "numdocksavailable": 28, "numbikesavailable": 13, "mechanical": 10, "ebike": 3, "is_renting": "OUI", "is_returning": "OUI", "duedate": "2024-06-16T17:54:52+00:00", "coordonnees_geo": {"lon": 2.3146149516106, "lat": 48.85154484769}, "nom_arrondissement_communes": "Paris", "code_insee_commune": null}, {"stationcode": "2010", "name": "Uz\u00e8s - Montmartre", "is_installed": "OUI", "capacity": 29, "numdocksavailable": 21, "numbikesavailable": 6, "mechanical": 4, "ebike": 2, "is_renting": "OUI", "is_returning": "OUI", "duedate": "2024-06-16T17:53:46+00:00", "coordonnees_geo": {"lon": 2.3431010171771054, "lat": 48.870790980240706}, "nom_arrondissement_communes": "Paris", "code_insee_commune": null}, {"stationcode": "17017", "name": "Gare de Pont-Cardinet", "is_installed": "OUI", "capacity": 34, "numdocksavailable": 22, "numbikesavailable": 10, "mechanical": 9, "ebike": 1, "is_renting": "OUI", "is_returning": "OUI", "duedate": "2024-06-16T17:55:31+00:00", "coordonnees_geo": {"lon": 2.314494143994255, "lat": 48.88713901475306}, "nom_arrondissement_communes": "Paris", "code_insee_commune": null}, {"stationcode": "21105", "name": "Morice - G\u00e9n\u00e9ral Leclerc", "is_installed": "OUI", "capacity": 25, "numdocksavailable": 10, "numbikesavailable": 14, "mechanical": 3, "ebike": 11, "is_renting": "OUI", "is_returning": "OUI", "duedate": "2024-06-16T17:55:05+00:00", "coordonnees_geo": {"lon": 2.3128929734230046, "lat": 48.90245471981591}, "nom_arrondissement_communes": "Clichy", "code_insee_commune": null}, {"stationcode": "34002", "name": "Capitaine Glarner - Gabriel P\u00e9ri", "is_installed": "OUI", "capacity": 27, "numdocksavailable": 9, "numbikesavailable": 16, "mechanical": 11, "ebike": 5, "is_renting": "OUI", "is_returning": "OUI", "duedate": "2024-06-16T17:54:57+00:00", "coordonnees_geo": {"lon": 2.3304807533425724, "lat": 48.902449900418745}, "nom_arrondissement_communes": "Saint-Ouen-sur-Seine", "code_insee_commune": null}, {"stationcode": "11101", "name": "Charles Delescluze", "is_installed": "OUI", "capacity": 49, "numdocksavailable": 25, "numbikesavailable": 17, "mechanical": 12, "ebike": 5, "is_renting": "OUI", "is_returning": "OUI", "duedate": "2024-06-16T17:54:30+00:00", "coordonnees_geo": {"lon": 2.380632497370243, "lat": 48.85242200848887}, "nom_arrondissement_communes": "Paris", "code_insee_commune": null}, {"stationcode": "15055", "name": "Vasco de Gama", "is_installed": "OUI", "capacity": 54, "numdocksavailable": 22, "numbikesavailable": 32, "mechanical": 25, "ebike": 7, "is_renting": "OUI", "is_returning": "OUI", "duedate": "2024-06-16T17:55:53+00:00", "coordonnees_geo": {"lon": 2.283664085650799, "lat": 48.83671783466264}, "nom_arrondissement_communes": "Paris", "code_insee_commune": null}, {"stationcode": "14130", "name": "Jonquoy - Didot", "is_installed": "OUI", "capacity": 30, "numdocksavailable": 28, "numbikesavailable": 2, "mechanical": 0, "ebike": 2, "is_renting": "OUI", "is_returning": "OUI", "duedate": "2024-06-16T17:54:51+00:00", "coordonnees_geo": {"lon": 2.31648076325655, "lat": 48.82890454823947}, "nom_arrondissement_communes": "Paris", "code_insee_commune": null}, {"stationcode": "10015", "name": "Lucien Sampaix - R\u00e9collets", "is_installed": "OUI", "capacity": 46, "numdocksavailable": 16, "numbikesavailable": 29, "mechanical": 28, "ebike": 1, "is_renting": "OUI", "is_returning": "OUI", "duedate": "2024-06-16T17:55:12+00:00", "coordonnees_geo": {"lon": 2.3621229082345963, "lat": 48.874330377560476}, "nom_arrondissement_communes": "Paris", "code_insee_commune": null}, {"stationcode": "41207", "name": "Place du G\u00e9n\u00e9ral de Gaulle", "is_installed": "OUI", "capacity": 28, "numdocksavailable": 12, "numbikesavailable": 16, "mechanical": 4, "ebike": 12, "is_renting": "OUI", "is_returning": "OUI", "duedate": "2024-06-16T17:55:49+00:00", "coordonnees_geo": {"lon": 2.4877332, "lat": 48.8525288}, "nom_arrondissement_communes": "Fontenay-sous-Bois", "code_insee_commune": null}, {"stationcode": "16006", "name": "Lauriston - Copernic", "is_installed": "OUI", "capacity": 19, "numdocksavailable": 15, "numbikesavailable": 3, "mechanical": 1, "ebike": 2, "is_renting": "OUI", "is_returning": "OUI", "duedate": "2024-06-16T17:54:54+00:00", "coordonnees_geo": {"lon": 2.289918, "lat": 48.86926}, "nom_arrondissement_communes": "Paris", "code_insee_commune": null}, {"stationcode": "12011", "name": "Charenton - Place du Col Bourgoin", "is_installed": "OUI", "capacity": 35, "numdocksavailable": 4, "numbikesavailable": 29, "mechanical": 29, "ebike": 0, "is_renting": "OUI", "is_returning": "OUI", "duedate": "2024-06-16T17:55:28+00:00", "coordonnees_geo": {"lon": 2.3825789350545, "lat": 48.844867319554}, "nom_arrondissement_communes": "Paris", "code_insee_commune": null}, {"stationcode": "21019", "name": "Edouard Vaillant - Paul-Adolphe Souriau", "is_installed": "OUI", "capacity": 28, "numdocksavailable": 21, "numbikesavailable": 7, "mechanical": 3, "ebike": 4, "is_renting": "OUI", "is_returning": "OUI", "duedate": "2024-06-16T17:52:08+00:00", "coordonnees_geo": {"lon": 2.2479459643363957, "lat": 48.83484585882868}, "nom_arrondissement_communes": "Boulogne-Billancourt", "code_insee_commune": null}, {"stationcode": "12032", "name": "Porte Dor\u00e9e", "is_installed": "OUI", "capacity": 36, "numdocksavailable": 28, "numbikesavailable": 7, "mechanical": 3, "ebike": 4, "is_renting": "OUI", "is_returning": "OUI", "duedate": "2024-06-16T17:55:29+00:00", "coordonnees_geo": {"lon": 2.4077132, "lat": 48.8354337}, "nom_arrondissement_communes": "Paris", "code_insee_commune": null}, {"stationcode": "20109", "name": "Haxo - Surmelin", "is_installed": "OUI", "capacity": 21, "numdocksavailable": 17, "numbikesavailable": 3, "mechanical": 0, "ebike": 3, "is_renting": "OUI", "is_returning": "OUI", "duedate": "2024-06-16T17:51:56+00:00", "coordonnees_geo": {"lon": 2.40539657537972, "lat": 48.8694370761222}, "nom_arrondissement_communes": "Paris", "code_insee_commune": null}, {"stationcode": "20021", "name": "Indre - Prairies", "is_installed": "OUI", "capacity": 38, "numdocksavailable": 27, "numbikesavailable": 11, "mechanical": 0, "ebike": 11, "is_renting": "OUI", "is_returning": "OUI", "duedate": "2024-06-16T17:52:31+00:00", "coordonnees_geo": {"lon": 2.403290458023548, "lat": 48.86254398506782}, "nom_arrondissement_communes": "Paris", "code_insee_commune": null}, {"stationcode": "7005", "name": "Raspail - Bac", "is_installed": "OUI", "capacity": 52, "numdocksavailable": 35, "numbikesavailable": 16, "mechanical": 15, "ebike": 1, "is_renting": "OUI", "is_returning": "OUI", "duedate": "2024-06-16T17:55:47+00:00", "coordonnees_geo": {"lon": 2.3256602883339, "lat": 48.855628721101}, "nom_arrondissement_communes": "Paris", "code_insee_commune": null}, {"stationcode": "19109", "name": "Tanger - Place du Maroc", "is_installed": "OUI", "capacity": 19, "numdocksavailable": 14, "numbikesavailable": 4, "mechanical": 1, "ebike": 3, "is_renting": "OUI", "is_returning": "OUI", "duedate": "2024-06-16T17:55:00+00:00", "coordonnees_geo": {"lon": 2.3689296841621403, "lat": 48.8862524447104}, "nom_arrondissement_communes": "Paris", "code_insee_commune": null}, {"stationcode": "31019", "name": "Vincennes - Douy-Delcupe", "is_installed": "OUI", "capacity": 38, "numdocksavailable": 33, "numbikesavailable": 5, "mechanical": 1, "ebike": 4, "is_renting": "OUI", "is_returning": "OUI", "duedate": "2024-06-16T17:53:42+00:00", "coordonnees_geo": {"lon": 2.436049282550812, "lat": 48.85493692155721}, "nom_arrondissement_communes": "Montreuil", "code_insee_commune": null}, {"stationcode": "32014", "name": "Place du Cornillon - Stade de France", "is_installed": "OUI", "capacity": 34, "numdocksavailable": 25, "numbikesavailable": 8, "mechanical": 2, "ebike": 6, "is_renting": "OUI", "is_returning": "OUI", "duedate": "2024-06-16T17:49:36+00:00", "coordonnees_geo": {"lon": 2.3644426837563515, "lat": 48.92540695835961}, "nom_arrondissement_communes": "Saint-Denis", "code_insee_commune": null}, {"stationcode": "31016", "name": "Lucie Aubrac - Franklin", "is_installed": "OUI", "capacity": 36, "numdocksavailable": 20, "numbikesavailable": 16, "mechanical": 7, "ebike": 9, "is_renting": "OUI", "is_returning": "OUI", "duedate": "2024-06-16T17:53:31+00:00", "coordonnees_geo": {"lon": 2.4435862898826604, "lat": 48.86223916006812}, "nom_arrondissement_communes": "Montreuil", "code_insee_commune": null}, {"stationcode": "51003", "name": "H\u00f4tel de Ville d'Argenteuil", "is_installed": "OUI", "capacity": 30, "numdocksavailable": 13, "numbikesavailable": 17, "mechanical": 12, "ebike": 5, "is_renting": "OUI", "is_returning": "OUI", "duedate": "2024-06-16T17:52:55+00:00", "coordonnees_geo": {"lon": 2.2496396, "lat": 48.946504}, "nom_arrondissement_communes": "Argenteuil", "code_insee_commune": null}, {"stationcode": "13016", "name": "Primo Levi - Frigos", "is_installed": "OUI", "capacity": 34, "numdocksavailable": 8, "numbikesavailable": 25, "mechanical": 22, "ebike": 3, "is_renting": "OUI", "is_returning": "OUI", "duedate": "2024-06-16T17:54:16+00:00", "coordonnees_geo": {"lon": 2.37965351592796, "lat": 48.83094844846017}, "nom_arrondissement_communes": "Paris", "code_insee_commune": null}, {"stationcode": "2009", "name": "Filles Saint-Thomas - Place de la Bourse", "is_installed": "OUI", "capacity": 58, "numdocksavailable": 51, "numbikesavailable": 6, "mechanical": 2, "ebike": 4, "is_renting": "OUI", "is_returning": "OUI", "duedate": "2024-06-16T17:52:46+00:00", "coordonnees_geo": {"lon": 2.3397543845203, "lat": 48.868899890853}, "nom_arrondissement_communes": "Paris", "code_insee_commune": null}, {"stationcode": "16032", "name": "Eglise d'Auteuil", "is_installed": "OUI", "capacity": 21, "numdocksavailable": 19, "numbikesavailable": 2, "mechanical": 2, "ebike": 0, "is_renting": "OUI", "is_returning": "OUI", "duedate": "2024-06-16T17:49:36+00:00", "coordonnees_geo": {"lon": 2.26848387135299, "lat": 48.84749841771691}, "nom_arrondissement_communes": "Paris", "code_insee_commune": null}, {"stationcode": "21003", "name": "Jean Jaur\u00e8s - Jean Baptiste Cl\u00e9ment", "is_installed": "OUI", "capacity": 39, "numdocksavailable": 6, "numbikesavailable": 32, "mechanical": 28, "ebike": 4, "is_renting": "OUI", "is_returning": "OUI", "duedate": "2024-06-16T17:55:56+00:00", "coordonnees_geo": {"lon": 2.2369650006294255, "lat": 48.84576261454011}, "nom_arrondissement_communes": "Boulogne-Billancourt", "code_insee_commune": null}, {"stationcode": "22001", "name": "Ch\u00e2teau - Bineau", "is_installed": "OUI", "capacity": 23, "numdocksavailable": 11, "numbikesavailable": 11, "mechanical": 9, "ebike": 2, "is_renting": "OUI", "is_returning": "OUI", "duedate": "2024-06-16T17:52:28+00:00", "coordonnees_geo": {"lon": 2.270106375217438, "lat": 48.890404028589806}, "nom_arrondissement_communes": "Neuilly-sur-Seine", "code_insee_commune": null}, {"stationcode": "18025", "name": "Mairie du 18\u00e8me", "is_installed": "OUI", "capacity": 40, "numdocksavailable": 33, "numbikesavailable": 6, "mechanical": 1, "ebike": 5, "is_renting": "OUI", "is_returning": "OUI", "duedate": "2024-06-16T17:53:12+00:00", "coordonnees_geo": {"lon": 2.3445510864257812, "lat": 48.892939296937605}, "nom_arrondissement_communes": "Paris", "code_insee_commune": null}, {"stationcode": "20027", "name": "Porte de M\u00e9nilmontant", "is_installed": "OUI", "capacity": 15, "numdocksavailable": 14, "numbikesavailable": 0, "mechanical": 0, "ebike": 0, "is_renting": "OUI", "is_returning": "OUI", "duedate": "2024-06-16T17:54:14+00:00", "coordonnees_geo": {"lon": 2.40932246879487, "lat": 48.8691543609174}, "nom_arrondissement_communes": "Paris", "code_insee_commune": null}, {"stationcode": "9023", "name": "Laffitte - Italiens", "is_installed": "OUI", "capacity": 33, "numdocksavailable": 31, "numbikesavailable": 2, "mechanical": 2, "ebike": 0, "is_renting": "OUI", "is_returning": "OUI", "duedate": "2024-06-16T17:55:34+00:00", "coordonnees_geo": {"lon": 2.3372015478451, "lat": 48.871815737396}, "nom_arrondissement_communes": "Paris", "code_insee_commune": null}, {"stationcode": "16123", "name": "Mahatma Gandhi", "is_installed": "OUI", "capacity": 26, "numdocksavailable": 22, "numbikesavailable": 4, "mechanical": 2, "ebike": 2, "is_renting": "OUI", "is_returning": "OUI", "duedate": "2024-06-16T17:54:25+00:00", "coordonnees_geo": {"lon": 2.264205, "lat": 48.876356}, "nom_arrondissement_communes": "Paris", "code_insee_commune": null}, {"stationcode": "17047", "name": "Courcelles - Pierre Demours", "is_installed": "OUI", "capacity": 26, "numdocksavailable": 17, "numbikesavailable": 8, "mechanical": 5, "ebike": 3, "is_renting": "OUI", "is_returning": "OUI", "duedate": "2024-06-16T17:55:02+00:00", "coordonnees_geo": {"lon": 2.29858466343129, "lat": 48.883769733273496}, "nom_arrondissement_communes": "Paris", "code_insee_commune": null}, {"stationcode": "17121", "name": "Square des Epinettes", "is_installed": "OUI", "capacity": 20, "numdocksavailable": 14, "numbikesavailable": 6, "mechanical": 4, "ebike": 2, "is_renting": "OUI", "is_returning": "OUI", "duedate": "2024-06-16T17:55:14+00:00", "coordonnees_geo": {"lon": 2.325953990221024, "lat": 48.89383909781389}, "nom_arrondissement_communes": "Paris", "code_insee_commune": null}, {"stationcode": "47006", "name": "Les Plan\u00e8tes", "is_installed": "OUI", "capacity": 16, "numdocksavailable": 5, "numbikesavailable": 11, "mechanical": 8, "ebike": 3, "is_renting": "OUI", "is_returning": "OUI", "duedate": "2024-06-16T17:53:33+00:00", "coordonnees_geo": {"lon": 2.4580853059887886, "lat": 48.8099849920804}, "nom_arrondissement_communes": "Maisons-Alfort", "code_insee_commune": null}, {"stationcode": "10020", "name": "Chabrol - d'Hauteville", "is_installed": "OUI", "capacity": 11, "numdocksavailable": 6, "numbikesavailable": 3, "mechanical": 1, "ebike": 2, "is_renting": "OUI", "is_returning": "OUI", "duedate": "2024-06-16T17:55:51+00:00", "coordonnees_geo": {"lon": 2.3513179644942284, "lat": 48.87701838803332}, "nom_arrondissement_communes": "Paris", "code_insee_commune": null}, {"stationcode": "19009", "name": "Cit\u00e9 des Sciences et de l'Industrie", "is_installed": "OUI", "capacity": 30, "numdocksavailable": 24, "numbikesavailable": 6, "mechanical": 2, "ebike": 4, "is_renting": "OUI", "is_returning": "OUI", "duedate": "2024-06-16T17:55:39+00:00", "coordonnees_geo": {"lon": 2.384599149227142, "lat": 48.89659571178903}, "nom_arrondissement_communes": "Paris", "code_insee_commune": null}, {"stationcode": "19038", "name": "Lassus - Delouvain", "is_installed": "OUI", "capacity": 20, "numdocksavailable": 13, "numbikesavailable": 7, "mechanical": 0, "ebike": 7, "is_renting": "OUI", "is_returning": "OUI", "duedate": "2024-06-16T17:55:17+00:00", "coordonnees_geo": {"lon": 2.3890327325519, "lat": 48.8755044846}, "nom_arrondissement_communes": "Paris", "code_insee_commune": null}, {"stationcode": "31704", "name": "Jeanne Hornet - Girardot", "is_installed": "OUI", "capacity": 29, "numdocksavailable": 26, "numbikesavailable": 2, "mechanical": 0, "ebike": 2, "is_renting": "OUI", "is_returning": "OUI", "duedate": "2024-06-16T16:49:04+00:00", "coordonnees_geo": {"lon": 2.427820265293122, "lat": 48.873802681432146}, "nom_arrondissement_communes": "Bagnolet", "code_insee_commune": null}, {"stationcode": "17201", "name": "Porte Maillot - Perreire", "is_installed": "OUI", "capacity": 51, "numdocksavailable": 45, "numbikesavailable": 6, "mechanical": 3, "ebike": 3, "is_renting": "OUI", "is_returning": "OUI", "duedate": "2024-06-16T16:48:25+00:00", "coordonnees_geo": {"lon": 2.2842371277102, "lat": 48.878021154637}, "nom_arrondissement_communes": "Paris", "code_insee_commune": null}, {"stationcode": "21311", "name": "Parvis Corentin Celton", "is_installed": "OUI", "capacity": 55, "numdocksavailable": 19, "numbikesavailable": 31, "mechanical": 29, "ebike": 2, "is_renting": "OUI", "is_returning": "OUI", "duedate": "2024-06-16T16:55:23+00:00", "coordonnees_geo": {"lon": 2.2784319519996648, "lat": 48.82747252522725}, "nom_arrondissement_communes": "Issy-les-Moulineaux", "code_insee_commune": null}, {"stationcode": "12041", "name": "Bois de Vincennes.", "is_installed": "OUI", "capacity": 60, "numdocksavailable": 32, "numbikesavailable": 27, "mechanical": 22, "ebike": 5, "is_renting": "OUI", "is_returning": "OUI", "duedate": "2024-06-16T16:55:49+00:00", "coordonnees_geo": {"lon": 2.4132221, "lat": 48.8338064}, "nom_arrondissement_communes": "Saint-Mand\u00e9", "code_insee_commune": null}, {"stationcode": "23403", "name": "Chateau", "is_installed": "OUI", "capacity": 22, "numdocksavailable": 3, "numbikesavailable": 19, "mechanical": 13, "ebike": 6, "is_renting": "OUI", "is_returning": "OUI", "duedate": "2024-06-16T16:55:04+00:00", "coordonnees_geo": {"lon": 2.3135878035462, "lat": 48.774661399959}, "nom_arrondissement_communes": "Bourg-la-Reine", "code_insee_commune": null}, {"stationcode": "4011", "name": "H\u00f4tel de Ville - Pont-Marie", "is_installed": "OUI", "capacity": 36, "numdocksavailable": 20, "numbikesavailable": 16, "mechanical": 10, "ebike": 6, "is_renting": "OUI", "is_returning": "OUI", "duedate": "2024-06-16T16:55:05+00:00", "coordonnees_geo": {"lon": 2.3569472506642, "lat": 48.853899645527}, "nom_arrondissement_communes": "Paris", "code_insee_commune": null}, {"stationcode": "45001", "name": "H\u00f4tel de Ville de Champigny sur Marne", "is_installed": "OUI", "capacity": 21, "numdocksavailable": 9, "numbikesavailable": 12, "mechanical": 6, "ebike": 6, "is_renting": "OUI", "is_returning": "OUI", "duedate": "2024-06-16T16:54:08+00:00", "coordonnees_geo": {"lon": 2.5096759200096, "lat": 48.813810628405}, "nom_arrondissement_communes": "Champigny-sur-Marne", "code_insee_commune": null}, {"stationcode": "31023", "name": "Place Fran\u00e7ois Mitterand", "is_installed": "OUI", "capacity": 34, "numdocksavailable": 26, "numbikesavailable": 8, "mechanical": 4, "ebike": 4, "is_renting": "OUI", "is_returning": "OUI", "duedate": "2024-06-16T16:53:59+00:00", "coordonnees_geo": {"lon": 2.442958317697048, "lat": 48.86492782016328}, "nom_arrondissement_communes": "Montreuil", "code_insee_commune": null}, {"stationcode": "9118", "name": "Faubourg Poissonniere - Delta", "is_installed": "OUI", "capacity": 36, "numdocksavailable": 31, "numbikesavailable": 5, "mechanical": 0, "ebike": 5, "is_renting": "OUI", "is_returning": "OUI", "duedate": "2024-06-16T16:55:28+00:00", "coordonnees_geo": {"lon": 2.3497482016682625, "lat": 48.882555807626765}, "nom_arrondissement_communes": "Paris", "code_insee_commune": null}, {"stationcode": "21024", "name": "Billancourt - G\u00e9n\u00e9ral Leclerc", "is_installed": "OUI", "capacity": 22, "numdocksavailable": 2, "numbikesavailable": 20, "mechanical": 15, "ebike": 5, "is_renting": "OUI", "is_returning": "OUI", "duedate": "2024-06-16T16:53:34+00:00", "coordonnees_geo": {"lon": 2.2380413, "lat": 48.8322649}, "nom_arrondissement_communes": "Boulogne-Billancourt", "code_insee_commune": null}, {"stationcode": "2001", "name": "Greneta - Sebastopol", "is_installed": "OUI", "capacity": 32, "numdocksavailable": 4, "numbikesavailable": 28, "mechanical": 24, "ebike": 4, "is_renting": "OUI", "is_returning": "OUI", "duedate": "2024-06-16T16:55:43+00:00", "coordonnees_geo": {"lon": 2.3516669869423, "lat": 48.865242333228}, "nom_arrondissement_communes": "Paris", "code_insee_commune": null}, {"stationcode": "12108", "name": "Bercy.", "is_installed": "OUI", "capacity": 66, "numdocksavailable": 17, "numbikesavailable": 47, "mechanical": 35, "ebike": 12, "is_renting": "OUI", "is_returning": "OUI", "duedate": "2024-06-16T16:55:24+00:00", "coordonnees_geo": {"lon": 2.3788625746965, "lat": 48.839966914994}, "nom_arrondissement_communes": "Paris", "code_insee_commune": null}, {"stationcode": "7101", "name": "Raspail - Chomel", "is_installed": "OUI", "capacity": 49, "numdocksavailable": 41, "numbikesavailable": 7, "mechanical": 7, "ebike": 0, "is_renting": "OUI", "is_returning": "OUI", "duedate": "2024-06-16T16:51:36+00:00", "coordonnees_geo": {"lon": 2.3266580700874, "lat": 48.852233164303}, "nom_arrondissement_communes": "Paris", "code_insee_commune": null}, {"stationcode": "8056", "name": "Beaujon - Wagram", "is_installed": "OUI", "capacity": 29, "numdocksavailable": 25, "numbikesavailable": 4, "mechanical": 1, "ebike": 3, "is_renting": "OUI", "is_returning": "OUI", "duedate": "2024-06-16T16:51:40+00:00", "coordonnees_geo": {"lon": 2.2964416444302, "lat": 48.875352455985}, "nom_arrondissement_communes": "Paris", "code_insee_commune": null}, {"stationcode": "17116", "name": "Reims - Porte d'Asni\u00e8res", "is_installed": "OUI", "capacity": 26, "numdocksavailable": 4, "numbikesavailable": 22, "mechanical": 15, "ebike": 7, "is_renting": "OUI", "is_returning": "OUI", "duedate": "2024-06-16T16:55:41+00:00", "coordonnees_geo": {"lon": 2.300144659954865, "lat": 48.891834448210986}, "nom_arrondissement_communes": "Paris", "code_insee_commune": null}, {"stationcode": "14006", "name": "Saint-Jacques - Tombe Issoire", "is_installed": "OUI", "capacity": 23, "numdocksavailable": 16, "numbikesavailable": 4, "mechanical": 0, "ebike": 4, "is_renting": "OUI", "is_returning": "OUI", "duedate": "2024-06-16T16:51:52+00:00", "coordonnees_geo": {"lon": 2.3369108140468597, "lat": 48.833206330538864}, "nom_arrondissement_communes": "Paris", "code_insee_commune": null}, {"stationcode": "31013", "name": "Centenaire - Sorins", "is_installed": "OUI", "capacity": 45, "numdocksavailable": 33, "numbikesavailable": 12, "mechanical": 3, "ebike": 9, "is_renting": "OUI", "is_returning": "OUI", "duedate": "2024-06-16T16:54:26+00:00", "coordonnees_geo": {"lon": 2.4273508787155156, "lat": 48.85853523359734}, "nom_arrondissement_communes": "Montreuil", "code_insee_commune": null}, {"stationcode": "11034", "name": "Parmentier - Fontaine au Roi", "is_installed": "OUI", "capacity": 48, "numdocksavailable": 14, "numbikesavailable": 33, "mechanical": 20, "ebike": 13, "is_renting": "OUI", "is_returning": "OUI", "duedate": "2024-06-16T16:55:51+00:00", "coordonnees_geo": {"lon": 2.372705978671471, "lat": 48.86787670551736}, "nom_arrondissement_communes": "Paris", "code_insee_commune": null}, {"stationcode": "1016", "name": "Th\u00e9r\u00e8se - Op\u00e9ra", "is_installed": "OUI", "capacity": 25, "numdocksavailable": 5, "numbikesavailable": 20, "mechanical": 19, "ebike": 1, "is_renting": "OUI", "is_returning": "OUI", "duedate": "2024-06-16T16:54:20+00:00", "coordonnees_geo": {"lon": 2.3344334212238, "lat": 48.866483514509}, "nom_arrondissement_communes": "Paris", "code_insee_commune": null}, {"stationcode": "41206", "name": "Place des Larris", "is_installed": "OUI", "capacity": 34, "numdocksavailable": 21, "numbikesavailable": 13, "mechanical": 1, "ebike": 12, "is_renting": "OUI", "is_returning": "OUI", "duedate": "2024-06-16T16:53:33+00:00", "coordonnees_geo": {"lon": 2.4780236, "lat": 48.8568363}, "nom_arrondissement_communes": "Fontenay-sous-Bois", "code_insee_commune": null}, {"stationcode": "19031", "name": "Manin - Crim\u00e9e", "is_installed": "OUI", "capacity": 23, "numdocksavailable": 9, "numbikesavailable": 14, "mechanical": 3, "ebike": 11, "is_renting": "OUI", "is_returning": "OUI", "duedate": "2024-06-16T16:53:10+00:00", "coordonnees_geo": {"lon": 2.3863670602440834, "lat": 48.8831217743719}, "nom_arrondissement_communes": "Paris", "code_insee_commune": null}, {"stationcode": "20017", "name": "Saint-Blaise - Mouraud", "is_installed": "OUI", "capacity": 27, "numdocksavailable": 16, "numbikesavailable": 11, "mechanical": 4, "ebike": 7, "is_renting": "OUI", "is_returning": "OUI", "duedate": "2024-06-16T16:55:47+00:00", "coordonnees_geo": {"lon": 2.40869477391243, "lat": 48.85696177597818}, "nom_arrondissement_communes": "Paris", "code_insee_commune": null}, {"stationcode": "11019", "name": "Charonne - Philippe-Auguste", "is_installed": "OUI", "capacity": 32, "numdocksavailable": 12, "numbikesavailable": 17, "mechanical": 6, "ebike": 11, "is_renting": "OUI", "is_returning": "OUI", "duedate": "2024-06-16T16:54:16+00:00", "coordonnees_geo": {"lon": 2.39054639062, "lat": 48.855603162026}, "nom_arrondissement_communes": "Paris", "code_insee_commune": null}, {"stationcode": "23008", "name": "H\u00f4tel de Ville de Levallois Perret", "is_installed": "OUI", "capacity": 26, "numdocksavailable": 21, "numbikesavailable": 1, "mechanical": 0, "ebike": 1, "is_renting": "OUI", "is_returning": "OUI", "duedate": "2024-06-16T16:55:07+00:00", "coordonnees_geo": {"lon": 2.2888818383216862, "lat": 48.89314451997415}, "nom_arrondissement_communes": "Levallois-Perret", "code_insee_commune": null}, {"stationcode": "7026", "name": "Place de Finlande", "is_installed": "OUI", "capacity": 25, "numdocksavailable": 20, "numbikesavailable": 4, "mechanical": 1, "ebike": 3, "is_renting": "OUI", "is_returning": "OUI", "duedate": "2024-06-16T16:55:10+00:00", "coordonnees_geo": {"lon": 2.3113624379039, "lat": 48.862408335967}, "nom_arrondissement_communes": "Paris", "code_insee_commune": null}, {"stationcode": "6014", "name": "Pont de Lodi - Dauphine", "is_installed": "OUI", "capacity": 23, "numdocksavailable": 3, "numbikesavailable": 18, "mechanical": 15, "ebike": 3, "is_renting": "OUI", "is_returning": "OUI", "duedate": "2024-06-16T16:54:32+00:00", "coordonnees_geo": {"lon": 2.339947307565249, "lat": 48.855296898603285}, "nom_arrondissement_communes": "Paris", "code_insee_commune": null}, {"stationcode": "31018", "name": "Gambetta - Michelet", "is_installed": "OUI", "capacity": 33, "numdocksavailable": 29, "numbikesavailable": 4, "mechanical": 2, "ebike": 2, "is_renting": "OUI", "is_returning": "OUI", "duedate": "2024-06-16T16:54:55+00:00", "coordonnees_geo": {"lon": 2.429966032505036, "lat": 48.85273792380526}, "nom_arrondissement_communes": "Montreuil", "code_insee_commune": null}, {"stationcode": "47002", "name": "Les Juilliottes", "is_installed": "OUI", "capacity": 21, "numdocksavailable": 2, "numbikesavailable": 19, "mechanical": 11, "ebike": 8, "is_renting": "OUI", "is_returning": "OUI", "duedate": "2024-06-16T16:55:46+00:00", "coordonnees_geo": {"lon": 2.4437362, "lat": 48.8043072}, "nom_arrondissement_communes": "Maisons-Alfort", "code_insee_commune": null}, {"stationcode": "33005", "name": "R\u00e9publique - Henri Barbusse", "is_installed": "OUI", "capacity": 32, "numdocksavailable": 15, "numbikesavailable": 16, "mechanical": 9, "ebike": 7, "is_renting": "OUI", "is_returning": "OUI", "duedate": "2024-06-16T16:53:08+00:00", "coordonnees_geo": {"lon": 2.389432489871979, "lat": 48.90661553626751}, "nom_arrondissement_communes": "Aubervilliers", "code_insee_commune": null}, {"stationcode": "10164", "name": "Claude Vellefaux - Sambre et Meuse", "is_installed": "OUI", "capacity": 34, "numdocksavailable": 22, "numbikesavailable": 11, "mechanical": 6, "ebike": 5, "is_renting": "OUI", "is_returning": "OUI", "duedate": "2024-06-16T16:54:00+00:00", "coordonnees_geo": {"lon": 2.370478, "lat": 48.875022}, "nom_arrondissement_communes": "Paris", "code_insee_commune": null}, {"stationcode": "2014", "name": "Daunou - Louis le Grand", "is_installed": "OUI", "capacity": 17, "numdocksavailable": 13, "numbikesavailable": 3, "mechanical": 1, "ebike": 2, "is_renting": "OUI", "is_returning": "OUI", "duedate": "2024-06-16T16:53:39+00:00", "coordonnees_geo": {"lon": 2.332515, "lat": 48.869113}, "nom_arrondissement_communes": "Paris", "code_insee_commune": null}, {"stationcode": "16041", "name": "Versailles - Claude Terrasse", "is_installed": "OUI", "capacity": 46, "numdocksavailable": 12, "numbikesavailable": 32, "mechanical": 28, "ebike": 4, "is_renting": "OUI", "is_returning": "OUI", "duedate": "2024-06-16T16:54:48+00:00", "coordonnees_geo": {"lon": 2.263834191152959, "lat": 48.84021933807409}, "nom_arrondissement_communes": "Paris", "code_insee_commune": null}, {"stationcode": "4109", "name": "Mornay - Sully", "is_installed": "OUI", "capacity": 15, "numdocksavailable": 4, "numbikesavailable": 10, "mechanical": 8, "ebike": 2, "is_renting": "OUI", "is_returning": "OUI", "duedate": "2024-06-16T16:55:44+00:00", "coordonnees_geo": {"lon": 2.364460788667202, "lat": 48.84970399548416}, "nom_arrondissement_communes": "Paris", "code_insee_commune": null}, {"stationcode": "3101", "name": "Porte Saint-Martin", "is_installed": "OUI", "capacity": 34, "numdocksavailable": 5, "numbikesavailable": 25, "mechanical": 21, "ebike": 4, "is_renting": "OUI", "is_returning": "OUI", "duedate": "2024-06-16T16:55:41+00:00", "coordonnees_geo": {"lon": 2.35570102930069, "lat": 48.86860172112996}, "nom_arrondissement_communes": "Paris", "code_insee_commune": null}, {"stationcode": "8105", "name": "Fran\u00e7ois 1er - Lincoln", "is_installed": "OUI", "capacity": 31, "numdocksavailable": 27, "numbikesavailable": 4, "mechanical": 3, "ebike": 1, "is_renting": "OUI", "is_returning": "OUI", "duedate": "2024-06-16T16:55:48+00:00", "coordonnees_geo": {"lon": 2.3024262188416, "lat": 48.869517979344}, "nom_arrondissement_communes": "Paris", "code_insee_commune": null}, {"stationcode": "6031", "name": "Pierre Sarrazin - Saint-Michel", "is_installed": "OUI", "capacity": 33, "numdocksavailable": 4, "numbikesavailable": 27, "mechanical": 21, "ebike": 6, "is_renting": "OUI", "is_returning": "OUI", "duedate": "2024-06-16T16:55:42+00:00", "coordonnees_geo": {"lon": 2.342130728066, "lat": 48.850908146398}, "nom_arrondissement_communes": "Paris", "code_insee_commune": null}, {"stationcode": "11048", "name": "Place Mireille Havet", "is_installed": "OUI", "capacity": 43, "numdocksavailable": 15, "numbikesavailable": 26, "mechanical": 22, "ebike": 4, "is_renting": "OUI", "is_returning": "OUI", "duedate": "2024-06-16T16:55:39+00:00", "coordonnees_geo": {"lon": 2.383756, "lat": 48.850533}, "nom_arrondissement_communes": "Paris", "code_insee_commune": null}, {"stationcode": "2101", "name": "Bachaumont - Montmartre", "is_installed": "OUI", "capacity": 33, "numdocksavailable": 2, "numbikesavailable": 27, "mechanical": 20, "ebike": 7, "is_renting": "OUI", "is_returning": "OUI", "duedate": "2024-06-16T16:55:39+00:00", "coordonnees_geo": {"lon": 2.3449775576591496, "lat": 48.86617395079137}, "nom_arrondissement_communes": "Paris", "code_insee_commune": null}, {"stationcode": "21952", "name": "Place Tony de Graaff", "is_installed": "OUI", "capacity": 42, "numdocksavailable": 25, "numbikesavailable": 17, "mechanical": 16, "ebike": 1, "is_renting": "OUI", "is_returning": "OUI", "duedate": "2024-06-16T16:52:12+00:00", "coordonnees_geo": {"lon": 2.2458109, "lat": 48.8181645}, "nom_arrondissement_communes": "Meudon", "code_insee_commune": null}, {"stationcode": "9015", "name": "Lamartine - Faubourg Montmartre", "is_installed": "OUI", "capacity": 32, "numdocksavailable": 22, "numbikesavailable": 8, "mechanical": 5, "ebike": 3, "is_renting": "OUI", "is_returning": "OUI", "duedate": "2024-06-16T16:55:51+00:00", "coordonnees_geo": {"lon": 2.339765690267086, "lat": 48.87661398289084}, "nom_arrondissement_communes": "Paris", "code_insee_commune": null}, {"stationcode": "19030", "name": "Melun - Jean Jaur\u00e8s", "is_installed": "OUI", "capacity": 28, "numdocksavailable": 23, "numbikesavailable": 4, "mechanical": 4, "ebike": 0, "is_renting": "OUI", "is_returning": "OUI", "duedate": "2024-06-16T16:51:17+00:00", "coordonnees_geo": {"lon": 2.376477420330048, "lat": 48.8837796723475}, "nom_arrondissement_communes": "Paris", "code_insee_commune": null}, {"stationcode": "13022", "name": "Butte aux Cailles - Esperance", "is_installed": "OUI", "capacity": 36, "numdocksavailable": 27, "numbikesavailable": 6, "mechanical": 4, "ebike": 2, "is_renting": "OUI", "is_returning": "OUI", "duedate": "2024-06-16T16:54:23+00:00", "coordonnees_geo": {"lon": 2.3492151126265526, "lat": 48.82758774190948}, "nom_arrondissement_communes": "Paris", "code_insee_commune": null}, {"stationcode": "11044", "name": "Square du Bataclan", "is_installed": "OUI", "capacity": 20, "numdocksavailable": 0, "numbikesavailable": 12, "mechanical": 10, "ebike": 2, "is_renting": "OUI", "is_returning": "OUI", "duedate": "2024-06-16T16:55:25+00:00", "coordonnees_geo": {"lon": 2.3711327, "lat": 48.8633762}, "nom_arrondissement_communes": "Paris", "code_insee_commune": null}, {"stationcode": "11110", "name": "Roquette - Folie Regnault", "is_installed": "OUI", "capacity": 52, "numdocksavailable": 45, "numbikesavailable": 5, "mechanical": 2, "ebike": 3, "is_renting": "OUI", "is_returning": "OUI", "duedate": "2024-06-16T16:53:02+00:00", "coordonnees_geo": {"lon": 2.386553623578705, "lat": 48.859246959155485}, "nom_arrondissement_communes": "Paris", "code_insee_commune": null}, {"stationcode": "21017", "name": "Place Marcel Sembat", "is_installed": "OUI", "capacity": 56, "numdocksavailable": 5, "numbikesavailable": 51, "mechanical": 37, "ebike": 14, "is_renting": "OUI", "is_returning": "OUI", "duedate": "2024-06-16T16:55:40+00:00", "coordonnees_geo": {"lon": 2.2441747784614567, "lat": 48.83328865030686}, "nom_arrondissement_communes": "Boulogne-Billancourt", "code_insee_commune": null}, {"stationcode": "14127", "name": "Odessa - D\u00e9part", "is_installed": "OUI", "capacity": 39, "numdocksavailable": 35, "numbikesavailable": 4, "mechanical": 2, "ebike": 2, "is_renting": "OUI", "is_returning": "OUI", "duedate": "2024-06-16T16:52:55+00:00", "coordonnees_geo": {"lon": 2.3244281485677, "lat": 48.842885590081}, "nom_arrondissement_communes": "Paris", "code_insee_commune": null}]