[{"stationcode": "15014", "name": "Volontaires - Vaugirard", "is_installed": "OUI", "capacity": 34, "numdocksavailable": 14, "numbikesavailable": 18, "mechanical": 14, "ebike": 4, "is_renting": "OUI", "is_returning": "OUI", "duedate": "2024-06-14T12:49:24+00:00", "coordonnees_geo": {"lon": 2.30808901725357, "lat": 48.84132050184004}, "nom_arrondissement_communes": "Paris", "code_insee_commune": null}, {"stationcode": "11028", "name": "Guillaume Bertrand - R\u00e9publique", "is_installed": "OUI", "capacity": 38, "numdocksavailable": 26, "numbikesavailable": 11, "mechanical": 3, "ebike": 8, "is_renting": "OUI", "is_returning": "OUI", "duedate": "2024-06-14T12:48:46+00:00", "coordonnees_geo": {"lon": 2.380906377155, "lat": 48.863825174341}, "nom_arrondissement_communes": "Paris", "code_insee_commune": null}, {"stationcode": "22014", "name": "Victor Hugo - Bineau", "is_installed": "OUI", "capacity": 25, "numdocksavailable": 21, "numbikesavailable": 4, "mechanical": 1, "ebike": 3, "is_renting": "OUI", "is_returning": "OUI", "duedate": "2024-06-14T12:48:03+00:00", "coordonnees_geo": {"lon": 2.2783890366554265, "lat": 48.88758225888669}, "nom_arrondissement_communes": "Neuilly-sur-Seine", "code_insee_commune": null}, {"stationcode": "21027", "name": "Fief - R\u00e9publique", "is_installed": "OUI", "capacity": 25, "numdocksavailable": 0, "numbikesavailable": 25, "mechanical": 21, "ebike": 4, "is_renting": "OUI", "is_returning": "OUI", "duedate": "2024-06-14T12:49:21+00:00", "coordonnees_geo": {"lon": 2.255771979689598, "lat": 48.83170888166024}, "nom_arrondissement_communes": "Boulogne-Billancourt", "code_insee_commune": null}, {"stationcode": "12040", "name": "Porte de Charenton", "is_installed": "OUI", "capacity": 67, "numdocksavailable": 54, "numbikesavailable": 12, "mechanical": 6, "ebike": 6, "is_renting": "OUI", "is_returning": "OUI", "duedate": "2024-06-14T12:49:10+00:00", "coordonnees_geo": {"lon": 2.3989107459783554, "lat": 48.83124010585643}, "nom_arrondissement_communes": "Paris", "code_insee_commune": null}, {"stationcode": "13023", "name": "Bobillot - Moulin des Pr\u00e9s", "is_installed": "OUI", "capacity": 28, "numdocksavailable": 28, "numbikesavailable": 0, "mechanical": 0, "ebike": 0, "is_renting": "OUI", "is_returning": "OUI", "duedate": "2024-06-14T12:46:05+00:00", "coordonnees_geo": {"lon": 2.353020646317, "lat": 48.828657346203}, "nom_arrondissement_communes": "Paris", "code_insee_commune": null}, {"stationcode": "6005", "name": "Montparnasse -  Square Ozanam", "is_installed": "OUI", "capacity": 49, "numdocksavailable": 11, "numbikesavailable": 37, "mechanical": 17, "ebike": 20, "is_renting": "OUI", "is_returning": "OUI", "duedate": "2024-06-14T12:49:58+00:00", "coordonnees_geo": {"lon": 2.3265242949128, "lat": 48.843310567822}, "nom_arrondissement_communes": "Paris", "code_insee_commune": null}, {"stationcode": "19001", "name": "Crim\u00e9e - Ourcq", "is_installed": "OUI", "capacity": 56, "numdocksavailable": 47, "numbikesavailable": 8, "mechanical": 5, "ebike": 3, "is_renting": "OUI", "is_returning": "OUI", "duedate": "2024-06-14T12:46:33+00:00", "coordonnees_geo": {"lon": 2.3729460884673, "lat": 48.894104140316}, "nom_arrondissement_communes": "Paris", "code_insee_commune": null}, {"stationcode": "19007", "name": "Flandre - Ourcq", "is_installed": "OUI", "capacity": 30, "numdocksavailable": 20, "numbikesavailable": 9, "mechanical": 6, "ebike": 3, "is_renting": "OUI", "is_returning": "OUI", "duedate": "2024-06-14T12:47:00+00:00", "coordonnees_geo": {"lon": 2.3790915682911873, "lat": 48.89260159189023}, "nom_arrondissement_communes": "Paris", "code_insee_commune": null}, {"stationcode": "21016", "name": "Point du Jour - Jean Jaur\u00e8s", "is_installed": "OUI", "capacity": 40, "numdocksavailable": 21, "numbikesavailable": 19, "mechanical": 16, "ebike": 3, "is_renting": "OUI", "is_returning": "OUI", "duedate": "2024-06-14T12:49:36+00:00", "coordonnees_geo": {"lon": 2.245911467014621, "lat": 48.828753141436465}, "nom_arrondissement_communes": "Boulogne-Billancourt", "code_insee_commune": null}, {"stationcode": "13013", "name": "Saint-Marcel - H\u00f4pital", "is_installed": "OUI", "capacity": 21, "numdocksavailable": 2, "numbikesavailable": 17, "mechanical": 14, "ebike": 3, "is_renting": "OUI", "is_returning": "OUI", "duedate": "2024-06-14T12:48:25+00:00", "coordonnees_geo": {"lon": 2.360989417022932, "lat": 48.83950442458303}, "nom_arrondissement_communes": "Paris", "code_insee_commune": null}, {"stationcode": "19123", "name": "Metz - Marne", "is_installed": "OUI", "capacity": 33, "numdocksavailable": 26, "numbikesavailable": 6, "mechanical": 3, "ebike": 3, "is_renting": "OUI", "is_returning": "OUI", "duedate": "2024-06-14T12:48:33+00:00", "coordonnees_geo": {"lon": 2.3865705, "lat": 48.891163}, "nom_arrondissement_communes": "Paris", "code_insee_commune": null}, {"stationcode": "42027", "name": "Verdun - Pierre et Marie Curie", "is_installed": "OUI", "capacity": 26, "numdocksavailable": 19, "numbikesavailable": 7, "mechanical": 3, "ebike": 4, "is_renting": "OUI", "is_returning": "OUI", "duedate": "2024-06-14T12:47:13+00:00", "coordonnees_geo": {"lon": 2.3707106709480286, "lat": 48.812822398263286}, "nom_arrondissement_communes": "Ivry-sur-Seine", "code_insee_commune": null}, {"stationcode": "30007", "name": "Pablo Picasso - Maurice Thorez", "is_installed": "NON", "capacity": 0, "numdocksavailable": 0, "numbikesavailable": 0, "mechanical": 0, "ebike": 0, "is_renting": "NON", "is_returning": "NON", "duedate": "2024-06-14T12:47:54+00:00", "coordonnees_geo": {"lon": 2.4489325365198, "lat": 48.906887812943}, "nom_arrondissement_communes": "Bobigny", "code_insee_commune": null}, {"stationcode": "8044", "name": "Alfred de Vigny - Place du G\u00e9n\u00e9ral Brocard", "is_installed": "OUI", "capacity": 33, "numdocksavailable": 22, "numbikesavailable": 9, "mechanical": 5, "ebike": 4, "is_renting": "OUI", "is_returning": "OUI", "duedate": "2024-06-14T12:49:53+00:00", "coordonnees_geo": {"lon": 2.305254448220567, "lat": 48.87836138361425}, "nom_arrondissement_communes": "Paris", "code_insee_commune": null}, {"stationcode": "1201", "name": "Perrault - Place du Louvre", "is_installed": "OUI", "capacity": 28, "numdocksavailable": 2, "numbikesavailable": 25, "mechanical": 13, "ebike": 12, "is_renting": "OUI", "is_returning": "OUI", "duedate": "2024-06-14T12:50:00+00:00", "coordonnees_geo": {"lon": 2.3412468419093, "lat": 48.860273568996}, "nom_arrondissement_communes": "Paris", "code_insee_commune": null}, {"stationcode": "21510", "name": "Fontaine du Tertre - Calvaire", "is_installed": "OUI", "capacity": 24, "numdocksavailable": 22, "numbikesavailable": 2, "mechanical": 1, "ebike": 1, "is_renting": "OUI", "is_returning": "OUI", "duedate": "2024-06-14T12:47:43+00:00", "coordonnees_geo": {"lon": 2.2187778, "lat": 48.8702539}, "nom_arrondissement_communes": "Suresnes", "code_insee_commune": null}, {"stationcode": "17036", "name": "Place Tristan Bernard", "is_installed": "OUI", "capacity": 28, "numdocksavailable": 10, "numbikesavailable": 15, "mechanical": 6, "ebike": 9, "is_renting": "OUI", "is_returning": "OUI", "duedate": "2024-06-14T12:49:43+00:00", "coordonnees_geo": {"lon": 2.2915423, "lat": 48.8794936}, "nom_arrondissement_communes": "Paris", "code_insee_commune": null}, {"stationcode": "11038", "name": "Temple - Charlot", "is_installed": "OUI", "capacity": 45, "numdocksavailable": 9, "numbikesavailable": 34, "mechanical": 28, "ebike": 6, "is_renting": "OUI", "is_returning": "OUI", "duedate": "2024-06-14T12:47:45+00:00", "coordonnees_geo": {"lon": 2.3652737250724, "lat": 48.865709343796}, "nom_arrondissement_communes": "Paris", "code_insee_commune": null}, {"stationcode": "13008", "name": "Place d'Italie - Soeur Rosalie", "is_installed": "OUI", "capacity": 52, "numdocksavailable": 47, "numbikesavailable": 5, "mechanical": 0, "ebike": 5, "is_renting": "OUI", "is_returning": "OUI", "duedate": "2024-06-14T12:45:36+00:00", "coordonnees_geo": {"lon": 2.3546943448098, "lat": 48.831908520394}, "nom_arrondissement_communes": "Paris", "code_insee_commune": null}, {"stationcode": "16500", "name": null, "is_installed": "NON", "capacity": null, "numdocksavailable": 0, "numbikesavailable": 0, "mechanical": 0, "ebike": 0, "is_renting": "NON", "is_returning": "NON", "duedate": "2024-06-14T12:00:01+00:00", "coordonnees_geo": null, "nom_arrondissement_communes": null, "code_insee_commune": null}, {"stationcode": "44010", "name": "8 Mai 1945 - 10 Juillet 1940", "is_installed": "OUI", "capacity": 30, "numdocksavailable": 30, "numbikesavailable": 0, "mechanical": 0, "ebike": 0, "is_renting": "NON", "is_returning": "NON", "duedate": "2023-11-05T08:56:42+00:00", "coordonnees_geo": {"lon": 2.3979035764933, "lat": 48.784567029674}, "nom_arrondissement_communes": "Vitry-sur-Seine", "code_insee_commune": null}, {"stationcode": "21112", "name": "Claude Debussy - Marc Bloch", "is_installed": "OUI", "capacity": 56, "numdocksavailable": 14, "numbikesavailable": 42, "mechanical": 41, "ebike": 1, "is_renting": "OUI", "is_returning": "OUI", "duedate": "2024-06-14T12:49:15+00:00", "coordonnees_geo": {"lon": 2.3117771744728, "lat": 48.910388180512}, "nom_arrondissement_communes": "Clichy", "code_insee_commune": null}, {"stationcode": "22703", "name": "Place Jean Mermoz", "is_installed": "OUI", "capacity": 30, "numdocksavailable": 17, "numbikesavailable": 13, "mechanical": 10, "ebike": 3, "is_renting": "OUI", "is_returning": "OUI", "duedate": "2024-06-14T12:49:42+00:00", "coordonnees_geo": {"lon": 2.2718348, "lat": 48.9220937}, "nom_arrondissement_communes": "Bois-Colombes", "code_insee_commune": null}, {"stationcode": "10001", "name": "Ren\u00e9 Boulanger - Lancry", "is_installed": "OUI", "capacity": 62, "numdocksavailable": 49, "numbikesavailable": 12, "mechanical": 10, "ebike": 2, "is_renting": "OUI", "is_returning": "OUI", "duedate": "2024-06-14T12:49:50+00:00", "coordonnees_geo": {"lon": 2.3600032, "lat": 48.8685433}, "nom_arrondissement_communes": "Paris", "code_insee_commune": null}, {"stationcode": "20030", "name": "M\u00e9nilmontant - P\u00e8re Lachaise", "is_installed": "OUI", "capacity": 41, "numdocksavailable": 33, "numbikesavailable": 5, "mechanical": 2, "ebike": 3, "is_renting": "OUI", "is_returning": "OUI", "duedate": "2024-06-14T12:44:45+00:00", "coordonnees_geo": {"lon": 2.3869940266013, "lat": 48.863287291502}, "nom_arrondissement_communes": "Paris", "code_insee_commune": null}, {"stationcode": "7007", "name": "Mus\u00e9e d'Orsay", "is_installed": "OUI", "capacity": 65, "numdocksavailable": 20, "numbikesavailable": 45, "mechanical": 32, "ebike": 13, "is_renting": "OUI", "is_returning": "OUI", "duedate": "2024-06-14T12:49:58+00:00", "coordonnees_geo": {"lon": 2.325860448181629, "lat": 48.85972615790874}, "nom_arrondissement_communes": "Paris", "code_insee_commune": null}, {"stationcode": "15032", "name": "F\u00e9lix Faure - Lourmel", "is_installed": "OUI", "capacity": 58, "numdocksavailable": 5, "numbikesavailable": 53, "mechanical": 49, "ebike": 4, "is_renting": "OUI", "is_returning": "OUI", "duedate": "2024-06-14T12:49:58+00:00", "coordonnees_geo": {"lon": 2.2818081825971603, "lat": 48.83868901709515}, "nom_arrondissement_communes": "Paris", "code_insee_commune": null}, {"stationcode": "20037", "name": "Gambetta - Saint Fargeau", "is_installed": "OUI", "capacity": 24, "numdocksavailable": 20, "numbikesavailable": 4, "mechanical": 0, "ebike": 4, "is_renting": "OUI", "is_returning": "OUI", "duedate": "2024-06-14T12:49:51+00:00", "coordonnees_geo": {"lon": 2.4039056897163396, "lat": 48.871244610447015}, "nom_arrondissement_communes": "Paris", "code_insee_commune": null}, {"stationcode": "22302", "name": "Gare RER - G\u00e9n\u00e9ral de Gaulle", "is_installed": "OUI", "capacity": 41, "numdocksavailable": 20, "numbikesavailable": 19, "mechanical": 7, "ebike": 12, "is_renting": "OUI", "is_returning": "OUI", "duedate": "2024-06-14T12:46:06+00:00", "coordonnees_geo": {"lon": 2.3064726536317, "lat": 48.933548439566}, "nom_arrondissement_communes": "Gennevilliers", "code_insee_commune": null}, {"stationcode": "13053", "name": "Chevaleret - Tolbiac", "is_installed": "OUI", "capacity": 21, "numdocksavailable": 3, "numbikesavailable": 15, "mechanical": 13, "ebike": 2, "is_renting": "OUI", "is_returning": "OUI", "duedate": "2024-06-14T12:49:22+00:00", "coordonnees_geo": {"lon": 2.375934, "lat": 48.82941}, "nom_arrondissement_communes": "Paris", "code_insee_commune": null}, {"stationcode": "15500", "name": null, "is_installed": "NON", "capacity": null, "numdocksavailable": 0, "numbikesavailable": 0, "mechanical": 0, "ebike": 0, "is_renting": "NON", "is_returning": "NON", "duedate": "2024-06-14T11:56:48+00:00", "coordonnees_geo": null, "nom_arrondissement_communes": null, "code_insee_commune": null}, {"stationcode": "34009", "name": "Dora Maar - Nadia Guendouz", "is_installed": "OUI", "capacity": 30, "numdocksavailable": 11, "numbikesavailable": 18, "mechanical": 15, "ebike": 3, "is_renting": "OUI", "is_returning": "OUI", "duedate": "2024-06-14T12:49:18+00:00", "coordonnees_geo": {"lon": 2.3220406472683, "lat": 48.905452421305}, "nom_arrondissement_communes": "Saint-Ouen-sur-Seine", "code_insee_commune": null}, {"stationcode": "10151", "name": "Gare du Nord - Faubourg Saint-Denis", "is_installed": "OUI", "capacity": 28, "numdocksavailable": 15, "numbikesavailable": 9, "mechanical": 4, "ebike": 5, "is_renting": "OUI", "is_returning": "OUI", "duedate": "2024-06-14T12:49:02+00:00", "coordonnees_geo": {"lon": 2.3568402975798, "lat": 48.879612765504}, "nom_arrondissement_communes": "Paris", "code_insee_commune": null}, {"stationcode": "10001_relais", "name": "Ren\u00e9 Boulanger - Lancry", "is_installed": "NON", "capacity": 0, "numdocksavailable": 0, "numbikesavailable": 0, "mechanical": 0, "ebike": 0, "is_renting": "NON", "is_returning": "NON", "duedate": "2024-06-14T12:49:49+00:00", "coordonnees_geo": {"lon": 2.3599605, "lat": 48.8687079}, "nom_arrondissement_communes": "Paris", "code_insee_commune": null}, {"stationcode": "21327", "name": "Jean Bouin - Gouverneur G\u00e9n\u00e9ral Ebou\u00e9", "is_installed": "OUI", "capacity": 31, "numdocksavailable": 18, "numbikesavailable": 12, "mechanical": 9, "ebike": 3, "is_renting": "OUI", "is_returning": "OUI", "duedate": "2024-06-14T12:48:06+00:00", "coordonnees_geo": {"lon": 2.2651904328524, "lat": 48.824792734266}, "nom_arrondissement_communes": "Issy-les-Moulineaux", "code_insee_commune": null}, {"stationcode": "26011", "name": "M\u00e9nil - Argenteuil", "is_installed": "OUI", "capacity": 20, "numdocksavailable": 14, "numbikesavailable": 6, "mechanical": 4, "ebike": 2, "is_renting": "OUI", "is_returning": "OUI", "duedate": "2024-06-14T12:47:30+00:00", "coordonnees_geo": {"lon": 2.2741496502338, "lat": 48.925901818305}, "nom_arrondissement_communes": "Asni\u00e8res-sur-Seine", "code_insee_commune": null}, {"stationcode": "22208", "name": "Stalingrad - Barbara", "is_installed": "OUI", "capacity": 20, "numdocksavailable": 20, "numbikesavailable": 0, "mechanical": 0, "ebike": 0, "is_renting": "OUI", "is_returning": "OUI", "duedate": "2024-06-14T12:48:19+00:00", "coordonnees_geo": {"lon": 2.3175904558822, "lat": 48.809223658808}, "nom_arrondissement_communes": "Bagneux", "code_insee_commune": null}, {"stationcode": "18203", "name": "Lamarck - Saint-Ouen", "is_installed": "OUI", "capacity": 40, "numdocksavailable": 40, "numbikesavailable": 0, "mechanical": 0, "ebike": 0, "is_renting": "NON", "is_returning": "NON", "duedate": "2024-06-14T12:48:54+00:00", "coordonnees_geo": {"lon": 2.3272445342326, "lat": 48.891334555236}, "nom_arrondissement_communes": "Paris", "code_insee_commune": null}, {"stationcode": "35021", "name": "Cartier Bresson - Denis Papin", "is_installed": "OUI", "capacity": 32, "numdocksavailable": 23, "numbikesavailable": 7, "mechanical": 5, "ebike": 2, "is_renting": "OUI", "is_returning": "OUI", "duedate": "2024-06-14T12:47:49+00:00", "coordonnees_geo": {"lon": 2.397814, "lat": 48.902616}, "nom_arrondissement_communes": "Pantin", "code_insee_commune": null}, {"stationcode": "18045", "name": "Pierre Ginier - Clichy", "is_installed": "OUI", "capacity": 16, "numdocksavailable": 11, "numbikesavailable": 5, "mechanical": 0, "ebike": 5, "is_renting": "OUI", "is_returning": "OUI", "duedate": "2024-06-14T12:48:10+00:00", "coordonnees_geo": {"lon": 2.326228, "lat": 48.8867667}, "nom_arrondissement_communes": "Paris", "code_insee_commune": null}, {"stationcode": "14110", "name": "Abb\u00e9 Carton - Plantes", "is_installed": "OUI", "capacity": 25, "numdocksavailable": 24, "numbikesavailable": 1, "mechanical": 0, "ebike": 1, "is_renting": "OUI", "is_returning": "OUI", "duedate": "2024-06-14T12:49:46+00:00", "coordonnees_geo": {"lon": 2.3209181427956, "lat": 48.827673823166}, "nom_arrondissement_communes": "Paris", "code_insee_commune": null}, {"stationcode": "18018", "name": "Carpeaux - Place Jacques Froment", "is_installed": "OUI", "capacity": 19, "numdocksavailable": 13, "numbikesavailable": 5, "mechanical": 1, "ebike": 4, "is_renting": "OUI", "is_returning": "OUI", "duedate": "2024-06-14T12:49:37+00:00", "coordonnees_geo": {"lon": 2.3309428, "lat": 48.8906542}, "nom_arrondissement_communes": "Paris", "code_insee_commune": null}, {"stationcode": "32305", "name": "Saint-Germain - Verdun", "is_installed": "OUI", "capacity": 30, "numdocksavailable": 27, "numbikesavailable": 2, "mechanical": 0, "ebike": 2, "is_renting": "OUI", "is_returning": "OUI", "duedate": "2024-06-14T12:44:51+00:00", "coordonnees_geo": {"lon": 2.4331868384644, "lat": 48.882877330093}, "nom_arrondissement_communes": "Romainville", "code_insee_commune": null}, {"stationcode": "22305", "name": "Jean Jaur\u00e8s - Place du Dr Roux", "is_installed": "OUI", "capacity": 35, "numdocksavailable": 26, "numbikesavailable": 8, "mechanical": 3, "ebike": 5, "is_renting": "OUI", "is_returning": "OUI", "duedate": "2024-06-14T12:49:18+00:00", "coordonnees_geo": {"lon": 2.2947337017374, "lat": 48.927567032796}, "nom_arrondissement_communes": "Gennevilliers", "code_insee_commune": null}, {"stationcode": "21320", "name": "Pr\u00e9sident Roosevelt - Rouget de Lisle", "is_installed": "OUI", "capacity": 40, "numdocksavailable": 24, "numbikesavailable": 16, "mechanical": 10, "ebike": 6, "is_renting": "OUI", "is_returning": "OUI", "duedate": "2024-06-14T12:46:37+00:00", "coordonnees_geo": {"lon": 2.2616135525345, "lat": 48.83047518749}, "nom_arrondissement_communes": "Issy-les-Moulineaux", "code_insee_commune": null}, {"stationcode": "22507", "name": "Ch\u00e2teaudun - Place de la Libert\u00e9", "is_installed": "OUI", "capacity": 26, "numdocksavailable": 11, "numbikesavailable": 15, "mechanical": 5, "ebike": 10, "is_renting": "OUI", "is_returning": "OUI", "duedate": "2024-06-14T12:49:14+00:00", "coordonnees_geo": {"lon": 2.2454486480600626, "lat": 48.90970830301211}, "nom_arrondissement_communes": "La Garenne-Colombes", "code_insee_commune": null}, {"stationcode": "12001", "name": "Bastille - Biscornet", "is_installed": "OUI", "capacity": 62, "numdocksavailable": 10, "numbikesavailable": 52, "mechanical": 33, "ebike": 19, "is_renting": "OUI", "is_returning": "OUI", "duedate": "2024-06-14T12:47:43+00:00", "coordonnees_geo": {"lon": 2.369220033288, "lat": 48.851355779579}, "nom_arrondissement_communes": "Paris", "code_insee_commune": null}, {"stationcode": "21954", "name": "Val-Fleury", "is_installed": "OUI", "capacity": 23, "numdocksavailable": 4, "numbikesavailable": 19, "mechanical": 2, "ebike": 17, "is_renting": "OUI", "is_returning": "OUI", "duedate": "2024-06-14T12:47:35+00:00", "coordonnees_geo": {"lon": 2.2407217696309, "lat": 48.807671407991}, "nom_arrondissement_communes": "Meudon", "code_insee_commune": null}, {"stationcode": "22602", "name": "Place Henri Dunant - Gare RER", "is_installed": "OUI", "capacity": 31, "numdocksavailable": 22, "numbikesavailable": 8, "mechanical": 2, "ebike": 6, "is_renting": "OUI", "is_returning": "OUI", "duedate": "2024-06-14T12:41:07+00:00", "coordonnees_geo": {"lon": 2.2909234046643, "lat": 48.788093281931}, "nom_arrondissement_communes": "Fontenay-aux-Roses", "code_insee_commune": null}, {"stationcode": "32023", "name": "Guy M\u00f4quet - Jean Moulin", "is_installed": "OUI", "capacity": 30, "numdocksavailable": 1, "numbikesavailable": 29, "mechanical": 13, "ebike": 16, "is_renting": "OUI", "is_returning": "OUI", "duedate": "2024-06-14T12:49:31+00:00", "coordonnees_geo": {"lon": 2.363948999931771, "lat": 48.940931521020836}, "nom_arrondissement_communes": "Saint-Denis", "code_insee_commune": null}, {"stationcode": "23201", "name": "Avenir", "is_installed": "OUI", "capacity": 45, "numdocksavailable": 26, "numbikesavailable": 18, "mechanical": 7, "ebike": 11, "is_renting": "OUI", "is_returning": "OUI", "duedate": "2024-06-14T12:49:07+00:00", "coordonnees_geo": {"lon": 2.3003776, "lat": 48.8103438}, "nom_arrondissement_communes": "Ch\u00e2tillon", "code_insee_commune": null}, {"stationcode": "17126", "name": "H\u00e9l\u00e8ne et Fran\u00e7ois Missoffe - Emile Borel", "is_installed": "OUI", "capacity": 32, "numdocksavailable": 17, "numbikesavailable": 14, "mechanical": 10, "ebike": 4, "is_renting": "OUI", "is_returning": "OUI", "duedate": "2024-06-14T12:49:53+00:00", "coordonnees_geo": {"lon": 2.321543991674844, "lat": 48.89990653843488}, "nom_arrondissement_communes": "Paris", "code_insee_commune": null}, {"stationcode": "17127", "name": "Porte de Clichy - Place des Nations Unies", "is_installed": "OUI", "capacity": 40, "numdocksavailable": 19, "numbikesavailable": 20, "mechanical": 17, "ebike": 3, "is_renting": "OUI", "is_returning": "OUI", "duedate": "2024-06-14T12:49:02+00:00", "coordonnees_geo": {"lon": 2.310542999196392, "lat": 48.896737263309504}, "nom_arrondissement_communes": "Paris", "code_insee_commune": null}, {"stationcode": "34008", "name": "Garibaldi - Gabriel P\u00e9ri", "is_installed": "OUI", "capacity": 30, "numdocksavailable": 23, "numbikesavailable": 5, "mechanical": 1, "ebike": 4, "is_renting": "OUI", "is_returning": "OUI", "duedate": "2024-06-14T12:49:16+00:00", "coordonnees_geo": {"lon": 2.3316044208059, "lat": 48.905741911394}, "nom_arrondissement_communes": "Saint-Ouen-sur-Seine", "code_insee_commune": null}, {"stationcode": "23204", "name": "Roland Garros - Jean Bouin", "is_installed": "OUI", "capacity": 28, "numdocksavailable": 28, "numbikesavailable": 0, "mechanical": 0, "ebike": 0, "is_renting": "OUI", "is_returning": "OUI", "duedate": "2024-06-14T12:47:01+00:00", "coordonnees_geo": {"lon": 2.2853198638301, "lat": 48.809460857173}, "nom_arrondissement_communes": "Ch\u00e2tillon", "code_insee_commune": null}, {"stationcode": "31301", "name": "Gare RER", "is_installed": "OUI", "capacity": 30, "numdocksavailable": 14, "numbikesavailable": 12, "mechanical": 6, "ebike": 6, "is_renting": "OUI", "is_returning": "OUI", "duedate": "2024-06-14T12:49:55+00:00", "coordonnees_geo": {"lon": 2.4581568985227, "lat": 48.896280181078}, "nom_arrondissement_communes": "Noisy-le-Sec", "code_insee_commune": null}, {"stationcode": "21514", "name": "Place de la Paix - Abb\u00e9 Saint-Pierre", "is_installed": "OUI", "capacity": 24, "numdocksavailable": 24, "numbikesavailable": 0, "mechanical": 0, "ebike": 0, "is_renting": "OUI", "is_returning": "OUI", "duedate": "2024-06-14T12:45:58+00:00", "coordonnees_geo": {"lon": 2.2047570338469806, "lat": 48.86462724459225}, "nom_arrondissement_communes": "Suresnes", "code_insee_commune": null}, {"stationcode": "18026", "name": "Ruisseau - Ordener", "is_installed": "OUI", "capacity": 35, "numdocksavailable": 31, "numbikesavailable": 2, "mechanical": 1, "ebike": 1, "is_renting": "OUI", "is_returning": "OUI", "duedate": "2024-06-14T12:48:59+00:00", "coordonnees_geo": {"lon": 2.340144887566567, "lat": 48.89299462568024}, "nom_arrondissement_communes": "Paris", "code_insee_commune": null}, {"stationcode": "12105", "name": "Bercy - Villot", "is_installed": "OUI", "capacity": 33, "numdocksavailable": 2, "numbikesavailable": 34, "mechanical": 19, "ebike": 15, "is_renting": "OUI", "is_returning": "OUI", "duedate": "2024-06-14T12:45:45+00:00", "coordonnees_geo": {"lon": 2.3767850184816, "lat": 48.841795009027}, "nom_arrondissement_communes": "Paris", "code_insee_commune": null}, {"stationcode": "7201", "name": "Place Fontenoy - Saxe", "is_installed": "NON", "capacity": 0, "numdocksavailable": 0, "numbikesavailable": 0, "mechanical": 0, "ebike": 0, "is_renting": "NON", "is_returning": "NON", "duedate": "2024-04-26T16:47:44+00:00", "coordonnees_geo": {"lon": 2.3069813815839, "lat": 48.850270554523}, "nom_arrondissement_communes": "Paris", "code_insee_commune": null}, {"stationcode": "21501", "name": "Pont de Suresnes", "is_installed": "OUI", "capacity": 24, "numdocksavailable": 24, "numbikesavailable": 0, "mechanical": 0, "ebike": 0, "is_renting": "NON", "is_returning": "NON", "duedate": "2018-12-21T14:18:50+00:00", "coordonnees_geo": {"lon": 2.2258946679617, "lat": 48.867415092322}, "nom_arrondissement_communes": "Suresnes", "code_insee_commune": null}, {"stationcode": "13035", "name": "Choisy - Tolbiac", "is_installed": "OUI", "capacity": 0, "numdocksavailable": 0, "numbikesavailable": 0, "mechanical": 0, "ebike": 0, "is_renting": "NON", "is_returning": "NON", "duedate": "2023-11-29T12:09:17+00:00", "coordonnees_geo": {"lon": 2.3602393269539, "lat": 48.82591155587}, "nom_arrondissement_communes": "Paris", "code_insee_commune": null}, {"stationcode": "18031", "name": "Place Albert Kahn", "is_installed": "OUI", "capacity": 0, "numdocksavailable": 0, "numbikesavailable": 0, "mechanical": 0, "ebike": 0, "is_renting": "NON", "is_returning": "NON", "duedate": "2023-07-03T08:59:24+00:00", "coordonnees_geo": {"lon": 2.3455855841349, "lat": 48.89579697978}, "nom_arrondissement_communes": "Paris", "code_insee_commune": null}, {"stationcode": "19204", "name": "Rampal - Belleville", "is_installed": "NON", "capacity": 0, "numdocksavailable": 0, "numbikesavailable": 0, "mechanical": 0, "ebike": 0, "is_renting": "NON", "is_returning": "NON", "duedate": "2023-09-19T08:41:41+00:00", "coordonnees_geo": {"lon": 2.3798409114805, "lat": 48.873114661405}, "nom_arrondissement_communes": "Paris", "code_insee_commune": null}, {"stationcode": "31201", "name": "Suzanne Masson", "is_installed": "OUI", "capacity": 37, "numdocksavailable": 27, "numbikesavailable": 7, "mechanical": 1, "ebike": 6, "is_renting": "OUI", "is_returning": "OUI", "duedate": "2024-06-14T12:44:49+00:00", "coordonnees_geo": {"lon": 2.3847292397611, "lat": 48.923306888013}, "nom_arrondissement_communes": "La Courneuve", "code_insee_commune": null}, {"stationcode": "15013", "name": "Volontaires - Lecourbe", "is_installed": "OUI", "capacity": 31, "numdocksavailable": 19, "numbikesavailable": 10, "mechanical": 6, "ebike": 4, "is_renting": "OUI", "is_returning": "OUI", "duedate": "2024-06-14T12:49:52+00:00", "coordonnees_geo": {"lon": 2.3065522313118, "lat": 48.84351378799}, "nom_arrondissement_communes": "Paris", "code_insee_commune": null}, {"stationcode": "15062", "name": "Convention - Lourmel", "is_installed": "OUI", "capacity": 36, "numdocksavailable": 32, "numbikesavailable": 3, "mechanical": 3, "ebike": 0, "is_renting": "OUI", "is_returning": "OUI", "duedate": "2024-06-14T12:48:52+00:00", "coordonnees_geo": {"lon": 2.2859910875559, "lat": 48.842055041656}, "nom_arrondissement_communes": "Paris", "code_insee_commune": null}, {"stationcode": "18134", "name": "Ney - Porte de Clignancourt", "is_installed": "OUI", "capacity": 25, "numdocksavailable": 24, "numbikesavailable": 1, "mechanical": 1, "ebike": 0, "is_renting": "OUI", "is_returning": "OUI", "duedate": "2024-06-14T12:40:15+00:00", "coordonnees_geo": {"lon": 2.3458001, "lat": 48.8978867}, "nom_arrondissement_communes": "Paris", "code_insee_commune": null}, {"stationcode": "12010", "name": "Daumesnil - Picpus", "is_installed": "OUI", "capacity": 21, "numdocksavailable": 14, "numbikesavailable": 10, "mechanical": 7, "ebike": 3, "is_renting": "OUI", "is_returning": "OUI", "duedate": "2024-06-14T12:49:03+00:00", "coordonnees_geo": {"lon": 2.401765, "lat": 48.8374688}, "nom_arrondissement_communes": "Paris", "code_insee_commune": null}, {"stationcode": "15058", "name": "Place du Moulin de Javel", "is_installed": "OUI", "capacity": 45, "numdocksavailable": 8, "numbikesavailable": 36, "mechanical": 26, "ebike": 10, "is_renting": "OUI", "is_returning": "OUI", "duedate": "2024-06-14T12:46:41+00:00", "coordonnees_geo": {"lon": 2.2716060653329, "lat": 48.84021670922}, "nom_arrondissement_communes": "Paris", "code_insee_commune": null}, {"stationcode": "35001", "name": "Jean Jaur\u00e8s - Ouvri\u00e8res Piv\u00e9reuses", "is_installed": "OUI", "capacity": 1, "numdocksavailable": 1, "numbikesavailable": 0, "mechanical": 0, "ebike": 0, "is_renting": "NON", "is_returning": "NON", "duedate": "2024-05-27T07:19:22+00:00", "coordonnees_geo": {"lon": 2.3995766043663, "lat": 48.910423437526}, "nom_arrondissement_communes": "Pantin", "code_insee_commune": null}, {"stationcode": "11020", "name": "Belfort - Voltaire", "is_installed": "OUI", "capacity": 39, "numdocksavailable": 31, "numbikesavailable": 6, "mechanical": 3, "ebike": 3, "is_renting": "OUI", "is_returning": "OUI", "duedate": "2024-06-14T12:47:59+00:00", "coordonnees_geo": {"lon": 2.3829901, "lat": 48.8563358}, "nom_arrondissement_communes": "Paris", "code_insee_commune": null}, {"stationcode": "21213", "name": "Vanne - G\u00e9n\u00e9ral de Gaulle", "is_installed": "OUI", "capacity": 25, "numdocksavailable": 22, "numbikesavailable": 1, "mechanical": 0, "ebike": 1, "is_renting": "OUI", "is_returning": "OUI", "duedate": "2024-06-14T12:47:25+00:00", "coordonnees_geo": {"lon": 2.328318, "lat": 48.815007}, "nom_arrondissement_communes": "Montrouge", "code_insee_commune": null}, {"stationcode": "8039", "name": "Colis\u00e9e - Champs-Elys\u00e9es", "is_installed": "OUI", "capacity": 24, "numdocksavailable": 1, "numbikesavailable": 16, "mechanical": 9, "ebike": 7, "is_renting": "OUI", "is_returning": "OUI", "duedate": "2024-06-14T12:46:29+00:00", "coordonnees_geo": {"lon": 2.3076190799475, "lat": 48.870475399387}, "nom_arrondissement_communes": "Paris", "code_insee_commune": null}, {"stationcode": "11009", "name": "Boulets - Voltaire", "is_installed": "OUI", "capacity": 24, "numdocksavailable": 15, "numbikesavailable": 8, "mechanical": 6, "ebike": 2, "is_renting": "OUI", "is_returning": "OUI", "duedate": "2024-06-14T12:49:31+00:00", "coordonnees_geo": {"lon": 2.3890301585197, "lat": 48.85218705621}, "nom_arrondissement_communes": "Paris", "code_insee_commune": null}, {"stationcode": "15060", "name": "Place de la Montagne du Goulet", "is_installed": "OUI", "capacity": 21, "numdocksavailable": 13, "numbikesavailable": 8, "mechanical": 6, "ebike": 2, "is_renting": "OUI", "is_returning": "OUI", "duedate": "2024-06-14T12:41:07+00:00", "coordonnees_geo": {"lon": 2.2773844, "lat": 48.8443415}, "nom_arrondissement_communes": "Paris", "code_insee_commune": null}, {"stationcode": "8057", "name": "Hoche - Tilsitt", "is_installed": "OUI", "capacity": 33, "numdocksavailable": 21, "numbikesavailable": 12, "mechanical": 4, "ebike": 8, "is_renting": "OUI", "is_returning": "OUI", "duedate": "2024-06-14T12:46:29+00:00", "coordonnees_geo": {"lon": 2.2971323132515, "lat": 48.874836457837}, "nom_arrondissement_communes": "Paris", "code_insee_commune": null}, {"stationcode": "7025", "name": "Octave Gr\u00e9ard - Tour Eiffel", "is_installed": "OUI", "capacity": 33, "numdocksavailable": 11, "numbikesavailable": 20, "mechanical": 17, "ebike": 3, "is_renting": "OUI", "is_returning": "OUI", "duedate": "2024-06-14T12:48:35+00:00", "coordonnees_geo": {"lon": 2.2931787543289, "lat": 48.856502977696}, "nom_arrondissement_communes": "Paris", "code_insee_commune": null}, {"stationcode": "16103", "name": "Traktir - Foch", "is_installed": "OUI", "capacity": 22, "numdocksavailable": 16, "numbikesavailable": 6, "mechanical": 1, "ebike": 5, "is_renting": "OUI", "is_returning": "OUI", "duedate": "2024-06-14T12:46:46+00:00", "coordonnees_geo": {"lon": 2.2915497802487, "lat": 48.872755334614}, "nom_arrondissement_communes": "Paris", "code_insee_commune": null}, {"stationcode": "32012", "name": "Carrefour Pleyel", "is_installed": "OUI", "capacity": 68, "numdocksavailable": 29, "numbikesavailable": 42, "mechanical": 26, "ebike": 16, "is_renting": "OUI", "is_returning": "OUI", "duedate": "2024-06-14T12:49:08+00:00", "coordonnees_geo": {"lon": 2.3438543826341625, "lat": 48.92034156960326}, "nom_arrondissement_communes": "Saint-Denis", "code_insee_commune": null}, {"stationcode": "18043", "name": "Clichy - Place Blanche", "is_installed": "OUI", "capacity": 20, "numdocksavailable": 14, "numbikesavailable": 3, "mechanical": 0, "ebike": 3, "is_renting": "OUI", "is_returning": "OUI", "duedate": "2024-06-14T12:48:55+00:00", "coordonnees_geo": {"lon": 2.3332237824798, "lat": 48.883601088297}, "nom_arrondissement_communes": "Paris", "code_insee_commune": null}, {"stationcode": "21302", "name": "Aristide Briand - Place de la R\u00e9sistance", "is_installed": "OUI", "capacity": 25, "numdocksavailable": 8, "numbikesavailable": 23, "mechanical": 19, "ebike": 4, "is_renting": "OUI", "is_returning": "OUI", "duedate": "2024-06-14T12:49:08+00:00", "coordonnees_geo": {"lon": 2.2511002421379094, "lat": 48.82124248401006}, "nom_arrondissement_communes": "Issy-les-Moulineaux", "code_insee_commune": null}, {"stationcode": "1003", "name": "Saint-Denis - Rivoli", "is_installed": "OUI", "capacity": 43, "numdocksavailable": 24, "numbikesavailable": 22, "mechanical": 12, "ebike": 10, "is_renting": "OUI", "is_returning": "OUI", "duedate": "2024-06-14T12:44:25+00:00", "coordonnees_geo": {"lon": 2.3476943001151, "lat": 48.859059340842}, "nom_arrondissement_communes": "Paris", "code_insee_commune": null}, {"stationcode": "4104", "name": "Sebastopol - Rambuteau", "is_installed": "OUI", "capacity": 16, "numdocksavailable": 0, "numbikesavailable": 17, "mechanical": 10, "ebike": 7, "is_renting": "OUI", "is_returning": "OUI", "duedate": "2024-06-14T12:49:57+00:00", "coordonnees_geo": {"lon": 2.3501381278038, "lat": 48.86181809267}, "nom_arrondissement_communes": "Paris", "code_insee_commune": null}, {"stationcode": "12127", "name": "Tremblay - Lac des Minimes", "is_installed": "OUI", "capacity": 48, "numdocksavailable": 21, "numbikesavailable": 28, "mechanical": 22, "ebike": 6, "is_renting": "OUI", "is_returning": "OUI", "duedate": "2024-06-14T12:49:59+00:00", "coordonnees_geo": {"lon": 2.4547516554594, "lat": 48.834131261494}, "nom_arrondissement_communes": "Paris", "code_insee_commune": null}, {"stationcode": "27004", "name": "Gare de la Garenne-Colombes", "is_installed": "OUI", "capacity": 0, "numdocksavailable": 0, "numbikesavailable": 0, "mechanical": 0, "ebike": 0, "is_renting": "NON", "is_returning": "NON", "duedate": "2018-12-21T14:48:55+00:00", "coordonnees_geo": {"lon": 2.239145, "lat": 48.909752}, "nom_arrondissement_communes": "Colombes", "code_insee_commune": null}, {"stationcode": "1022", "name": "Danielle Casanova - Place Vend\u00f4me", "is_installed": "OUI", "capacity": 37, "numdocksavailable": 0, "numbikesavailable": 35, "mechanical": 15, "ebike": 20, "is_renting": "OUI", "is_returning": "OUI", "duedate": "2024-06-14T12:48:50+00:00", "coordonnees_geo": {"lon": 2.3304839059711, "lat": 48.868266498223}, "nom_arrondissement_communes": "Paris", "code_insee_commune": null}, {"stationcode": "13123", "name": "BNF - Biblioth\u00e8que Nationale de France", "is_installed": "OUI", "capacity": 42, "numdocksavailable": 0, "numbikesavailable": 56, "mechanical": 41, "ebike": 15, "is_renting": "OUI", "is_returning": "OUI", "duedate": "2024-06-14T12:49:38+00:00", "coordonnees_geo": {"lon": 2.3760157451034, "lat": 48.8350268238}, "nom_arrondissement_communes": "Paris", "code_insee_commune": null}, {"stationcode": "8002", "name": "Gare Saint-Lazare - Cour du Havre", "is_installed": "OUI", "capacity": 45, "numdocksavailable": 3, "numbikesavailable": 40, "mechanical": 28, "ebike": 12, "is_renting": "OUI", "is_returning": "OUI", "duedate": "2024-06-14T12:49:59+00:00", "coordonnees_geo": {"lon": 2.3265598341823, "lat": 48.875674400851}, "nom_arrondissement_communes": "Paris", "code_insee_commune": null}, {"stationcode": "4005", "name": "Quai des C\u00e9lestins - Henri IV", "is_installed": "OUI", "capacity": 14, "numdocksavailable": 5, "numbikesavailable": 9, "mechanical": 6, "ebike": 3, "is_renting": "OUI", "is_returning": "OUI", "duedate": "2024-06-14T12:50:00+00:00", "coordonnees_geo": {"lon": 2.3624535, "lat": 48.8512971}, "nom_arrondissement_communes": "Paris", "code_insee_commune": null}, {"stationcode": "21404", "name": "Jean Jaur\u00e8s - Gare de Clamart", "is_installed": "OUI", "capacity": 20, "numdocksavailable": 16, "numbikesavailable": 4, "mechanical": 1, "ebike": 3, "is_renting": "OUI", "is_returning": "OUI", "duedate": "2024-06-14T12:48:39+00:00", "coordonnees_geo": {"lon": 2.2716768079163, "lat": 48.81321981219}, "nom_arrondissement_communes": "Clamart", "code_insee_commune": null}, {"stationcode": "32017", "name": "Basilique", "is_installed": "OUI", "capacity": 22, "numdocksavailable": 9, "numbikesavailable": 12, "mechanical": 6, "ebike": 6, "is_renting": "OUI", "is_returning": "OUI", "duedate": "2024-06-14T13:49:06+00:00", "coordonnees_geo": {"lon": 2.3588666820200914, "lat": 48.93626891059109}, "nom_arrondissement_communes": "Saint-Denis", "code_insee_commune": null}, {"stationcode": "13007", "name": "Le Brun - Gobelins", "is_installed": "OUI", "capacity": 48, "numdocksavailable": 33, "numbikesavailable": 13, "mechanical": 12, "ebike": 1, "is_renting": "OUI", "is_returning": "OUI", "duedate": "2024-06-14T13:49:14+00:00", "coordonnees_geo": {"lon": 2.3534681351338, "lat": 48.835092787824}, "nom_arrondissement_communes": "Paris", "code_insee_commune": null}, {"stationcode": "33006", "name": "Andr\u00e9 Karman - R\u00e9publique", "is_installed": "OUI", "capacity": 31, "numdocksavailable": 19, "numbikesavailable": 10, "mechanical": 6, "ebike": 4, "is_renting": "OUI", "is_returning": "OUI", "duedate": "2024-06-14T13:40:12+00:00", "coordonnees_geo": {"lon": 2.3851355910301213, "lat": 48.91039875761846}, "nom_arrondissement_communes": "Aubervilliers", "code_insee_commune": null}, {"stationcode": "6021", "name": "Beaux-Arts - Bonaparte", "is_installed": "OUI", "capacity": 20, "numdocksavailable": 1, "numbikesavailable": 17, "mechanical": 9, "ebike": 8, "is_renting": "OUI", "is_returning": "OUI", "duedate": "2024-06-14T13:49:53+00:00", "coordonnees_geo": {"lon": 2.334851883351803, "lat": 48.856451985395786}, "nom_arrondissement_communes": "Paris", "code_insee_commune": null}, {"stationcode": "21010", "name": "Silly - Galli\u00e9ni", "is_installed": "OUI", "capacity": 25, "numdocksavailable": 12, "numbikesavailable": 13, "mechanical": 10, "ebike": 3, "is_renting": "OUI", "is_returning": "OUI", "duedate": "2024-06-14T13:48:15+00:00", "coordonnees_geo": {"lon": 2.2325500845909, "lat": 48.835583838706}, "nom_arrondissement_communes": "Boulogne-Billancourt", "code_insee_commune": null}, {"stationcode": "25006", "name": "Place Nelson Mandela", "is_installed": "OUI", "capacity": 22, "numdocksavailable": 18, "numbikesavailable": 4, "mechanical": 0, "ebike": 4, "is_renting": "OUI", "is_returning": "OUI", "duedate": "2024-06-14T13:47:48+00:00", "coordonnees_geo": {"lon": 2.1961666225454, "lat": 48.862453313908}, "nom_arrondissement_communes": "Rueil-Malmaison", "code_insee_commune": null}, {"stationcode": "30002", "name": "Jean Rostand - Paul Vaillant Couturier", "is_installed": "OUI", "capacity": 40, "numdocksavailable": 5, "numbikesavailable": 35, "mechanical": 4, "ebike": 31, "is_renting": "OUI", "is_returning": "OUI", "duedate": "2024-06-14T13:46:33+00:00", "coordonnees_geo": {"lon": 2.4530601033354, "lat": 48.908168131015}, "nom_arrondissement_communes": "Bobigny", "code_insee_commune": null}, {"stationcode": "5016", "name": "Thouin - Cardinal Lemoine", "is_installed": "OUI", "capacity": 17, "numdocksavailable": 7, "numbikesavailable": 10, "mechanical": 4, "ebike": 6, "is_renting": "OUI", "is_returning": "OUI", "duedate": "2024-06-14T13:49:54+00:00", "coordonnees_geo": {"lon": 2.3494647851273465, "lat": 48.84504716661511}, "nom_arrondissement_communes": "Paris", "code_insee_commune": null}]