[{"stationcode": "9012", "name": "Rougemont - Poissonni\u00e8re", "is_installed": "OUI", "capacity": 30, "numdocksavailable": 5, "numbikesavailable": 25, "mechanical": 17, "ebike": 8, "is_renting": "OUI", "is_returning": "OUI", "duedate": "2024-06-14T13:46:40+00:00", "coordonnees_geo": {"lon": 2.345873080193996, "lat": 48.871611569354755}, "nom_arrondissement_communes": "Paris", "code_insee_commune": null}, {"stationcode": "15020", "name": "Mairie du 15\u00e8me", "is_installed": "OUI", "capacity": 32, "numdocksavailable": 21, "numbikesavailable": 10, "mechanical": 9, "ebike": 1, "is_renting": "OUI", "is_returning": "OUI", "duedate": "2024-06-14T13:50:04+00:00", "coordonnees_geo": {"lon": 2.2986539, "lat": 48.8417762}, "nom_arrondissement_communes": "Paris", "code_insee_commune": null}, {"stationcode": "13113", "name": "Vistule - Choisy", "is_installed": "OUI", "capacity": 33, "numdocksavailable": 29, "numbikesavailable": 4, "mechanical": 0, "ebike": 4, "is_renting": "OUI", "is_returning": "OUI", "duedate": "2024-06-14T13:49:54+00:00", "coordonnees_geo": {"lon": 2.3615723848342896, "lat": 48.82365543660611}, "nom_arrondissement_communes": "Paris", "code_insee_commune": null}, {"stationcode": "19031", "name": "Manin - Crim\u00e9e", "is_installed": "OUI", "capacity": 23, "numdocksavailable": 18, "numbikesavailable": 4, "mechanical": 2, "ebike": 2, "is_renting": "OUI", "is_returning": "OUI", "duedate": "2024-06-14T13:47:27+00:00", "coordonnees_geo": {"lon": 2.3863670602440834, "lat": 48.8831217743719}, "nom_arrondissement_communes": "Paris", "code_insee_commune": null}, {"stationcode": "15061", "name": "Square Desnouettes", "is_installed": "OUI", "capacity": 22, "numdocksavailable": 14, "numbikesavailable": 8, "mechanical": 8, "ebike": 0, "is_renting": "OUI", "is_returning": "OUI", "duedate": "2024-06-14T13:47:40+00:00", "coordonnees_geo": {"lon": 2.284142297394666, "lat": 48.83476837934194}, "nom_arrondissement_communes": "Paris", "code_insee_commune": null}, {"stationcode": "20017", "name": "Saint-Blaise - Mouraud", "is_installed": "OUI", "capacity": 27, "numdocksavailable": 23, "numbikesavailable": 2, "mechanical": 0, "ebike": 2, "is_renting": "OUI", "is_returning": "OUI", "duedate": "2024-06-14T13:49:02+00:00", "coordonnees_geo": {"lon": 2.40869477391243, "lat": 48.85696177597818}, "nom_arrondissement_communes": "Paris", "code_insee_commune": null}, {"stationcode": "23008", "name": "H\u00f4tel de Ville de Levallois Perret", "is_installed": "OUI", "capacity": 26, "numdocksavailable": 13, "numbikesavailable": 11, "mechanical": 4, "ebike": 7, "is_renting": "OUI", "is_returning": "OUI", "duedate": "2024-06-14T13:47:51+00:00", "coordonnees_geo": {"lon": 2.2888818383216862, "lat": 48.89314451997415}, "nom_arrondissement_communes": "Levallois-Perret", "code_insee_commune": null}, {"stationcode": "15063", "name": "Convention - Saint-Charles", "is_installed": "OUI", "capacity": 23, "numdocksavailable": 22, "numbikesavailable": 1, "mechanical": 0, "ebike": 1, "is_renting": "NON", "is_returning": "NON", "duedate": "2023-12-14T02:53:24+00:00", "coordonnees_geo": {"lon": 2.2831090539694, "lat": 48.843156111116}, "nom_arrondissement_communes": "Paris", "code_insee_commune": null}, {"stationcode": "7026", "name": "Place de Finlande", "is_installed": "OUI", "capacity": 25, "numdocksavailable": 5, "numbikesavailable": 19, "mechanical": 16, "ebike": 3, "is_renting": "OUI", "is_returning": "OUI", "duedate": "2024-06-14T13:50:03+00:00", "coordonnees_geo": {"lon": 2.3113624379039, "lat": 48.862408335967}, "nom_arrondissement_communes": "Paris", "code_insee_commune": null}, {"stationcode": "21108", "name": "Mairie de Clichy", "is_installed": "OUI", "capacity": 51, "numdocksavailable": 9, "numbikesavailable": 41, "mechanical": 36, "ebike": 5, "is_renting": "OUI", "is_returning": "OUI", "duedate": "2024-06-14T13:50:04+00:00", "coordonnees_geo": {"lon": 2.3059353232384, "lat": 48.903653634661}, "nom_arrondissement_communes": "Clichy", "code_insee_commune": null}, {"stationcode": "14116", "name": "Romain Rolland", "is_installed": "OUI", "capacity": 25, "numdocksavailable": 23, "numbikesavailable": 2, "mechanical": 1, "ebike": 1, "is_renting": "OUI", "is_returning": "OUI", "duedate": "2024-06-14T13:45:54+00:00", "coordonnees_geo": {"lon": 2.3234144234418346, "lat": 48.820215229662765}, "nom_arrondissement_communes": "Montrouge", "code_insee_commune": null}, {"stationcode": "47002", "name": "Les Juilliottes", "is_installed": "OUI", "capacity": 21, "numdocksavailable": 2, "numbikesavailable": 18, "mechanical": 15, "ebike": 3, "is_renting": "OUI", "is_returning": "OUI", "duedate": "2024-06-14T13:49:47+00:00", "coordonnees_geo": {"lon": 2.4437362, "lat": 48.8043072}, "nom_arrondissement_communes": "Maisons-Alfort", "code_insee_commune": null}, {"stationcode": "33005", "name": "R\u00e9publique - Henri Barbusse", "is_installed": "OUI", "capacity": 32, "numdocksavailable": 25, "numbikesavailable": 7, "mechanical": 5, "ebike": 2, "is_renting": "OUI", "is_returning": "OUI", "duedate": "2024-06-14T13:50:04+00:00", "coordonnees_geo": {"lon": 2.389432489871979, "lat": 48.90661553626751}, "nom_arrondissement_communes": "Aubervilliers", "code_insee_commune": null}, {"stationcode": "17033", "name": "Carnot - G\u00e9n\u00e9ral Lanrezac", "is_installed": "OUI", "capacity": 30, "numdocksavailable": 29, "numbikesavailable": 1, "mechanical": 0, "ebike": 1, "is_renting": "OUI", "is_returning": "OUI", "duedate": "2024-06-14T13:46:24+00:00", "coordonnees_geo": {"lon": 2.2938242935036, "lat": 48.875443870736}, "nom_arrondissement_communes": "Paris", "code_insee_commune": null}, {"stationcode": "14007", "name": "Ferrus - Saint-Jacques", "is_installed": "OUI", "capacity": 34, "numdocksavailable": 28, "numbikesavailable": 4, "mechanical": 1, "ebike": 3, "is_renting": "OUI", "is_returning": "OUI", "duedate": "2024-06-14T13:47:49+00:00", "coordonnees_geo": {"lon": 2.3408563, "lat": 48.8313878}, "nom_arrondissement_communes": "Paris", "code_insee_commune": null}, {"stationcode": "10164", "name": "Claude Vellefaux - Sambre et Meuse", "is_installed": "OUI", "capacity": 34, "numdocksavailable": 31, "numbikesavailable": 3, "mechanical": 1, "ebike": 2, "is_renting": "OUI", "is_returning": "OUI", "duedate": "2024-06-14T13:40:03+00:00", "coordonnees_geo": {"lon": 2.370478, "lat": 48.875022}, "nom_arrondissement_communes": "Paris", "code_insee_commune": null}, {"stationcode": "11107", "name": "Faidherbe - Dahomey", "is_installed": "OUI", "capacity": 44, "numdocksavailable": 8, "numbikesavailable": 36, "mechanical": 28, "ebike": 8, "is_renting": "OUI", "is_returning": "OUI", "duedate": "2024-06-14T13:49:39+00:00", "coordonnees_geo": {"lon": 2.383823134795429, "lat": 48.851358329771806}, "nom_arrondissement_communes": "Paris", "code_insee_commune": null}, {"stationcode": "2014", "name": "Daunou - Louis le Grand", "is_installed": "OUI", "capacity": 17, "numdocksavailable": 3, "numbikesavailable": 14, "mechanical": 10, "ebike": 4, "is_renting": "OUI", "is_returning": "OUI", "duedate": "2024-06-14T13:41:38+00:00", "coordonnees_geo": {"lon": 2.332515, "lat": 48.869113}, "nom_arrondissement_communes": "Paris", "code_insee_commune": null}, {"stationcode": "16041", "name": "Versailles - Claude Terrasse", "is_installed": "OUI", "capacity": 46, "numdocksavailable": 33, "numbikesavailable": 11, "mechanical": 9, "ebike": 2, "is_renting": "OUI", "is_returning": "OUI", "duedate": "2024-06-14T13:49:22+00:00", "coordonnees_geo": {"lon": 2.263834191152959, "lat": 48.84021933807409}, "nom_arrondissement_communes": "Paris", "code_insee_commune": null}, {"stationcode": "4109", "name": "Mornay - Sully", "is_installed": "OUI", "capacity": 15, "numdocksavailable": 4, "numbikesavailable": 11, "mechanical": 7, "ebike": 4, "is_renting": "OUI", "is_returning": "OUI", "duedate": "2024-06-14T13:49:54+00:00", "coordonnees_geo": {"lon": 2.364460788667202, "lat": 48.84970399548416}, "nom_arrondissement_communes": "Paris", "code_insee_commune": null}, {"stationcode": "3101", "name": "Porte Saint-Martin", "is_installed": "OUI", "capacity": 34, "numdocksavailable": 15, "numbikesavailable": 19, "mechanical": 13, "ebike": 6, "is_renting": "OUI", "is_returning": "OUI", "duedate": "2024-06-14T13:50:04+00:00", "coordonnees_geo": {"lon": 2.35570102930069, "lat": 48.86860172112996}, "nom_arrondissement_communes": "Paris", "code_insee_commune": null}, {"stationcode": "6031", "name": "Pierre Sarrazin - Saint-Michel", "is_installed": "OUI", "capacity": 33, "numdocksavailable": 0, "numbikesavailable": 32, "mechanical": 28, "ebike": 4, "is_renting": "OUI", "is_returning": "OUI", "duedate": "2024-06-14T13:49:28+00:00", "coordonnees_geo": {"lon": 2.342130728066, "lat": 48.850908146398}, "nom_arrondissement_communes": "Paris", "code_insee_commune": null}, {"stationcode": "11048", "name": "Place Mireille Havet", "is_installed": "OUI", "capacity": 43, "numdocksavailable": 2, "numbikesavailable": 41, "mechanical": 39, "ebike": 2, "is_renting": "OUI", "is_returning": "OUI", "duedate": "2024-06-14T13:49:42+00:00", "coordonnees_geo": {"lon": 2.383756, "lat": 48.850533}, "nom_arrondissement_communes": "Paris", "code_insee_commune": null}, {"stationcode": "2101", "name": "Bachaumont - Montmartre", "is_installed": "OUI", "capacity": 33, "numdocksavailable": 23, "numbikesavailable": 10, "mechanical": 5, "ebike": 5, "is_renting": "OUI", "is_returning": "OUI", "duedate": "2024-06-14T13:49:35+00:00", "coordonnees_geo": {"lon": 2.3449775576591496, "lat": 48.86617395079137}, "nom_arrondissement_communes": "Paris", "code_insee_commune": null}, {"stationcode": "21952", "name": "Place Tony de Graaff", "is_installed": "OUI", "capacity": 42, "numdocksavailable": 22, "numbikesavailable": 19, "mechanical": 17, "ebike": 2, "is_renting": "OUI", "is_returning": "OUI", "duedate": "2024-06-14T13:49:33+00:00", "coordonnees_geo": {"lon": 2.2458109, "lat": 48.8181645}, "nom_arrondissement_communes": "Meudon", "code_insee_commune": null}, {"stationcode": "8049", "name": "Georges V - Fran\u00e7ois 1er", "is_installed": "OUI", "capacity": 22, "numdocksavailable": 8, "numbikesavailable": 13, "mechanical": 8, "ebike": 5, "is_renting": "OUI", "is_returning": "OUI", "duedate": "2024-06-14T13:50:05+00:00", "coordonnees_geo": {"lon": 2.30082, "lat": 48.87034}, "nom_arrondissement_communes": "Paris", "code_insee_commune": null}, {"stationcode": "9015", "name": "Lamartine - Faubourg Montmartre", "is_installed": "OUI", "capacity": 32, "numdocksavailable": 25, "numbikesavailable": 5, "mechanical": 1, "ebike": 4, "is_renting": "OUI", "is_returning": "OUI", "duedate": "2024-06-14T13:49:59+00:00", "coordonnees_geo": {"lon": 2.339765690267086, "lat": 48.87661398289084}, "nom_arrondissement_communes": "Paris", "code_insee_commune": null}, {"stationcode": "19030", "name": "Melun - Jean Jaur\u00e8s", "is_installed": "OUI", "capacity": 28, "numdocksavailable": 23, "numbikesavailable": 4, "mechanical": 0, "ebike": 4, "is_renting": "OUI", "is_returning": "OUI", "duedate": "2024-06-14T13:45:50+00:00", "coordonnees_geo": {"lon": 2.376477420330048, "lat": 48.8837796723475}, "nom_arrondissement_communes": "Paris", "code_insee_commune": null}, {"stationcode": "21004", "name": "Jean Jaur\u00e8s - Reine", "is_installed": "OUI", "capacity": 31, "numdocksavailable": 6, "numbikesavailable": 25, "mechanical": 21, "ebike": 4, "is_renting": "OUI", "is_returning": "OUI", "duedate": "2024-06-14T13:44:44+00:00", "coordonnees_geo": {"lon": 2.239872515201569, "lat": 48.84009622558849}, "nom_arrondissement_communes": "Boulogne-Billancourt", "code_insee_commune": null}, {"stationcode": "22002", "name": "Argenson - Ch\u00e2teau", "is_installed": "OUI", "capacity": 25, "numdocksavailable": 13, "numbikesavailable": 12, "mechanical": 6, "ebike": 6, "is_renting": "OUI", "is_returning": "OUI", "duedate": "2024-06-14T13:47:08+00:00", "coordonnees_geo": {"lon": 2.2642001509666447, "lat": 48.888559314669514}, "nom_arrondissement_communes": "Neuilly-sur-Seine", "code_insee_commune": null}, {"stationcode": "14127", "name": "Odessa - D\u00e9part", "is_installed": "OUI", "capacity": 39, "numdocksavailable": 27, "numbikesavailable": 12, "mechanical": 7, "ebike": 5, "is_renting": "OUI", "is_returning": "OUI", "duedate": "2024-06-14T13:49:36+00:00", "coordonnees_geo": {"lon": 2.3244281485677, "lat": 48.842885590081}, "nom_arrondissement_communes": "Paris", "code_insee_commune": null}, {"stationcode": "22012", "name": "Madeleine Michelis - Roule", "is_installed": "OUI", "capacity": 25, "numdocksavailable": 13, "numbikesavailable": 12, "mechanical": 7, "ebike": 5, "is_renting": "OUI", "is_returning": "OUI", "duedate": "2024-06-14T13:47:13+00:00", "coordonnees_geo": {"lon": 2.2773634269833565, "lat": 48.88260431301364}, "nom_arrondissement_communes": "Neuilly-sur-Seine", "code_insee_commune": null}, {"stationcode": "18142", "name": "Jessaint - Marx Dormoy", "is_installed": "OUI", "capacity": 30, "numdocksavailable": 25, "numbikesavailable": 3, "mechanical": 2, "ebike": 1, "is_renting": "OUI", "is_returning": "OUI", "duedate": "2024-06-14T13:48:37+00:00", "coordonnees_geo": {"lon": 2.358930408954621, "lat": 48.88484543106364}, "nom_arrondissement_communes": "Paris", "code_insee_commune": null}, {"stationcode": "18014", "name": "L\u00e9on - Doudeauville", "is_installed": "OUI", "capacity": 13, "numdocksavailable": 9, "numbikesavailable": 3, "mechanical": 0, "ebike": 3, "is_renting": "OUI", "is_returning": "OUI", "duedate": "2024-06-14T13:49:14+00:00", "coordonnees_geo": {"lon": 2.353573372638597, "lat": 48.88832421845225}, "nom_arrondissement_communes": "Paris", "code_insee_commune": null}, {"stationcode": "18035", "name": "Ren\u00e9 Binet - Porte de Montmartre", "is_installed": "OUI", "capacity": 37, "numdocksavailable": 26, "numbikesavailable": 10, "mechanical": 9, "ebike": 1, "is_renting": "OUI", "is_returning": "OUI", "duedate": "2024-06-14T13:49:58+00:00", "coordonnees_geo": {"lon": 2.3365534096956253, "lat": 48.89905109950848}, "nom_arrondissement_communes": "Paris", "code_insee_commune": null}, {"stationcode": "13110", "name": "Moulin de la Pointe", "is_installed": "OUI", "capacity": 22, "numdocksavailable": 17, "numbikesavailable": 5, "mechanical": 2, "ebike": 3, "is_renting": "OUI", "is_returning": "OUI", "duedate": "2024-06-14T13:46:36+00:00", "coordonnees_geo": {"lon": 2.3563179373741145, "lat": 48.82092946051445}, "nom_arrondissement_communes": "Paris", "code_insee_commune": null}, {"stationcode": "23105", "name": "S\u00e8vres Rive Gauche", "is_installed": "OUI", "capacity": 33, "numdocksavailable": 33, "numbikesavailable": 0, "mechanical": 0, "ebike": 0, "is_renting": "OUI", "is_returning": "OUI", "duedate": "2024-06-14T13:45:43+00:00", "coordonnees_geo": {"lon": 2.2150785306885, "lat": 48.821443218278}, "nom_arrondissement_communes": "S\u00e8vres", "code_insee_commune": null}, {"stationcode": "42011", "name": "Quai Marcel Boyer - Victor Hugo", "is_installed": "OUI", "capacity": 29, "numdocksavailable": 8, "numbikesavailable": 19, "mechanical": 17, "ebike": 2, "is_renting": "OUI", "is_returning": "OUI", "duedate": "2024-06-14T13:49:40+00:00", "coordonnees_geo": {"lon": 2.392039597034455, "lat": 48.82255636666729}, "nom_arrondissement_communes": "Ivry-sur-Seine", "code_insee_commune": null}, {"stationcode": "23005", "name": "Gare de Clichy-Levallois", "is_installed": "OUI", "capacity": 26, "numdocksavailable": 17, "numbikesavailable": 6, "mechanical": 4, "ebike": 2, "is_renting": "OUI", "is_returning": "OUI", "duedate": "2024-06-14T13:46:48+00:00", "coordonnees_geo": {"lon": 2.2984680533409123, "lat": 48.89679827481989}, "nom_arrondissement_communes": "Levallois-Perret", "code_insee_commune": null}, {"stationcode": "21120", "name": "Docteur Calmette - Martre", "is_installed": "OUI", "capacity": 30, "numdocksavailable": 13, "numbikesavailable": 16, "mechanical": 12, "ebike": 4, "is_renting": "OUI", "is_returning": "OUI", "duedate": "2024-06-14T13:49:59+00:00", "coordonnees_geo": {"lon": 2.3086513252383, "lat": 48.898969358483}, "nom_arrondissement_communes": "Clichy", "code_insee_commune": null}, {"stationcode": "20117", "name": "Saint-Fargeau - Mortier", "is_installed": "OUI", "capacity": 31, "numdocksavailable": 29, "numbikesavailable": 2, "mechanical": 0, "ebike": 2, "is_renting": "OUI", "is_returning": "OUI", "duedate": "2024-06-14T13:40:43+00:00", "coordonnees_geo": {"lon": 2.407912909984589, "lat": 48.87266656122256}, "nom_arrondissement_communes": "Paris", "code_insee_commune": null}, {"stationcode": "48009", "name": "R\u00e9publique - Auguste Perret", "is_installed": "OUI", "capacity": 30, "numdocksavailable": 28, "numbikesavailable": 1, "mechanical": 0, "ebike": 1, "is_renting": "OUI", "is_returning": "OUI", "duedate": "2024-06-14T13:40:33+00:00", "coordonnees_geo": {"lon": 2.3518594354391094, "lat": 48.78695280952244}, "nom_arrondissement_communes": "Villejuif", "code_insee_commune": null}, {"stationcode": "14125", "name": "Dareau - Broussais", "is_installed": "OUI", "capacity": 24, "numdocksavailable": 18, "numbikesavailable": 5, "mechanical": 1, "ebike": 4, "is_renting": "OUI", "is_returning": "OUI", "duedate": "2024-06-14T13:48:31+00:00", "coordonnees_geo": {"lon": 2.3361804, "lat": 48.8307758}, "nom_arrondissement_communes": "Paris", "code_insee_commune": null}, {"stationcode": "21009", "name": "Le Corbusier - Jean Jaur\u00e8s", "is_installed": "OUI", "capacity": 46, "numdocksavailable": 20, "numbikesavailable": 26, "mechanical": 12, "ebike": 14, "is_renting": "OUI", "is_returning": "OUI", "duedate": "2024-06-14T13:50:06+00:00", "coordonnees_geo": {"lon": 2.2408381104469304, "lat": 48.83780830557548}, "nom_arrondissement_communes": "Boulogne-Billancourt", "code_insee_commune": null}, {"stationcode": "9013", "name": "Mairie du 9\u00e8me", "is_installed": "OUI", "capacity": 24, "numdocksavailable": 17, "numbikesavailable": 7, "mechanical": 4, "ebike": 3, "is_renting": "OUI", "is_returning": "OUI", "duedate": "2024-06-14T13:49:48+00:00", "coordonnees_geo": {"lon": 2.340753448052758, "lat": 48.87326713758289}, "nom_arrondissement_communes": "Paris", "code_insee_commune": null}, {"stationcode": "31017", "name": "Jean Moulin - Paul Doumer", "is_installed": "OUI", "capacity": 20, "numdocksavailable": 11, "numbikesavailable": 8, "mechanical": 1, "ebike": 7, "is_renting": "OUI", "is_returning": "OUI", "duedate": "2024-06-14T13:40:40+00:00", "coordonnees_geo": {"lon": 2.45533436536789, "lat": 48.8622179854695}, "nom_arrondissement_communes": "Montreuil", "code_insee_commune": null}, {"stationcode": "44103", "name": "Pont De Charenton", "is_installed": "OUI", "capacity": 18, "numdocksavailable": 0, "numbikesavailable": 18, "mechanical": 12, "ebike": 6, "is_renting": "OUI", "is_returning": "OUI", "duedate": "2024-06-14T13:45:43+00:00", "coordonnees_geo": {"lon": 2.4199531, "lat": 48.8179685}, "nom_arrondissement_communes": "Saint-Maurice", "code_insee_commune": null}, {"stationcode": "22403", "name": "Pierre Brossolette - Adolphe Pinard", "is_installed": "OUI", "capacity": 24, "numdocksavailable": 21, "numbikesavailable": 3, "mechanical": 3, "ebike": 0, "is_renting": "OUI", "is_returning": "OUI", "duedate": "2024-06-14T13:49:19+00:00", "coordonnees_geo": {"lon": 2.313155829906464, "lat": 48.82177227954821}, "nom_arrondissement_communes": "Malakoff", "code_insee_commune": null}, {"stationcode": "21951", "name": "Place Centrale", "is_installed": "OUI", "capacity": 22, "numdocksavailable": 21, "numbikesavailable": 1, "mechanical": 1, "ebike": 0, "is_renting": "OUI", "is_returning": "OUI", "duedate": "2024-06-14T13:49:17+00:00", "coordonnees_geo": {"lon": 2.2278830409049992, "lat": 48.78740167690531}, "nom_arrondissement_communes": "Meudon", "code_insee_commune": null}, {"stationcode": "92005", "name": "Gare de Nanterre Ville", "is_installed": "OUI", "capacity": 43, "numdocksavailable": 16, "numbikesavailable": 27, "mechanical": 21, "ebike": 6, "is_renting": "OUI", "is_returning": "OUI", "duedate": "2024-06-14T13:46:51+00:00", "coordonnees_geo": {"lon": 2.1957932, "lat": 48.8950295}, "nom_arrondissement_communes": "Nanterre", "code_insee_commune": null}, {"stationcode": "12125", "name": "Pyramide - Parc Floral", "is_installed": "OUI", "capacity": 50, "numdocksavailable": 14, "numbikesavailable": 36, "mechanical": 32, "ebike": 4, "is_renting": "OUI", "is_returning": "OUI", "duedate": "2024-06-14T13:49:58+00:00", "coordonnees_geo": {"lon": 2.440452, "lat": 48.837442}, "nom_arrondissement_communes": "Paris", "code_insee_commune": null}, {"stationcode": "31101", "name": "Jules Guesde - Laennec", "is_installed": "OUI", "capacity": 19, "numdocksavailable": 5, "numbikesavailable": 14, "mechanical": 1, "ebike": 13, "is_renting": "OUI", "is_returning": "OUI", "duedate": "2024-06-14T13:48:48+00:00", "coordonnees_geo": {"lon": 2.5006942078471184, "lat": 48.87628983900398}, "nom_arrondissement_communes": "Rosny-sous-Bois", "code_insee_commune": null}, {"stationcode": "31026", "name": "Demi-Lune - Aristide Briand", "is_installed": "OUI", "capacity": 20, "numdocksavailable": 18, "numbikesavailable": 2, "mechanical": 0, "ebike": 2, "is_renting": "OUI", "is_returning": "OUI", "duedate": "2024-06-14T13:48:39+00:00", "coordonnees_geo": {"lon": 2.4562818557024, "lat": 48.87626381919953}, "nom_arrondissement_communes": "Montreuil", "code_insee_commune": null}, {"stationcode": "17001", "name": "Guy M\u00f4quet - Saint-Ouen", "is_installed": "OUI", "capacity": 53, "numdocksavailable": 50, "numbikesavailable": 0, "mechanical": 0, "ebike": 0, "is_renting": "OUI", "is_returning": "OUI", "duedate": "2024-06-14T13:46:27+00:00", "coordonnees_geo": {"lon": 2.3270335793495183, "lat": 48.892777719023975}, "nom_arrondissement_communes": "Paris", "code_insee_commune": null}, {"stationcode": "9016", "name": "Choron - Martyrs", "is_installed": "OUI", "capacity": 17, "numdocksavailable": 13, "numbikesavailable": 4, "mechanical": 1, "ebike": 3, "is_renting": "OUI", "is_returning": "OUI", "duedate": "2024-06-14T13:40:03+00:00", "coordonnees_geo": {"lon": 2.3396701365709305, "lat": 48.877851443502536}, "nom_arrondissement_communes": "Paris", "code_insee_commune": null}, {"stationcode": "35004", "name": "Place du Pr\u00e9sident Salvador Allende", "is_installed": "OUI", "capacity": 60, "numdocksavailable": 30, "numbikesavailable": 28, "mechanical": 23, "ebike": 5, "is_renting": "OUI", "is_returning": "OUI", "duedate": "2024-06-14T13:50:04+00:00", "coordonnees_geo": {"lon": 2.40079153681279, "lat": 48.897307310356055}, "nom_arrondissement_communes": "Pantin", "code_insee_commune": null}, {"stationcode": "12150", "name": "Bastille - Quai de la Rap\u00e9e", "is_installed": "OUI", "capacity": 27, "numdocksavailable": 1, "numbikesavailable": 24, "mechanical": 21, "ebike": 3, "is_renting": "OUI", "is_returning": "OUI", "duedate": "2024-06-14T13:47:01+00:00", "coordonnees_geo": {"lon": 2.3669364675879, "lat": 48.84682410855}, "nom_arrondissement_communes": "Paris", "code_insee_commune": null}, {"stationcode": "35011", "name": "Honor\u00e9 d'Estienne d'Ovres - Grilles", "is_installed": "OUI", "capacity": 18, "numdocksavailable": 13, "numbikesavailable": 5, "mechanical": 1, "ebike": 4, "is_renting": "OUI", "is_returning": "OUI", "duedate": "2024-06-14T13:48:20+00:00", "coordonnees_geo": {"lon": 2.4064831843792427, "lat": 48.89056394743836}, "nom_arrondissement_communes": "Pantin", "code_insee_commune": null}, {"stationcode": "35015", "name": "Averro\u00e8s - Aim\u00e9 C\u00e9saire", "is_installed": "OUI", "capacity": 19, "numdocksavailable": 4, "numbikesavailable": 14, "mechanical": 10, "ebike": 4, "is_renting": "OUI", "is_returning": "OUI", "duedate": "2024-06-14T13:46:42+00:00", "coordonnees_geo": {"lon": 2.412636950612068, "lat": 48.91405323432864}, "nom_arrondissement_communes": "Pantin", "code_insee_commune": null}, {"stationcode": "20004", "name": "Commandant l'Herminier - Gallieni", "is_installed": "OUI", "capacity": 17, "numdocksavailable": 10, "numbikesavailable": 7, "mechanical": 3, "ebike": 4, "is_renting": "OUI", "is_returning": "OUI", "duedate": "2024-06-14T13:48:25+00:00", "coordonnees_geo": {"lon": 2.4160453677177, "lat": 48.847040552603}, "nom_arrondissement_communes": "Paris", "code_insee_commune": null}, {"stationcode": "15131", "name": "Charles Lecocq - Lecourbe", "is_installed": "OUI", "capacity": 30, "numdocksavailable": 20, "numbikesavailable": 10, "mechanical": 9, "ebike": 1, "is_renting": "OUI", "is_returning": "OUI", "duedate": "2024-06-14T13:49:30+00:00", "coordonnees_geo": {"lon": 2.294867, "lat": 48.84044}, "nom_arrondissement_communes": "Paris", "code_insee_commune": null}, {"stationcode": "20002", "name": "Square de la rue Pix\u00e9r\u00e9court", "is_installed": "OUI", "capacity": 15, "numdocksavailable": 13, "numbikesavailable": 2, "mechanical": 0, "ebike": 2, "is_renting": "OUI", "is_returning": "OUI", "duedate": "2024-06-14T13:46:16+00:00", "coordonnees_geo": {"lon": 2.3960278, "lat": 48.8736824}, "nom_arrondissement_communes": "Paris", "code_insee_commune": null}, {"stationcode": "13117", "name": "Stade Georges Carpentier", "is_installed": "OUI", "capacity": 40, "numdocksavailable": 30, "numbikesavailable": 10, "mechanical": 2, "ebike": 8, "is_renting": "OUI", "is_returning": "OUI", "duedate": "2024-06-14T13:50:00+00:00", "coordonnees_geo": {"lon": 2.3668321967125, "lat": 48.820482438381}, "nom_arrondissement_communes": "Paris", "code_insee_commune": null}, {"stationcode": "17029", "name": "Pierre Demours - Laugier", "is_installed": "OUI", "capacity": 37, "numdocksavailable": 32, "numbikesavailable": 5, "mechanical": 1, "ebike": 4, "is_renting": "OUI", "is_returning": "OUI", "duedate": "2024-06-14T13:46:44+00:00", "coordonnees_geo": {"lon": 2.294846, "lat": 48.8813072}, "nom_arrondissement_communes": "Paris", "code_insee_commune": null}, {"stationcode": "21118", "name": "Neuilly - Petit", "is_installed": "OUI", "capacity": 16, "numdocksavailable": 6, "numbikesavailable": 10, "mechanical": 8, "ebike": 2, "is_renting": "OUI", "is_returning": "OUI", "duedate": "2024-06-14T13:47:42+00:00", "coordonnees_geo": {"lon": 2.29627937078476, "lat": 48.898965361341254}, "nom_arrondissement_communes": "Clichy", "code_insee_commune": null}, {"stationcode": "11103", "name": "Pel\u00e9e - Alphonse Baudin", "is_installed": "OUI", "capacity": 38, "numdocksavailable": 14, "numbikesavailable": 24, "mechanical": 23, "ebike": 1, "is_renting": "OUI", "is_returning": "OUI", "duedate": "2024-06-14T13:49:25+00:00", "coordonnees_geo": {"lon": 2.3710541, "lat": 48.8600265}, "nom_arrondissement_communes": "Paris", "code_insee_commune": null}, {"stationcode": "21203", "name": "Place Jules Ferry", "is_installed": "OUI", "capacity": 28, "numdocksavailable": 25, "numbikesavailable": 2, "mechanical": 1, "ebike": 1, "is_renting": "OUI", "is_returning": "OUI", "duedate": "2024-06-14T13:47:20+00:00", "coordonnees_geo": {"lon": 2.325837314128876, "lat": 48.812107928414775}, "nom_arrondissement_communes": "Montrouge", "code_insee_commune": null}, {"stationcode": "5034", "name": "Censier - Santeuil", "is_installed": "OUI", "capacity": 69, "numdocksavailable": 20, "numbikesavailable": 49, "mechanical": 44, "ebike": 5, "is_renting": "OUI", "is_returning": "OUI", "duedate": "2024-06-14T13:46:06+00:00", "coordonnees_geo": {"lon": 2.3537524044513702, "lat": 48.840658921385234}, "nom_arrondissement_communes": "Paris", "code_insee_commune": null}, {"stationcode": "19025", "name": "Botzaris - Crim\u00e9e", "is_installed": "OUI", "capacity": 21, "numdocksavailable": 20, "numbikesavailable": 1, "mechanical": 0, "ebike": 1, "is_renting": "OUI", "is_returning": "OUI", "duedate": "2024-06-14T13:45:10+00:00", "coordonnees_geo": {"lon": 2.3887913337477067, "lat": 48.87959698690176}, "nom_arrondissement_communes": "Paris", "code_insee_commune": null}, {"stationcode": "16009", "name": "Saint-Didier - Raymond Poincar\u00e9", "is_installed": "OUI", "capacity": 17, "numdocksavailable": 15, "numbikesavailable": 2, "mechanical": 0, "ebike": 2, "is_renting": "OUI", "is_returning": "OUI", "duedate": "2024-06-14T13:43:25+00:00", "coordonnees_geo": {"lon": 2.285863497192411, "lat": 48.86642312020962}, "nom_arrondissement_communes": "Paris", "code_insee_commune": null}, {"stationcode": "10153", "name": "Gare du Nord - Denain", "is_installed": "OUI", "capacity": 20, "numdocksavailable": 16, "numbikesavailable": 3, "mechanical": 0, "ebike": 3, "is_renting": "OUI", "is_returning": "OUI", "duedate": "2024-06-14T13:42:38+00:00", "coordonnees_geo": {"lon": 2.3544725775719, "lat": 48.879595787608}, "nom_arrondissement_communes": "Paris", "code_insee_commune": null}, {"stationcode": "16014", "name": "Eylau - Trocad\u00e9ro", "is_installed": "OUI", "capacity": 24, "numdocksavailable": 22, "numbikesavailable": 2, "mechanical": 1, "ebike": 1, "is_renting": "OUI", "is_returning": "OUI", "duedate": "2024-06-14T13:44:45+00:00", "coordonnees_geo": {"lon": 2.2864209115505, "lat": 48.863354122371}, "nom_arrondissement_communes": "Paris", "code_insee_commune": null}, {"stationcode": "21316", "name": "Cimeti\u00e8re d'Issy-les-Moulineaux", "is_installed": "OUI", "capacity": 24, "numdocksavailable": 20, "numbikesavailable": 4, "mechanical": 0, "ebike": 4, "is_renting": "OUI", "is_returning": "OUI", "duedate": "2024-06-14T13:48:11+00:00", "coordonnees_geo": {"lon": 2.2609312087297, "lat": 48.817699773925}, "nom_arrondissement_communes": "Issy-les-Moulineaux", "code_insee_commune": null}, {"stationcode": "21708", "name": "Marcel Yol - Jullien", "is_installed": "OUI", "capacity": 30, "numdocksavailable": 25, "numbikesavailable": 3, "mechanical": 1, "ebike": 2, "is_renting": "OUI", "is_returning": "OUI", "duedate": "2024-06-14T13:46:38+00:00", "coordonnees_geo": {"lon": 2.287235018058929, "lat": 48.82537611802588}, "nom_arrondissement_communes": "Vanves", "code_insee_commune": null}, {"stationcode": "41210", "name": "H\u00f4tel de ville de Fontenay-sous-Bois", "is_installed": "OUI", "capacity": 20, "numdocksavailable": 19, "numbikesavailable": 1, "mechanical": 0, "ebike": 1, "is_renting": "OUI", "is_returning": "OUI", "duedate": "2024-06-14T13:41:07+00:00", "coordonnees_geo": {"lon": 2.4750164151191716, "lat": 48.84949749106274}, "nom_arrondissement_communes": "Fontenay-sous-Bois", "code_insee_commune": null}, {"stationcode": "16115", "name": "Raffet - Montmorency", "is_installed": "OUI", "capacity": 42, "numdocksavailable": 28, "numbikesavailable": 13, "mechanical": 1, "ebike": 12, "is_renting": "OUI", "is_returning": "OUI", "duedate": "2024-06-14T13:48:59+00:00", "coordonnees_geo": {"lon": 2.2629252456151954, "lat": 48.85258670812}, "nom_arrondissement_communes": "Paris", "code_insee_commune": null}, {"stationcode": "13039", "name": "Ivry - Simone Weil", "is_installed": "OUI", "capacity": 18, "numdocksavailable": 15, "numbikesavailable": 3, "mechanical": 0, "ebike": 3, "is_renting": "OUI", "is_returning": "OUI", "duedate": "2024-06-14T13:49:36+00:00", "coordonnees_geo": {"lon": 2.3659095168113713, "lat": 48.823283932030755}, "nom_arrondissement_communes": "Paris", "code_insee_commune": null}, {"stationcode": "21031", "name": "Cimeti\u00e8re de Boulogne-Billancourt", "is_installed": "OUI", "capacity": 40, "numdocksavailable": 20, "numbikesavailable": 20, "mechanical": 17, "ebike": 3, "is_renting": "OUI", "is_returning": "OUI", "duedate": "2024-06-14T13:48:24+00:00", "coordonnees_geo": {"lon": 2.252024, "lat": 48.830764}, "nom_arrondissement_communes": "Boulogne-Billancourt", "code_insee_commune": null}, {"stationcode": "21702", "name": "Gare SNCF Vanves-Malakoff", "is_installed": "OUI", "capacity": 51, "numdocksavailable": 48, "numbikesavailable": 3, "mechanical": 2, "ebike": 1, "is_renting": "OUI", "is_returning": "OUI", "duedate": "2024-06-14T13:47:20+00:00", "coordonnees_geo": {"lon": 2.292150005103606, "lat": 48.819002163836444}, "nom_arrondissement_communes": "Vanves", "code_insee_commune": null}, {"stationcode": "15043", "name": "Brancion - Lefebvre", "is_installed": "OUI", "capacity": 11, "numdocksavailable": 5, "numbikesavailable": 3, "mechanical": 0, "ebike": 3, "is_renting": "OUI", "is_returning": "OUI", "duedate": "2024-06-14T13:49:05+00:00", "coordonnees_geo": {"lon": 2.301431038163409, "lat": 48.82900222785569}, "nom_arrondissement_communes": "Paris", "code_insee_commune": null}, {"stationcode": "8001", "name": "Petit Palais", "is_installed": "OUI", "capacity": 46, "numdocksavailable": 25, "numbikesavailable": 21, "mechanical": 17, "ebike": 4, "is_renting": "OUI", "is_returning": "OUI", "duedate": "2024-06-14T13:44:15+00:00", "coordonnees_geo": {"lon": 2.3157655, "lat": 48.8667692}, "nom_arrondissement_communes": "Paris", "code_insee_commune": null}, {"stationcode": "11032", "name": "Jean-Pierre Timbaud - Vaucouleurs", "is_installed": "OUI", "capacity": 47, "numdocksavailable": 42, "numbikesavailable": 4, "mechanical": 1, "ebike": 3, "is_renting": "OUI", "is_returning": "OUI", "duedate": "2024-06-14T13:49:56+00:00", "coordonnees_geo": {"lon": 2.377885, "lat": 48.867937}, "nom_arrondissement_communes": "Paris", "code_insee_commune": null}, {"stationcode": "21028", "name": "Pierre Lefaucheux - Traversi\u00e8re", "is_installed": "OUI", "capacity": 35, "numdocksavailable": 5, "numbikesavailable": 29, "mechanical": 23, "ebike": 6, "is_renting": "OUI", "is_returning": "OUI", "duedate": "2024-06-14T13:47:43+00:00", "coordonnees_geo": {"lon": 2.2417913004755974, "lat": 48.82435208303827}, "nom_arrondissement_communes": "Boulogne-Billancourt", "code_insee_commune": null}, {"stationcode": "20007", "name": "Buzenval - Avron", "is_installed": "OUI", "capacity": 50, "numdocksavailable": 41, "numbikesavailable": 9, "mechanical": 2, "ebike": 7, "is_renting": "OUI", "is_returning": "OUI", "duedate": "2024-06-14T13:46:55+00:00", "coordonnees_geo": {"lon": 2.401513597307666, "lat": 48.851617204998654}, "nom_arrondissement_communes": "Paris", "code_insee_commune": null}, {"stationcode": "8013", "name": "Marignan - Champs-Elys\u00e9es", "is_installed": "OUI", "capacity": 35, "numdocksavailable": 10, "numbikesavailable": 23, "mechanical": 14, "ebike": 9, "is_renting": "OUI", "is_returning": "OUI", "duedate": "2024-06-14T13:49:46+00:00", "coordonnees_geo": {"lon": 2.3066138139003, "lat": 48.869495661232}, "nom_arrondissement_communes": "Paris", "code_insee_commune": null}, {"stationcode": "20108", "name": "Jardin de l'Hospice Debrousse", "is_installed": "OUI", "capacity": 23, "numdocksavailable": 21, "numbikesavailable": 2, "mechanical": 0, "ebike": 2, "is_renting": "OUI", "is_returning": "OUI", "duedate": "2024-06-14T13:44:06+00:00", "coordonnees_geo": {"lon": 2.40568600595, "lat": 48.861451061938}, "nom_arrondissement_communes": "Paris", "code_insee_commune": null}, {"stationcode": "13011", "name": "H\u00f4pital - Campo-Formio", "is_installed": "OUI", "capacity": 7, "numdocksavailable": 2, "numbikesavailable": 4, "mechanical": 0, "ebike": 4, "is_renting": "OUI", "is_returning": "OUI", "duedate": "2024-06-14T13:47:54+00:00", "coordonnees_geo": {"lon": 2.358218, "lat": 48.835405}, "nom_arrondissement_communes": "Paris", "code_insee_commune": null}, {"stationcode": "32001", "name": "Proudhon - Pr\u00e9sident Wilson", "is_installed": "OUI", "capacity": 30, "numdocksavailable": 20, "numbikesavailable": 9, "mechanical": 7, "ebike": 2, "is_renting": "OUI", "is_returning": "OUI", "duedate": "2024-06-14T13:48:24+00:00", "coordonnees_geo": {"lon": 2.3584905266762, "lat": 48.906442763495}, "nom_arrondissement_communes": "Saint-Denis", "code_insee_commune": null}, {"stationcode": "31025", "name": "Paul Signac - Aristide Briand", "is_installed": "OUI", "capacity": 35, "numdocksavailable": 30, "numbikesavailable": 4, "mechanical": 1, "ebike": 3, "is_renting": "OUI", "is_returning": "OUI", "duedate": "2024-06-14T13:45:04+00:00", "coordonnees_geo": {"lon": 2.4502260982990265, "lat": 48.86950262156371}, "nom_arrondissement_communes": "Montreuil", "code_insee_commune": null}, {"stationcode": "8549", "name": "George V - Christophe Colomb", "is_installed": "OUI", "capacity": 24, "numdocksavailable": 4, "numbikesavailable": 20, "mechanical": 6, "ebike": 14, "is_renting": "OUI", "is_returning": "OUI", "duedate": "2024-06-14T13:50:04+00:00", "coordonnees_geo": {"lon": 2.30104, "lat": 48.87046}, "nom_arrondissement_communes": "Paris", "code_insee_commune": null}, {"stationcode": "23902", "name": "Gallieni - Lyc\u00e9e Charles Petitet", "is_installed": "OUI", "capacity": 45, "numdocksavailable": 21, "numbikesavailable": 23, "mechanical": 18, "ebike": 5, "is_renting": "OUI", "is_returning": "OUI", "duedate": "2024-06-14T13:43:37+00:00", "coordonnees_geo": {"lon": 2.3308986340524, "lat": 48.927640283627}, "nom_arrondissement_communes": "Villeneuve-la-Garenne", "code_insee_commune": null}, {"stationcode": "18027", "name": "Damr\u00e9mont - Ordener", "is_installed": "OUI", "capacity": 30, "numdocksavailable": 25, "numbikesavailable": 1, "mechanical": 0, "ebike": 1, "is_renting": "OUI", "is_returning": "OUI", "duedate": "2024-06-14T13:47:55+00:00", "coordonnees_geo": {"lon": 2.336266523912805, "lat": 48.893400392981874}, "nom_arrondissement_communes": "Paris", "code_insee_commune": null}, {"stationcode": "13126", "name": "Place Nationale - Ch\u00e2teau-des-Rentiers", "is_installed": "OUI", "capacity": 18, "numdocksavailable": 15, "numbikesavailable": 2, "mechanical": 0, "ebike": 2, "is_renting": "OUI", "is_returning": "OUI", "duedate": "2024-06-14T13:48:53+00:00", "coordonnees_geo": {"lon": 2.365212, "lat": 48.829268}, "nom_arrondissement_communes": "Paris", "code_insee_commune": null}, {"stationcode": "4003", "name": "Quai aux Fleurs - Pont Saint-Louis", "is_installed": "OUI", "capacity": 21, "numdocksavailable": 11, "numbikesavailable": 10, "mechanical": 8, "ebike": 2, "is_renting": "OUI", "is_returning": "OUI", "duedate": "2024-06-14T13:50:00+00:00", "coordonnees_geo": {"lon": 2.352195717394352, "lat": 48.85291595620935}, "nom_arrondissement_communes": "Paris", "code_insee_commune": null}, {"stationcode": "14101", "name": "Gare Montparnasse - Edgar Quinet", "is_installed": "OUI", "capacity": 33, "numdocksavailable": 3, "numbikesavailable": 29, "mechanical": 9, "ebike": 20, "is_renting": "OUI", "is_returning": "OUI", "duedate": "2024-06-14T13:49:15+00:00", "coordonnees_geo": {"lon": 2.3233232282801, "lat": 48.841487851079}, "nom_arrondissement_communes": "Paris", "code_insee_commune": null}, {"stationcode": "8020", "name": "Batignolles - Beudant", "is_installed": "OUI", "capacity": 44, "numdocksavailable": 41, "numbikesavailable": 2, "mechanical": 0, "ebike": 2, "is_renting": "OUI", "is_returning": "OUI", "duedate": "2024-06-14T13:48:10+00:00", "coordonnees_geo": {"lon": 2.319852970540523, "lat": 48.88216401466375}, "nom_arrondissement_communes": "Paris", "code_insee_commune": null}, {"stationcode": "17015", "name": "Place de L\u00e9vis", "is_installed": "OUI", "capacity": 48, "numdocksavailable": 46, "numbikesavailable": 2, "mechanical": 0, "ebike": 2, "is_renting": "OUI", "is_returning": "OUI", "duedate": "2024-06-14T13:47:59+00:00", "coordonnees_geo": {"lon": 2.3131933808326726, "lat": 48.883546851533254}, "nom_arrondissement_communes": "Paris", "code_insee_commune": null}, {"stationcode": "15023", "name": "La Motte-Picquet - Grenelle", "is_installed": "OUI", "capacity": 34, "numdocksavailable": 16, "numbikesavailable": 18, "mechanical": 18, "ebike": 0, "is_renting": "OUI", "is_returning": "OUI", "duedate": "2024-06-14T13:47:51+00:00", "coordonnees_geo": {"lon": 2.299347817897797, "lat": 48.84858321339195}, "nom_arrondissement_communes": "Paris", "code_insee_commune": null}, {"stationcode": "22501", "name": "Th\u00e9\u00e2tre de La Garenne", "is_installed": "OUI", "capacity": 20, "numdocksavailable": 19, "numbikesavailable": 1, "mechanical": 0, "ebike": 1, "is_renting": "OUI", "is_returning": "OUI", "duedate": "2024-06-14T13:45:38+00:00", "coordonnees_geo": {"lon": 2.2345951981176, "lat": 48.905658361454}, "nom_arrondissement_communes": "La Garenne-Colombes", "code_insee_commune": null}, {"stationcode": "42003", "name": "Place de l'Insurrection d'Ao\u00fbt 1944", "is_installed": "OUI", "capacity": 30, "numdocksavailable": 12, "numbikesavailable": 18, "mechanical": 17, "ebike": 1, "is_renting": "OUI", "is_returning": "OUI", "duedate": "2024-06-14T13:49:02+00:00", "coordonnees_geo": {"lon": 2.398074567317963, "lat": 48.81477852751594}, "nom_arrondissement_communes": "Ivry-sur-Seine", "code_insee_commune": null}]