[{"stationcode": "8037", "name": "Monceau - Malesherbes", "is_installed": "OUI", "capacity": 38, "numdocksavailable": 29, "numbikesavailable": 8, "mechanical": 5, "ebike": 3, "is_renting": "OUI", "is_returning": "OUI", "duedate": "2024-06-15T01:46:08+00:00", "coordonnees_geo": {"lon": 2.3145456, "lat": 48.8795079}, "nom_arrondissement_communes": "Paris", "code_insee_commune": null}, {"stationcode": "11017", "name": "Charonne - Bureau", "is_installed": "OUI", "capacity": 47, "numdocksavailable": 19, "numbikesavailable": 27, "mechanical": 12, "ebike": 15, "is_renting": "OUI", "is_returning": "OUI", "duedate": "2024-06-15T01:51:14+00:00", "coordonnees_geo": {"lon": 2.396093, "lat": 48.854176}, "nom_arrondissement_communes": "Paris", "code_insee_commune": null}, {"stationcode": "1021", "name": "Halles - Bourdonnais", "is_installed": "OUI", "capacity": 20, "numdocksavailable": 17, "numbikesavailable": 3, "mechanical": 3, "ebike": 0, "is_renting": "OUI", "is_returning": "OUI", "duedate": "2024-06-15T01:50:23+00:00", "coordonnees_geo": {"lon": 2.3460162431002, "lat": 48.860448992575}, "nom_arrondissement_communes": "Paris", "code_insee_commune": null}, {"stationcode": "41205", "name": "Mar\u00e9chal Joffre - Verdun", "is_installed": "OUI", "capacity": 20, "numdocksavailable": 7, "numbikesavailable": 13, "mechanical": 1, "ebike": 12, "is_renting": "OUI", "is_returning": "OUI", "duedate": "2024-06-15T01:49:40+00:00", "coordonnees_geo": {"lon": 2.470307, "lat": 48.85385}, "nom_arrondissement_communes": "Fontenay-sous-Bois", "code_insee_commune": null}, {"stationcode": "22015", "name": "\u00cele de la Jatte", "is_installed": "OUI", "capacity": 23, "numdocksavailable": 15, "numbikesavailable": 5, "mechanical": 2, "ebike": 3, "is_renting": "OUI", "is_returning": "OUI", "duedate": "2024-06-15T01:43:14+00:00", "coordonnees_geo": {"lon": 2.2666339203715324, "lat": 48.894036161302104}, "nom_arrondissement_communes": "Neuilly-sur-Seine", "code_insee_commune": null}, {"stationcode": "17111", "name": "Lemercier - Cardinet", "is_installed": "OUI", "capacity": 24, "numdocksavailable": 18, "numbikesavailable": 5, "mechanical": 0, "ebike": 5, "is_renting": "OUI", "is_returning": "OUI", "duedate": "2024-06-15T01:49:22+00:00", "coordonnees_geo": {"lon": 2.317377626895905, "lat": 48.890097168851746}, "nom_arrondissement_communes": "Paris", "code_insee_commune": null}, {"stationcode": "44016", "name": "Balzac - Olympes de Gouges", "is_installed": "OUI", "capacity": 28, "numdocksavailable": 6, "numbikesavailable": 21, "mechanical": 8, "ebike": 13, "is_renting": "OUI", "is_returning": "OUI", "duedate": "2024-06-15T01:48:26+00:00", "coordonnees_geo": {"lon": 2.4006786569952965, "lat": 48.77850332486751}, "nom_arrondissement_communes": "Vitry-sur-Seine", "code_insee_commune": null}, {"stationcode": "32601", "name": "Porte des Lilas - Faidherbe", "is_installed": "OUI", "capacity": 39, "numdocksavailable": 25, "numbikesavailable": 14, "mechanical": 0, "ebike": 14, "is_renting": "OUI", "is_returning": "OUI", "duedate": "2024-06-15T01:48:28+00:00", "coordonnees_geo": {"lon": 2.4120327830314636, "lat": 48.87861855668978}, "nom_arrondissement_communes": "Les Lilas", "code_insee_commune": null}, {"stationcode": "17123", "name": "Mstislav Rostropovitch - Berthier", "is_installed": "OUI", "capacity": 18, "numdocksavailable": 9, "numbikesavailable": 9, "mechanical": 4, "ebike": 5, "is_renting": "OUI", "is_returning": "OUI", "duedate": "2024-06-15T01:50:07+00:00", "coordonnees_geo": {"lon": 2.309234105050564, "lat": 48.892120821173975}, "nom_arrondissement_communes": "Paris", "code_insee_commune": null}, {"stationcode": "15071", "name": "Suffren - Champ de Mars", "is_installed": "OUI", "capacity": 23, "numdocksavailable": 20, "numbikesavailable": 2, "mechanical": 1, "ebike": 1, "is_renting": "OUI", "is_returning": "OUI", "duedate": "2024-06-15T01:47:31+00:00", "coordonnees_geo": {"lon": 2.2952168, "lat": 48.8547194}, "nom_arrondissement_communes": "Paris", "code_insee_commune": null}, {"stationcode": "9024", "name": "Taitbout - La Fayette", "is_installed": "OUI", "capacity": 53, "numdocksavailable": 50, "numbikesavailable": 2, "mechanical": 1, "ebike": 1, "is_renting": "OUI", "is_returning": "OUI", "duedate": "2024-06-15T01:48:41+00:00", "coordonnees_geo": {"lon": 2.3352625966072, "lat": 48.8733298892}, "nom_arrondissement_communes": "Paris", "code_insee_commune": null}, {"stationcode": "8201", "name": "Ars\u00e8ne Houssaye - Friedland", "is_installed": "OUI", "capacity": 29, "numdocksavailable": 29, "numbikesavailable": 0, "mechanical": 0, "ebike": 0, "is_renting": "OUI", "is_returning": "OUI", "duedate": "2024-06-15T01:41:53+00:00", "coordonnees_geo": {"lon": 2.2994716674148, "lat": 48.874510616163}, "nom_arrondissement_communes": "Paris", "code_insee_commune": null}, {"stationcode": "21319", "name": "Esplanade du Foncet - Camille Desmoulins", "is_installed": "OUI", "capacity": 28, "numdocksavailable": 11, "numbikesavailable": 17, "mechanical": 15, "ebike": 2, "is_renting": "OUI", "is_returning": "OUI", "duedate": "2024-06-15T01:42:43+00:00", "coordonnees_geo": {"lon": 2.2606857866048813, "lat": 48.827090233494964}, "nom_arrondissement_communes": "Issy-les-Moulineaux", "code_insee_commune": null}, {"stationcode": "9102", "name": "Londres - Place d'Estienne d'Orves", "is_installed": "OUI", "capacity": 25, "numdocksavailable": 19, "numbikesavailable": 5, "mechanical": 4, "ebike": 1, "is_renting": "OUI", "is_returning": "OUI", "duedate": "2024-06-15T01:45:43+00:00", "coordonnees_geo": {"lon": 2.3305362090468407, "lat": 48.876693805756986}, "nom_arrondissement_communes": "Paris", "code_insee_commune": null}, {"stationcode": "9006", "name": "Dunkerque - Trudaine", "is_installed": "OUI", "capacity": 16, "numdocksavailable": 16, "numbikesavailable": 0, "mechanical": 0, "ebike": 0, "is_renting": "OUI", "is_returning": "OUI", "duedate": "2024-06-15T01:49:52+00:00", "coordonnees_geo": {"lon": 2.3463253676891327, "lat": 48.88215166773376}, "nom_arrondissement_communes": "Paris", "code_insee_commune": null}, {"stationcode": "8116", "name": "Champs-Elysees - Bassano", "is_installed": "OUI", "capacity": 25, "numdocksavailable": 25, "numbikesavailable": 0, "mechanical": 0, "ebike": 0, "is_renting": "NON", "is_returning": "NON", "duedate": "2021-02-21T19:09:18+00:00", "coordonnees_geo": {"lon": 2.300238981843, "lat": 48.871811807816}, "nom_arrondissement_communes": "Paris", "code_insee_commune": null}, {"stationcode": "18030", "name": "Joseph Dijon - Ornano", "is_installed": "OUI", "capacity": 37, "numdocksavailable": 17, "numbikesavailable": 18, "mechanical": 10, "ebike": 8, "is_renting": "OUI", "is_returning": "OUI", "duedate": "2024-06-15T01:51:00+00:00", "coordonnees_geo": {"lon": 2.3476678133010864, "lat": 48.89374453351521}, "nom_arrondissement_communes": "Paris", "code_insee_commune": null}, {"stationcode": "5024", "name": "Place Monge", "is_installed": "OUI", "capacity": 21, "numdocksavailable": 9, "numbikesavailable": 11, "mechanical": 10, "ebike": 1, "is_renting": "OUI", "is_returning": "OUI", "duedate": "2024-06-15T01:44:17+00:00", "coordonnees_geo": {"lon": 2.3524079471827, "lat": 48.842761803051}, "nom_arrondissement_communes": "Paris", "code_insee_commune": null}, {"stationcode": "21314", "name": "Chemin de Bretagne", "is_installed": "OUI", "capacity": 29, "numdocksavailable": 13, "numbikesavailable": 16, "mechanical": 13, "ebike": 3, "is_renting": "OUI", "is_returning": "OUI", "duedate": "2024-06-15T01:50:15+00:00", "coordonnees_geo": {"lon": 2.2588385956052, "lat": 48.824753068884}, "nom_arrondissement_communes": "Issy-les-Moulineaux", "code_insee_commune": null}, {"stationcode": "12038", "name": "Picpus - Louis Braille", "is_installed": "OUI", "capacity": 44, "numdocksavailable": 15, "numbikesavailable": 29, "mechanical": 13, "ebike": 16, "is_renting": "OUI", "is_returning": "OUI", "duedate": "2024-06-15T01:49:39+00:00", "coordonnees_geo": {"lon": 2.4005256685521, "lat": 48.839988788912}, "nom_arrondissement_communes": "Paris", "code_insee_commune": null}, {"stationcode": "12005", "name": "Crozatier - Faubourg Saint-Antoine", "is_installed": "OUI", "capacity": 42, "numdocksavailable": 6, "numbikesavailable": 36, "mechanical": 31, "ebike": 5, "is_renting": "OUI", "is_returning": "OUI", "duedate": "2024-06-15T01:51:10+00:00", "coordonnees_geo": {"lon": 2.378901366211, "lat": 48.850440013405}, "nom_arrondissement_communes": "Paris", "code_insee_commune": null}, {"stationcode": "9011", "name": "Geoffroy - Marie", "is_installed": "OUI", "capacity": 20, "numdocksavailable": 16, "numbikesavailable": 4, "mechanical": 3, "ebike": 1, "is_renting": "OUI", "is_returning": "OUI", "duedate": "2024-06-15T01:50:39+00:00", "coordonnees_geo": {"lon": 2.344513876337893, "lat": 48.873781940593325}, "nom_arrondissement_communes": "Paris", "code_insee_commune": null}, {"stationcode": "13025", "name": "Place de Rungis", "is_installed": "OUI", "capacity": 32, "numdocksavailable": 2, "numbikesavailable": 28, "mechanical": 16, "ebike": 12, "is_renting": "OUI", "is_returning": "OUI", "duedate": "2024-06-15T01:50:02+00:00", "coordonnees_geo": {"lon": 2.347382729482953, "lat": 48.82245594764965}, "nom_arrondissement_communes": "Paris", "code_insee_commune": null}, {"stationcode": "5115", "name": "Buffon - Jardin des Plantes", "is_installed": "OUI", "capacity": 30, "numdocksavailable": 0, "numbikesavailable": 29, "mechanical": 29, "ebike": 0, "is_renting": "OUI", "is_returning": "OUI", "duedate": "2024-06-15T01:49:55+00:00", "coordonnees_geo": {"lon": 2.3618587106466293, "lat": 48.842668466104875}, "nom_arrondissement_communes": "Paris", "code_insee_commune": null}, {"stationcode": "41211", "name": "Louis Xavier de Ricard - Ancienne Mairie", "is_installed": "OUI", "capacity": 34, "numdocksavailable": 23, "numbikesavailable": 11, "mechanical": 3, "ebike": 8, "is_renting": "OUI", "is_returning": "OUI", "duedate": "2024-06-15T01:51:12+00:00", "coordonnees_geo": {"lon": 2.472420372068882, "lat": 48.84629899065091}, "nom_arrondissement_communes": "Fontenay-sous-Bois", "code_insee_commune": null}, {"stationcode": "2108", "name": "Vivienne - Montmartre", "is_installed": "OUI", "capacity": 39, "numdocksavailable": 38, "numbikesavailable": 0, "mechanical": 0, "ebike": 0, "is_renting": "OUI", "is_returning": "OUI", "duedate": "2024-06-15T01:43:43+00:00", "coordonnees_geo": {"lon": 2.3414588347077, "lat": 48.871347597383}, "nom_arrondissement_communes": "Paris", "code_insee_commune": null}, {"stationcode": "15129", "name": "H\u00f4pital Necker", "is_installed": "OUI", "capacity": 40, "numdocksavailable": 28, "numbikesavailable": 10, "mechanical": 9, "ebike": 1, "is_renting": "OUI", "is_returning": "OUI", "duedate": "2024-06-15T01:49:39+00:00", "coordonnees_geo": {"lon": 2.313245013356209, "lat": 48.846043490118454}, "nom_arrondissement_communes": "Paris", "code_insee_commune": null}, {"stationcode": "51001", "name": "Gare d'Argenteuil", "is_installed": "OUI", "capacity": 40, "numdocksavailable": 27, "numbikesavailable": 12, "mechanical": 9, "ebike": 3, "is_renting": "OUI", "is_returning": "OUI", "duedate": "2024-06-15T01:46:21+00:00", "coordonnees_geo": {"lon": 2.256898172199726, "lat": 48.947022436806705}, "nom_arrondissement_communes": "Argenteuil", "code_insee_commune": null}, {"stationcode": "21315", "name": "Jules Guesdes - G\u00e9n\u00e9ral de Gaulle", "is_installed": "OUI", "capacity": 24, "numdocksavailable": 10, "numbikesavailable": 14, "mechanical": 3, "ebike": 11, "is_renting": "OUI", "is_returning": "OUI", "duedate": "2024-06-15T01:46:22+00:00", "coordonnees_geo": {"lon": 2.278934195637703, "lat": 48.81930581291959}, "nom_arrondissement_communes": "Issy-les-Moulineaux", "code_insee_commune": null}, {"stationcode": "13052", "name": "Leredde - Tolbiac", "is_installed": "OUI", "capacity": 44, "numdocksavailable": 2, "numbikesavailable": 42, "mechanical": 32, "ebike": 10, "is_renting": "OUI", "is_returning": "OUI", "duedate": "2024-06-15T01:50:39+00:00", "coordonnees_geo": {"lon": 2.3744382709265, "lat": 48.82887629664}, "nom_arrondissement_communes": "Paris", "code_insee_commune": null}, {"stationcode": "17024", "name": "Villiers - Batignolles", "is_installed": "OUI", "capacity": 23, "numdocksavailable": 16, "numbikesavailable": 6, "mechanical": 1, "ebike": 5, "is_renting": "OUI", "is_returning": "OUI", "duedate": "2024-06-15T01:47:37+00:00", "coordonnees_geo": {"lon": 2.31653843075037, "lat": 48.88125253846116}, "nom_arrondissement_communes": "Paris", "code_insee_commune": null}, {"stationcode": "15127", "name": "Place Charles Michels", "is_installed": "OUI", "capacity": 37, "numdocksavailable": 14, "numbikesavailable": 23, "mechanical": 20, "ebike": 3, "is_renting": "OUI", "is_returning": "OUI", "duedate": "2024-06-15T01:51:03+00:00", "coordonnees_geo": {"lon": 2.28502, "lat": 48.846401}, "nom_arrondissement_communes": "Paris", "code_insee_commune": null}, {"stationcode": "15036", "name": "Croix Nivert - Square Saint-Lambert", "is_installed": "OUI", "capacity": 47, "numdocksavailable": 1, "numbikesavailable": 46, "mechanical": 45, "ebike": 1, "is_renting": "OUI", "is_returning": "OUI", "duedate": "2024-06-15T01:51:10+00:00", "coordonnees_geo": {"lon": 2.295200452208519, "lat": 48.8430515215905}, "nom_arrondissement_communes": "Paris", "code_insee_commune": null}, {"stationcode": "33012", "name": "Landy - Heurtault", "is_installed": "OUI", "capacity": 30, "numdocksavailable": 13, "numbikesavailable": 16, "mechanical": 7, "ebike": 9, "is_renting": "OUI", "is_returning": "OUI", "duedate": "2024-06-15T01:51:13+00:00", "coordonnees_geo": {"lon": 2.375951372087002, "lat": 48.915096534520316}, "nom_arrondissement_communes": "Aubervilliers", "code_insee_commune": null}, {"stationcode": "10019", "name": "Paradis - Hauteville", "is_installed": "OUI", "capacity": 31, "numdocksavailable": 26, "numbikesavailable": 3, "mechanical": 2, "ebike": 1, "is_renting": "OUI", "is_returning": "OUI", "duedate": "2024-06-15T01:50:09+00:00", "coordonnees_geo": {"lon": 2.3522757401923404, "lat": 48.874999954666755}, "nom_arrondissement_communes": "Paris", "code_insee_commune": null}, {"stationcode": "41203", "name": "Stalingrad - Rigollots", "is_installed": "OUI", "capacity": 51, "numdocksavailable": 21, "numbikesavailable": 29, "mechanical": 10, "ebike": 19, "is_renting": "OUI", "is_returning": "OUI", "duedate": "2024-06-15T01:46:55+00:00", "coordonnees_geo": {"lon": 2.45557576417923, "lat": 48.84997403844251}, "nom_arrondissement_communes": "Fontenay-sous-Bois", "code_insee_commune": null}, {"stationcode": "10033", "name": "Gare du Nord - Saint-Vincent de Paul", "is_installed": "OUI", "capacity": 24, "numdocksavailable": 6, "numbikesavailable": 17, "mechanical": 15, "ebike": 2, "is_renting": "OUI", "is_returning": "OUI", "duedate": "2024-06-15T01:48:38+00:00", "coordonnees_geo": {"lon": 2.3524305148385, "lat": 48.880955741648}, "nom_arrondissement_communes": "Paris", "code_insee_commune": null}, {"stationcode": "10024", "name": "Buisson Saint-Louis - Saint-Maur", "is_installed": "OUI", "capacity": 19, "numdocksavailable": 10, "numbikesavailable": 9, "mechanical": 5, "ebike": 4, "is_renting": "OUI", "is_returning": "OUI", "duedate": "2024-06-15T01:50:07+00:00", "coordonnees_geo": {"lon": 2.372252832879, "lat": 48.871746849303}, "nom_arrondissement_communes": "Paris", "code_insee_commune": null}, {"stationcode": "18039", "name": "Jardins d'Eole", "is_installed": "OUI", "capacity": 20, "numdocksavailable": 9, "numbikesavailable": 11, "mechanical": 3, "ebike": 8, "is_renting": "OUI", "is_returning": "OUI", "duedate": "2024-06-15T01:50:57+00:00", "coordonnees_geo": {"lon": 2.3668488, "lat": 48.8869703}, "nom_arrondissement_communes": "Paris", "code_insee_commune": null}, {"stationcode": "16005", "name": "Raymond Poincar\u00e9 - Place Victor Hugo", "is_installed": "OUI", "capacity": 25, "numdocksavailable": 22, "numbikesavailable": 3, "mechanical": 0, "ebike": 3, "is_renting": "OUI", "is_returning": "OUI", "duedate": "2024-06-15T01:50:42+00:00", "coordonnees_geo": {"lon": 2.285074541420228, "lat": 48.870306124369975}, "nom_arrondissement_communes": "Paris", "code_insee_commune": null}, {"stationcode": "5007", "name": "Ecoles - Carmes", "is_installed": "OUI", "capacity": 36, "numdocksavailable": 33, "numbikesavailable": 2, "mechanical": 2, "ebike": 0, "is_renting": "OUI", "is_returning": "OUI", "duedate": "2024-06-15T01:46:06+00:00", "coordonnees_geo": {"lon": 2.3473486304283147, "lat": 48.848904447989405}, "nom_arrondissement_communes": "Paris", "code_insee_commune": null}, {"stationcode": "20022", "name": "Porte de Bagnolet", "is_installed": "OUI", "capacity": 33, "numdocksavailable": 23, "numbikesavailable": 10, "mechanical": 0, "ebike": 10, "is_renting": "OUI", "is_returning": "OUI", "duedate": "2024-06-15T01:49:03+00:00", "coordonnees_geo": {"lon": 2.408344637349607, "lat": 48.864707139122984}, "nom_arrondissement_communes": "Paris", "code_insee_commune": null}, {"stationcode": "4006", "name": "Bourdon - Pont Morland", "is_installed": "OUI", "capacity": 52, "numdocksavailable": 1, "numbikesavailable": 48, "mechanical": 48, "ebike": 0, "is_renting": "OUI", "is_returning": "OUI", "duedate": "2024-06-15T01:50:58+00:00", "coordonnees_geo": {"lon": 2.3659356, "lat": 48.8478103}, "nom_arrondissement_communes": "Paris", "code_insee_commune": null}, {"stationcode": "14026", "name": "Plantes - Moulin Vert", "is_installed": "OUI", "capacity": 45, "numdocksavailable": 30, "numbikesavailable": 14, "mechanical": 7, "ebike": 7, "is_renting": "OUI", "is_returning": "OUI", "duedate": "2024-06-15T01:49:36+00:00", "coordonnees_geo": {"lon": 2.3232302069664006, "lat": 48.83005755305626}, "nom_arrondissement_communes": "Paris", "code_insee_commune": null}, {"stationcode": "10008", "name": "Cit\u00e9 Riverin - Ch\u00e2teau d'Eau", "is_installed": "OUI", "capacity": 18, "numdocksavailable": 8, "numbikesavailable": 9, "mechanical": 7, "ebike": 2, "is_renting": "OUI", "is_returning": "OUI", "duedate": "2024-06-15T01:51:08+00:00", "coordonnees_geo": {"lon": 2.358739863900845, "lat": 48.870702423554306}, "nom_arrondissement_communes": "Paris", "code_insee_commune": null}, {"stationcode": "16036", "name": "Porte Molitor", "is_installed": "OUI", "capacity": 60, "numdocksavailable": 42, "numbikesavailable": 15, "mechanical": 12, "ebike": 3, "is_renting": "OUI", "is_returning": "OUI", "duedate": "2024-06-15T01:51:13+00:00", "coordonnees_geo": {"lon": 2.2569015249609947, "lat": 48.84524763511433}, "nom_arrondissement_communes": "Paris", "code_insee_commune": null}, {"stationcode": "14001", "name": "Edgar Quinet - Gait\u00e9", "is_installed": "OUI", "capacity": 27, "numdocksavailable": 18, "numbikesavailable": 7, "mechanical": 4, "ebike": 3, "is_renting": "OUI", "is_returning": "OUI", "duedate": "2024-06-15T01:48:26+00:00", "coordonnees_geo": {"lon": 2.324595451355, "lat": 48.841160928966}, "nom_arrondissement_communes": "Paris", "code_insee_commune": null}, {"stationcode": "26004", "name": "Gare RER les Gr\u00e9sillons", "is_installed": "OUI", "capacity": 22, "numdocksavailable": 6, "numbikesavailable": 13, "mechanical": 5, "ebike": 8, "is_renting": "OUI", "is_returning": "OUI", "duedate": "2024-06-15T01:46:31+00:00", "coordonnees_geo": {"lon": 2.31458459136273, "lat": 48.919898633572764}, "nom_arrondissement_communes": "Asni\u00e8res-sur-Seine", "code_insee_commune": null}, {"stationcode": "18139", "name": "Poissonniers - Championnet", "is_installed": "OUI", "capacity": 28, "numdocksavailable": 21, "numbikesavailable": 6, "mechanical": 2, "ebike": 4, "is_renting": "OUI", "is_returning": "OUI", "duedate": "2024-06-15T01:50:28+00:00", "coordonnees_geo": {"lon": 2.3530178144574165, "lat": 48.89543299733937}, "nom_arrondissement_communes": "Paris", "code_insee_commune": null}, {"stationcode": "15008", "name": "S\u00e8vres - Lecourbe", "is_installed": "OUI", "capacity": 62, "numdocksavailable": 40, "numbikesavailable": 21, "mechanical": 17, "ebike": 4, "is_renting": "OUI", "is_returning": "OUI", "duedate": "2024-06-15T01:49:46+00:00", "coordonnees_geo": {"lon": 2.3110086, "lat": 48.8447677}, "nom_arrondissement_communes": "Paris", "code_insee_commune": null}, {"stationcode": "11112", "name": "Jules Vall\u00e8s - Charonne", "is_installed": "OUI", "capacity": 23, "numdocksavailable": 0, "numbikesavailable": 22, "mechanical": 17, "ebike": 5, "is_renting": "OUI", "is_returning": "OUI", "duedate": "2024-06-15T01:47:40+00:00", "coordonnees_geo": {"lon": 2.384767457842827, "lat": 48.85428437993525}, "nom_arrondissement_communes": "Paris", "code_insee_commune": null}, {"stationcode": "22201", "name": "Henri Ravera - Gabriel P\u00e9ri", "is_installed": "OUI", "capacity": 30, "numdocksavailable": 15, "numbikesavailable": 15, "mechanical": 1, "ebike": 14, "is_renting": "OUI", "is_returning": "OUI", "duedate": "2024-06-15T01:51:01+00:00", "coordonnees_geo": {"lon": 2.302115857601166, "lat": 48.79722273833844}, "nom_arrondissement_communes": "Bagneux", "code_insee_commune": null}, {"stationcode": "17009", "name": "Paul Bodin - Clichy", "is_installed": "OUI", "capacity": 0, "numdocksavailable": 0, "numbikesavailable": 0, "mechanical": 0, "ebike": 0, "is_renting": "NON", "is_returning": "NON", "duedate": "2024-06-15T01:49:43+00:00", "coordonnees_geo": {"lon": 2.317142598331, "lat": 48.892396146189}, "nom_arrondissement_communes": "Paris", "code_insee_commune": null}, {"stationcode": "3008", "name": "Perle - Vieille du Temple", "is_installed": "OUI", "capacity": 36, "numdocksavailable": 8, "numbikesavailable": 27, "mechanical": 20, "ebike": 7, "is_renting": "OUI", "is_returning": "OUI", "duedate": "2024-06-15T01:49:09+00:00", "coordonnees_geo": {"lon": 2.3611206, "lat": 48.8601346}, "nom_arrondissement_communes": "Paris", "code_insee_commune": null}, {"stationcode": "45002", "name": "Roger Salengro - G\u00e9n\u00e9ral de Gaulle", "is_installed": "OUI", "capacity": 27, "numdocksavailable": 2, "numbikesavailable": 25, "mechanical": 14, "ebike": 11, "is_renting": "OUI", "is_returning": "OUI", "duedate": "2024-06-15T01:47:09+00:00", "coordonnees_geo": {"lon": 2.4846760556101803, "lat": 48.820029010376956}, "nom_arrondissement_communes": "Champigny-sur-Marne", "code_insee_commune": null}, {"stationcode": "15128", "name": "Cadix - Hameau", "is_installed": "OUI", "capacity": 37, "numdocksavailable": 0, "numbikesavailable": 37, "mechanical": 32, "ebike": 5, "is_renting": "OUI", "is_returning": "OUI", "duedate": "2024-06-15T01:44:43+00:00", "coordonnees_geo": {"lon": 2.289516180753708, "lat": 48.8340107632249}, "nom_arrondissement_communes": "Paris", "code_insee_commune": null}, {"stationcode": "12037", "name": "Reuilly - Daumesnil", "is_installed": "OUI", "capacity": 36, "numdocksavailable": 16, "numbikesavailable": 19, "mechanical": 13, "ebike": 6, "is_renting": "OUI", "is_returning": "OUI", "duedate": "2024-06-15T01:50:50+00:00", "coordonnees_geo": {"lon": 2.3972516, "lat": 48.8395385}, "nom_arrondissement_communes": "Paris", "code_insee_commune": null}, {"stationcode": "1007", "name": "Turbigo - Fran\u00e7aise", "is_installed": "OUI", "capacity": 16, "numdocksavailable": 11, "numbikesavailable": 5, "mechanical": 2, "ebike": 3, "is_renting": "OUI", "is_returning": "OUI", "duedate": "2024-06-15T01:51:02+00:00", "coordonnees_geo": {"lon": 2.3477794602513313, "lat": 48.86358858111446}, "nom_arrondissement_communes": "Paris", "code_insee_commune": null}, {"stationcode": "20034", "name": "Sorbier - M\u00e9nilmontant", "is_installed": "OUI", "capacity": 24, "numdocksavailable": 20, "numbikesavailable": 3, "mechanical": 0, "ebike": 3, "is_renting": "OUI", "is_returning": "OUI", "duedate": "2024-06-15T01:50:25+00:00", "coordonnees_geo": {"lon": 2.3897721245884895, "lat": 48.86854239566069}, "nom_arrondissement_communes": "Paris", "code_insee_commune": null}, {"stationcode": "16013", "name": "Mairie du 16\u00e8me", "is_installed": "OUI", "capacity": 35, "numdocksavailable": 33, "numbikesavailable": 0, "mechanical": 0, "ebike": 0, "is_renting": "OUI", "is_returning": "OUI", "duedate": "2024-06-15T01:48:29+00:00", "coordonnees_geo": {"lon": 2.2765953093767166, "lat": 48.863936848471994}, "nom_arrondissement_communes": "Paris", "code_insee_commune": null}, {"stationcode": "12019", "name": "Gare de Reuilly - Picpus", "is_installed": "OUI", "capacity": 28, "numdocksavailable": 15, "numbikesavailable": 13, "mechanical": 4, "ebike": 9, "is_renting": "OUI", "is_returning": "OUI", "duedate": "2024-06-15T01:50:12+00:00", "coordonnees_geo": {"lon": 2.3972943797707558, "lat": 48.84267354116789}, "nom_arrondissement_communes": "Paris", "code_insee_commune": null}, {"stationcode": "14135", "name": "Jourdan - Cit\u00e9 Universitaire", "is_installed": "OUI", "capacity": 39, "numdocksavailable": 26, "numbikesavailable": 11, "mechanical": 3, "ebike": 8, "is_renting": "OUI", "is_returning": "OUI", "duedate": "2024-06-15T01:50:16+00:00", "coordonnees_geo": {"lon": 2.3397007964124366, "lat": 48.819897343156676}, "nom_arrondissement_communes": "Paris", "code_insee_commune": null}, {"stationcode": "20024", "name": "Gambetta - P\u00e8re Lachaise", "is_installed": "OUI", "capacity": 29, "numdocksavailable": 17, "numbikesavailable": 12, "mechanical": 3, "ebike": 9, "is_renting": "OUI", "is_returning": "OUI", "duedate": "2024-06-15T01:50:32+00:00", "coordonnees_geo": {"lon": 2.398228667282044, "lat": 48.864295696165875}, "nom_arrondissement_communes": "Paris", "code_insee_commune": null}, {"stationcode": "3010", "name": "Beaubourg - Michel-le-Comte", "is_installed": "OUI", "capacity": 17, "numdocksavailable": 8, "numbikesavailable": 8, "mechanical": 7, "ebike": 1, "is_renting": "OUI", "is_returning": "OUI", "duedate": "2024-06-15T01:50:29+00:00", "coordonnees_geo": {"lon": 2.3543103039265, "lat": 48.862534941806}, "nom_arrondissement_communes": "Paris", "code_insee_commune": null}, {"stationcode": "10034", "name": "Louis Blanc - La Chapelle", "is_installed": "OUI", "capacity": 21, "numdocksavailable": 12, "numbikesavailable": 8, "mechanical": 4, "ebike": 4, "is_renting": "OUI", "is_returning": "OUI", "duedate": "2024-06-15T01:48:32+00:00", "coordonnees_geo": {"lon": 2.3599335551262, "lat": 48.884008964514}, "nom_arrondissement_communes": "Paris", "code_insee_commune": null}, {"stationcode": "19002", "name": "Centquatre", "is_installed": "OUI", "capacity": 42, "numdocksavailable": 21, "numbikesavailable": 21, "mechanical": 6, "ebike": 15, "is_renting": "OUI", "is_returning": "OUI", "duedate": "2024-06-15T01:46:25+00:00", "coordonnees_geo": {"lon": 2.3707854375243187, "lat": 48.88933353845543}, "nom_arrondissement_communes": "Paris", "code_insee_commune": null}, {"stationcode": "17019", "name": "Phalsbourg - Villiers", "is_installed": "OUI", "capacity": 20, "numdocksavailable": 17, "numbikesavailable": 2, "mechanical": 0, "ebike": 2, "is_renting": "OUI", "is_returning": "OUI", "duedate": "2024-06-15T01:44:30+00:00", "coordonnees_geo": {"lon": 2.3090453445911407, "lat": 48.88242307900951}, "nom_arrondissement_communes": "Paris", "code_insee_commune": null}, {"stationcode": "19201", "name": "Petit - Georges Thill", "is_installed": "OUI", "capacity": 23, "numdocksavailable": 2, "numbikesavailable": 21, "mechanical": 10, "ebike": 11, "is_renting": "OUI", "is_returning": "OUI", "duedate": "2024-06-15T01:48:33+00:00", "coordonnees_geo": {"lon": 2.3895753175020222, "lat": 48.88603131999171}, "nom_arrondissement_communes": "Paris", "code_insee_commune": null}, {"stationcode": "10009", "name": "Mairie du 10\u00e8me", "is_installed": "OUI", "capacity": 19, "numdocksavailable": 15, "numbikesavailable": 4, "mechanical": 1, "ebike": 3, "is_renting": "OUI", "is_returning": "OUI", "duedate": "2024-06-15T01:50:20+00:00", "coordonnees_geo": {"lon": 2.3575825989246, "lat": 48.872089449907}, "nom_arrondissement_communes": "Paris", "code_insee_commune": null}, {"stationcode": "15132", "name": "Bargue -  Dutot", "is_installed": "OUI", "capacity": 21, "numdocksavailable": 1, "numbikesavailable": 20, "mechanical": 7, "ebike": 13, "is_renting": "OUI", "is_returning": "OUI", "duedate": "2024-06-15T01:49:55+00:00", "coordonnees_geo": {"lon": 2.308876, "lat": 48.837884}, "nom_arrondissement_communes": "Paris", "code_insee_commune": null}, {"stationcode": "41405", "name": "Place de l'Europe - Alfortville", "is_installed": "OUI", "capacity": 24, "numdocksavailable": 9, "numbikesavailable": 15, "mechanical": 10, "ebike": 5, "is_renting": "OUI", "is_returning": "OUI", "duedate": "2024-06-15T01:50:34+00:00", "coordonnees_geo": {"lon": 2.4284800887107854, "lat": 48.78913702405837}, "nom_arrondissement_communes": "Alfortville", "code_insee_commune": null}, {"stationcode": "20006", "name": "Pyr\u00e9n\u00e9es - Plaine", "is_installed": "OUI", "capacity": 12, "numdocksavailable": 3, "numbikesavailable": 9, "mechanical": 7, "ebike": 2, "is_renting": "OUI", "is_returning": "OUI", "duedate": "2024-06-15T01:49:44+00:00", "coordonnees_geo": {"lon": 2.4062821269035, "lat": 48.85026702458}, "nom_arrondissement_communes": "Paris", "code_insee_commune": null}, {"stationcode": "21026", "name": "S\u00e8vres - G\u00e9n\u00e9ral Leclerc", "is_installed": "OUI", "capacity": 30, "numdocksavailable": 29, "numbikesavailable": 1, "mechanical": 1, "ebike": 0, "is_renting": "OUI", "is_returning": "OUI", "duedate": "2024-06-15T01:44:37+00:00", "coordonnees_geo": {"lon": 2.231426239013672, "lat": 48.83012155905476}, "nom_arrondissement_communes": "Boulogne-Billancourt", "code_insee_commune": null}, {"stationcode": "21953", "name": "Gare de Bellevue", "is_installed": "OUI", "capacity": 20, "numdocksavailable": 19, "numbikesavailable": 1, "mechanical": 0, "ebike": 1, "is_renting": "OUI", "is_returning": "OUI", "duedate": "2024-06-15T01:45:48+00:00", "coordonnees_geo": {"lon": 2.2295309230685234, "lat": 48.8192404685572}, "nom_arrondissement_communes": "Meudon", "code_insee_commune": null}, {"stationcode": "2015", "name": "Louis le Grand - Italiens", "is_installed": "OUI", "capacity": 33, "numdocksavailable": 32, "numbikesavailable": 0, "mechanical": 0, "ebike": 0, "is_renting": "OUI", "is_returning": "OUI", "duedate": "2024-06-15T01:43:01+00:00", "coordonnees_geo": {"lon": 2.3340544619393, "lat": 48.870508937204}, "nom_arrondissement_communes": "Paris", "code_insee_commune": null}, {"stationcode": "14137", "name": "Maurice d'Ocagne - General Maudhuy", "is_installed": "OUI", "capacity": 30, "numdocksavailable": 21, "numbikesavailable": 8, "mechanical": 3, "ebike": 5, "is_renting": "OUI", "is_returning": "OUI", "duedate": "2024-06-15T01:47:03+00:00", "coordonnees_geo": {"lon": 2.3158789426088333, "lat": 48.82414282524159}, "nom_arrondissement_communes": "Paris", "code_insee_commune": null}, {"stationcode": "31709", "name": "Place de la Fraternit\u00e9", "is_installed": "OUI", "capacity": 22, "numdocksavailable": 11, "numbikesavailable": 11, "mechanical": 1, "ebike": 10, "is_renting": "OUI", "is_returning": "OUI", "duedate": "2024-06-15T01:42:25+00:00", "coordonnees_geo": {"lon": 2.422847449779511, "lat": 48.85716405838368}, "nom_arrondissement_communes": "Montreuil", "code_insee_commune": null}, {"stationcode": "9037", "name": "Parme - Clichy", "is_installed": "OUI", "capacity": 24, "numdocksavailable": 24, "numbikesavailable": 0, "mechanical": 0, "ebike": 0, "is_renting": "NON", "is_returning": "NON", "duedate": "2023-10-01T22:05:20+00:00", "coordonnees_geo": {"lon": 2.3281970934506, "lat": 48.881266424227}, "nom_arrondissement_communes": "Paris", "code_insee_commune": null}, {"stationcode": "10027", "name": "Dunkerque - Alsace", "is_installed": "OUI", "capacity": 20, "numdocksavailable": 16, "numbikesavailable": 2, "mechanical": 0, "ebike": 2, "is_renting": "OUI", "is_returning": "OUI", "duedate": "2024-06-15T01:50:06+00:00", "coordonnees_geo": {"lon": 2.358379, "lat": 48.879355}, "nom_arrondissement_communes": "Paris", "code_insee_commune": null}, {"stationcode": "10006", "name": "Petites Ecuries - Faubourg Saint-Denis", "is_installed": "OUI", "capacity": 28, "numdocksavailable": 23, "numbikesavailable": 2, "mechanical": 1, "ebike": 1, "is_renting": "OUI", "is_returning": "OUI", "duedate": "2024-06-15T01:50:26+00:00", "coordonnees_geo": {"lon": 2.3542150855064397, "lat": 48.87287120589831}, "nom_arrondissement_communes": "Paris", "code_insee_commune": null}, {"stationcode": "12002", "name": "Lacu\u00e9e - Lyon", "is_installed": "OUI", "capacity": 16, "numdocksavailable": 3, "numbikesavailable": 12, "mechanical": 10, "ebike": 2, "is_renting": "OUI", "is_returning": "OUI", "duedate": "2024-06-15T01:47:34+00:00", "coordonnees_geo": {"lon": 2.3704585433006, "lat": 48.849268481958}, "nom_arrondissement_communes": "Paris", "code_insee_commune": null}, {"stationcode": "21506", "name": "Maurice Payret-Dortail", "is_installed": "OUI", "capacity": 22, "numdocksavailable": 14, "numbikesavailable": 8, "mechanical": 0, "ebike": 8, "is_renting": "OUI", "is_returning": "OUI", "duedate": "2024-06-15T01:47:56+00:00", "coordonnees_geo": {"lon": 2.2233625128865246, "lat": 48.87811957063342}, "nom_arrondissement_communes": "Suresnes", "code_insee_commune": null}, {"stationcode": "21953", "name": "Gare de Bellevue", "is_installed": "OUI", "capacity": 20, "numdocksavailable": 16, "numbikesavailable": 4, "mechanical": 0, "ebike": 4, "is_renting": "OUI", "is_returning": "OUI", "duedate": "2024-06-14T16:44:31+00:00", "coordonnees_geo": {"lon": 2.2295309230685234, "lat": 48.8192404685572}, "nom_arrondissement_communes": "Meudon", "code_insee_commune": null}, {"stationcode": "7021", "name": "Bosquet - Saint-Dominique", "is_installed": "OUI", "capacity": 28, "numdocksavailable": 26, "numbikesavailable": 1, "mechanical": 0, "ebike": 1, "is_renting": "OUI", "is_returning": "OUI", "duedate": "2024-06-14T16:50:17+00:00", "coordonnees_geo": {"lon": 2.303716580234576, "lat": 48.85865170952645}, "nom_arrondissement_communes": "Paris", "code_insee_commune": null}, {"stationcode": "2015", "name": "Louis le Grand - Italiens", "is_installed": "OUI", "capacity": 33, "numdocksavailable": 28, "numbikesavailable": 4, "mechanical": 3, "ebike": 1, "is_renting": "OUI", "is_returning": "OUI", "duedate": "2024-06-14T16:49:47+00:00", "coordonnees_geo": {"lon": 2.3340544619393, "lat": 48.870508937204}, "nom_arrondissement_communes": "Paris", "code_insee_commune": null}, {"stationcode": "14137", "name": "Maurice d'Ocagne - General Maudhuy", "is_installed": "OUI", "capacity": 30, "numdocksavailable": 25, "numbikesavailable": 4, "mechanical": 3, "ebike": 1, "is_renting": "OUI", "is_returning": "OUI", "duedate": "2024-06-14T16:45:13+00:00", "coordonnees_geo": {"lon": 2.3158789426088333, "lat": 48.82414282524159}, "nom_arrondissement_communes": "Paris", "code_insee_commune": null}, {"stationcode": "14019", "name": "Sarrette - G\u00e9n\u00e9ral Leclerc", "is_installed": "OUI", "capacity": 22, "numdocksavailable": 20, "numbikesavailable": 2, "mechanical": 1, "ebike": 1, "is_renting": "OUI", "is_returning": "OUI", "duedate": "2024-06-14T16:50:26+00:00", "coordonnees_geo": {"lon": 2.3264128693982, "lat": 48.825030852925}, "nom_arrondissement_communes": "Paris", "code_insee_commune": null}, {"stationcode": "31709", "name": "Place de la Fraternit\u00e9", "is_installed": "OUI", "capacity": 22, "numdocksavailable": 19, "numbikesavailable": 2, "mechanical": 0, "ebike": 2, "is_renting": "OUI", "is_returning": "OUI", "duedate": "2024-06-14T16:49:58+00:00", "coordonnees_geo": {"lon": 2.422847449779511, "lat": 48.85716405838368}, "nom_arrondissement_communes": "Montreuil", "code_insee_commune": null}, {"stationcode": "9037", "name": "Parme - Clichy", "is_installed": "OUI", "capacity": 24, "numdocksavailable": 24, "numbikesavailable": 0, "mechanical": 0, "ebike": 0, "is_renting": "NON", "is_returning": "NON", "duedate": "2023-10-01T22:05:20+00:00", "coordonnees_geo": {"lon": 2.3281970934506, "lat": 48.881266424227}, "nom_arrondissement_communes": "Paris", "code_insee_commune": null}, {"stationcode": "10006", "name": "Petites Ecuries - Faubourg Saint-Denis", "is_installed": "OUI", "capacity": 28, "numdocksavailable": 2, "numbikesavailable": 21, "mechanical": 10, "ebike": 11, "is_renting": "OUI", "is_returning": "OUI", "duedate": "2024-06-14T16:50:24+00:00", "coordonnees_geo": {"lon": 2.3542150855064397, "lat": 48.87287120589831}, "nom_arrondissement_communes": "Paris", "code_insee_commune": null}, {"stationcode": "19129", "name": "Solitaires - Place des F\u00eates", "is_installed": "OUI", "capacity": 29, "numdocksavailable": 27, "numbikesavailable": 2, "mechanical": 0, "ebike": 2, "is_renting": "OUI", "is_returning": "OUI", "duedate": "2024-06-14T16:50:02+00:00", "coordonnees_geo": {"lon": 2.391769, "lat": 48.876601}, "nom_arrondissement_communes": "Paris", "code_insee_commune": null}, {"stationcode": "21506", "name": "Maurice Payret-Dortail", "is_installed": "OUI", "capacity": 22, "numdocksavailable": 22, "numbikesavailable": 0, "mechanical": 0, "ebike": 0, "is_renting": "OUI", "is_returning": "OUI", "duedate": "2024-06-14T16:49:53+00:00", "coordonnees_geo": {"lon": 2.2233625128865246, "lat": 48.87811957063342}, "nom_arrondissement_communes": "Suresnes", "code_insee_commune": null}, {"stationcode": "14103", "name": "Maine - Liancourt", "is_installed": "OUI", "capacity": 27, "numdocksavailable": 21, "numbikesavailable": 5, "mechanical": 3, "ebike": 2, "is_renting": "OUI", "is_returning": "OUI", "duedate": "2024-06-14T16:46:17+00:00", "coordonnees_geo": {"lon": 2.323731449974, "lat": 48.835064363954}, "nom_arrondissement_communes": "Paris", "code_insee_commune": null}, {"stationcode": "10011", "name": "Bourse du Travail", "is_installed": "OUI", "capacity": 17, "numdocksavailable": 6, "numbikesavailable": 9, "mechanical": 8, "ebike": 1, "is_renting": "OUI", "is_returning": "OUI", "duedate": "2024-06-14T16:50:00+00:00", "coordonnees_geo": {"lon": 2.3623438552022, "lat": 48.868976638826}, "nom_arrondissement_communes": "Paris", "code_insee_commune": null}, {"stationcode": "2003", "name": "Saint-Denis - R\u00e9aumur", "is_installed": "OUI", "capacity": 32, "numdocksavailable": 17, "numbikesavailable": 12, "mechanical": 12, "ebike": 0, "is_renting": "OUI", "is_returning": "OUI", "duedate": "2024-06-14T16:47:58+00:00", "coordonnees_geo": {"lon": 2.3507790675507594, "lat": 48.8661116315789}, "nom_arrondissement_communes": "Paris", "code_insee_commune": null}, {"stationcode": "21110", "name": "Parc Roger Salengro", "is_installed": "OUI", "capacity": 35, "numdocksavailable": 4, "numbikesavailable": 28, "mechanical": 25, "ebike": 3, "is_renting": "OUI", "is_returning": "OUI", "duedate": "2024-06-14T16:49:38+00:00", "coordonnees_geo": {"lon": 2.31055945158, "lat": 48.905303858642}, "nom_arrondissement_communes": "Clichy", "code_insee_commune": null}, {"stationcode": "15111", "name": "Olivier de Serres - Leriche", "is_installed": "OUI", "capacity": 25, "numdocksavailable": 23, "numbikesavailable": 2, "mechanical": 2, "ebike": 0, "is_renting": "OUI", "is_returning": "OUI", "duedate": "2024-06-14T16:49:58+00:00", "coordonnees_geo": {"lon": 2.2957482933998112, "lat": 48.83460221715206}, "nom_arrondissement_communes": "Paris", "code_insee_commune": null}, {"stationcode": "3009", "name": "Temple - Haudriettes", "is_installed": "OUI", "capacity": 19, "numdocksavailable": 17, "numbikesavailable": 2, "mechanical": 2, "ebike": 0, "is_renting": "OUI", "is_returning": "OUI", "duedate": "2024-06-14T16:49:39+00:00", "coordonnees_geo": {"lon": 2.3566960206458, "lat": 48.861636880212}, "nom_arrondissement_communes": "Paris", "code_insee_commune": null}, {"stationcode": "26005", "name": "H\u00f4tel de Ville d'Asni\u00e8res sur Seine", "is_installed": "OUI", "capacity": 30, "numdocksavailable": 18, "numbikesavailable": 11, "mechanical": 1, "ebike": 10, "is_renting": "OUI", "is_returning": "OUI", "duedate": "2024-06-14T16:50:22+00:00", "coordonnees_geo": {"lon": 2.288238108158112, "lat": 48.90999330025577}, "nom_arrondissement_communes": "Asni\u00e8res-sur-Seine", "code_insee_commune": null}, {"stationcode": "2005", "name": "Montmartre - Etienne Marcel", "is_installed": "OUI", "capacity": 16, "numdocksavailable": 7, "numbikesavailable": 7, "mechanical": 1, "ebike": 6, "is_renting": "OUI", "is_returning": "OUI", "duedate": "2024-06-14T16:48:09+00:00", "coordonnees_geo": {"lon": 2.3450684401448, "lat": 48.86502194581}, "nom_arrondissement_communes": "Paris", "code_insee_commune": null}]