[{"stationcode": "12153", "name": "Terroirs de France - Lheureux", "is_installed": "OUI", "capacity": 55, "numdocksavailable": 18, "numbikesavailable": 37, "mechanical": 20, "ebike": 17, "is_renting": "OUI", "is_returning": "OUI", "duedate": "2024-06-14T13:48:22+00:00", "coordonnees_geo": {"lon": 2.388618104159832, "lat": 48.83212027074841}, "nom_arrondissement_communes": "Paris", "code_insee_commune": null}, {"stationcode": "17005", "name": "Brochant - Clichy", "is_installed": "OUI", "capacity": 53, "numdocksavailable": 52, "numbikesavailable": 0, "mechanical": 0, "ebike": 0, "is_renting": "OUI", "is_returning": "OUI", "duedate": "2024-06-14T13:45:23+00:00", "coordonnees_geo": {"lon": 2.319730559929781, "lat": 48.89032998912038}, "nom_arrondissement_communes": "Paris", "code_insee_commune": null}, {"stationcode": "21017", "name": "Place Marcel Sembat", "is_installed": "OUI", "capacity": 56, "numdocksavailable": 38, "numbikesavailable": 18, "mechanical": 17, "ebike": 1, "is_renting": "OUI", "is_returning": "OUI", "duedate": "2024-06-14T13:49:49+00:00", "coordonnees_geo": {"lon": 2.2441747784614567, "lat": 48.83328865030686}, "nom_arrondissement_communes": "Boulogne-Billancourt", "code_insee_commune": null}, {"stationcode": "14016", "name": "Ren\u00e9 Coty - Parc Montsouris", "is_installed": "OUI", "capacity": 55, "numdocksavailable": 49, "numbikesavailable": 5, "mechanical": 3, "ebike": 2, "is_renting": "OUI", "is_returning": "OUI", "duedate": "2024-06-14T13:49:46+00:00", "coordonnees_geo": {"lon": 2.336124926805496, "lat": 48.82479134498032}, "nom_arrondissement_communes": "Paris", "code_insee_commune": null}, {"stationcode": "12033", "name": "Fran\u00e7ois Truffaut - Saint Emilion", "is_installed": "OUI", "capacity": 66, "numdocksavailable": 0, "numbikesavailable": 66, "mechanical": 58, "ebike": 8, "is_renting": "OUI", "is_returning": "OUI", "duedate": "2024-06-14T13:49:39+00:00", "coordonnees_geo": {"lon": 2.386601903271428, "lat": 48.83372354344807}, "nom_arrondissement_communes": "Paris", "code_insee_commune": null}, {"stationcode": "12120", "name": "Lac Daumesnil - Saint-Maurice", "is_installed": "OUI", "capacity": 50, "numdocksavailable": 45, "numbikesavailable": 5, "mechanical": 1, "ebike": 4, "is_renting": "OUI", "is_returning": "OUI", "duedate": "2024-06-14T13:46:36+00:00", "coordonnees_geo": {"lon": 2.4183654785156246, "lat": 48.82774555743318}, "nom_arrondissement_communes": "Paris", "code_insee_commune": null}, {"stationcode": "15009", "name": "Suffren - P\u00e9rignon", "is_installed": "OUI", "capacity": 46, "numdocksavailable": 28, "numbikesavailable": 18, "mechanical": 13, "ebike": 5, "is_renting": "OUI", "is_returning": "OUI", "duedate": "2024-06-14T13:49:32+00:00", "coordonnees_geo": {"lon": 2.307052147596786, "lat": 48.84717561492764}, "nom_arrondissement_communes": "Paris", "code_insee_commune": null}, {"stationcode": "20047", "name": "Cours de Vincennes - Davout", "is_installed": "OUI", "capacity": 48, "numdocksavailable": 45, "numbikesavailable": 2, "mechanical": 2, "ebike": 0, "is_renting": "OUI", "is_returning": "OUI", "duedate": "2024-06-14T13:41:50+00:00", "coordonnees_geo": {"lon": 2.4107042336225, "lat": 48.847238029966}, "nom_arrondissement_communes": "Paris", "code_insee_commune": null}, {"stationcode": "13047", "name": "Boutroux - Porte de Vitry", "is_installed": "OUI", "capacity": 49, "numdocksavailable": 2, "numbikesavailable": 43, "mechanical": 42, "ebike": 1, "is_renting": "OUI", "is_returning": "OUI", "duedate": "2024-06-14T13:50:03+00:00", "coordonnees_geo": {"lon": 2.377738, "lat": 48.822632}, "nom_arrondissement_communes": "Paris", "code_insee_commune": null}, {"stationcode": "18114", "name": "V\u00e9ron - Lepic", "is_installed": "OUI", "capacity": 23, "numdocksavailable": 23, "numbikesavailable": 0, "mechanical": 0, "ebike": 0, "is_renting": "OUI", "is_returning": "OUI", "duedate": "2024-06-14T13:47:33+00:00", "coordonnees_geo": {"lon": 2.334559857845307, "lat": 48.88526123395252}, "nom_arrondissement_communes": "Paris", "code_insee_commune": null}, {"stationcode": "4107", "name": "Beaumarchais - Pas de la Mule", "is_installed": "OUI", "capacity": 18, "numdocksavailable": 3, "numbikesavailable": 15, "mechanical": 11, "ebike": 4, "is_renting": "OUI", "is_returning": "OUI", "duedate": "2024-06-14T13:48:41+00:00", "coordonnees_geo": {"lon": 2.3684333673431, "lat": 48.855580507049}, "nom_arrondissement_communes": "Paris", "code_insee_commune": null}, {"stationcode": "22103", "name": "Senard - Charles Blum", "is_installed": "OUI", "capacity": 24, "numdocksavailable": 14, "numbikesavailable": 10, "mechanical": 3, "ebike": 7, "is_renting": "OUI", "is_returning": "OUI", "duedate": "2024-06-14T13:49:59+00:00", "coordonnees_geo": {"lon": 2.221091687679291, "lat": 48.857315824799}, "nom_arrondissement_communes": "Saint-Cloud", "code_insee_commune": null}, {"stationcode": "19113", "name": "Pr\u00e9 Saint-Gervais - Lilas", "is_installed": "OUI", "capacity": 28, "numdocksavailable": 26, "numbikesavailable": 2, "mechanical": 1, "ebike": 1, "is_renting": "OUI", "is_returning": "OUI", "duedate": "2024-06-14T13:46:27+00:00", "coordonnees_geo": {"lon": 2.3959073424339, "lat": 48.877870626988}, "nom_arrondissement_communes": "Paris", "code_insee_commune": null}, {"stationcode": "14128", "name": "Gergovie - Vercing\u00e9torix", "is_installed": "OUI", "capacity": 29, "numdocksavailable": 27, "numbikesavailable": 2, "mechanical": 1, "ebike": 1, "is_renting": "OUI", "is_returning": "OUI", "duedate": "2024-06-14T13:46:14+00:00", "coordonnees_geo": {"lon": 2.313154547426182, "lat": 48.83453413883994}, "nom_arrondissement_communes": "Paris", "code_insee_commune": null}, {"stationcode": "10039", "name": "Sambre et Meuse - Villette", "is_installed": "OUI", "capacity": 25, "numdocksavailable": 20, "numbikesavailable": 5, "mechanical": 2, "ebike": 3, "is_renting": "OUI", "is_returning": "OUI", "duedate": "2024-06-14T13:49:14+00:00", "coordonnees_geo": {"lon": 2.3738072379951, "lat": 48.874405666217}, "nom_arrondissement_communes": "Paris", "code_insee_commune": null}, {"stationcode": "19036", "name": "H\u00f4pital Robert Debr\u00e9", "is_installed": "OUI", "capacity": 33, "numdocksavailable": 31, "numbikesavailable": 2, "mechanical": 1, "ebike": 1, "is_renting": "OUI", "is_returning": "OUI", "duedate": "2024-06-14T13:46:33+00:00", "coordonnees_geo": {"lon": 2.4008650346327003, "lat": 48.88005222200894}, "nom_arrondissement_communes": "Paris", "code_insee_commune": null}, {"stationcode": "12129", "name": "Bois de Vincennes - Porte Jaune", "is_installed": "OUI", "capacity": 35, "numdocksavailable": 26, "numbikesavailable": 8, "mechanical": 1, "ebike": 7, "is_renting": "OUI", "is_returning": "OUI", "duedate": "2024-06-14T13:46:42+00:00", "coordonnees_geo": {"lon": 2.4605489149689674, "lat": 48.838751246689455}, "nom_arrondissement_communes": "Paris", "code_insee_commune": null}, {"stationcode": "31707", "name": "Edouard Vaillant - Galli\u00e9ni", "is_installed": "OUI", "capacity": 49, "numdocksavailable": 46, "numbikesavailable": 3, "mechanical": 1, "ebike": 2, "is_renting": "OUI", "is_returning": "OUI", "duedate": "2024-06-14T13:47:39+00:00", "coordonnees_geo": {"lon": 2.4147954583168, "lat": 48.858462881661}, "nom_arrondissement_communes": "Bagnolet", "code_insee_commune": null}, {"stationcode": "8011", "name": "Clapeyron - Moscou", "is_installed": "OUI", "capacity": 15, "numdocksavailable": 9, "numbikesavailable": 6, "mechanical": 1, "ebike": 5, "is_renting": "OUI", "is_returning": "OUI", "duedate": "2024-06-14T13:47:29+00:00", "coordonnees_geo": {"lon": 2.324815057218075, "lat": 48.88078819514121}, "nom_arrondissement_communes": "Paris", "code_insee_commune": null}, {"stationcode": "13020", "name": "Paul Klee - Place Augusta Holmes", "is_installed": "OUI", "capacity": 43, "numdocksavailable": 8, "numbikesavailable": 34, "mechanical": 24, "ebike": 10, "is_renting": "OUI", "is_returning": "OUI", "duedate": "2024-06-14T13:49:42+00:00", "coordonnees_geo": {"lon": 2.3704235663952966, "lat": 48.838946417408025}, "nom_arrondissement_communes": "Paris", "code_insee_commune": null}, {"stationcode": "19124", "name": "Alexander Fleming - Belv\u00e9d\u00e8re", "is_installed": "OUI", "capacity": 31, "numdocksavailable": 29, "numbikesavailable": 2, "mechanical": 2, "ebike": 0, "is_renting": "OUI", "is_returning": "OUI", "duedate": "2024-06-14T13:46:07+00:00", "coordonnees_geo": {"lon": 2.4030599377642674, "lat": 48.88179064200294}, "nom_arrondissement_communes": "Paris", "code_insee_commune": null}, {"stationcode": "7010", "name": "Constantine - Universit\u00e9", "is_installed": "OUI", "capacity": 65, "numdocksavailable": 17, "numbikesavailable": 47, "mechanical": 26, "ebike": 21, "is_renting": "OUI", "is_returning": "OUI", "duedate": "2024-06-14T13:48:32+00:00", "coordonnees_geo": {"lon": 2.3148481955842, "lat": 48.860680473738}, "nom_arrondissement_communes": "Paris", "code_insee_commune": null}, {"stationcode": "14113", "name": "Sant\u00e9 - Arago", "is_installed": "OUI", "capacity": 38, "numdocksavailable": 33, "numbikesavailable": 5, "mechanical": 0, "ebike": 5, "is_renting": "OUI", "is_returning": "OUI", "duedate": "2024-06-14T13:47:28+00:00", "coordonnees_geo": {"lon": 2.3415737262044938, "lat": 48.83507657562064}, "nom_arrondissement_communes": "Paris", "code_insee_commune": null}, {"stationcode": "10152", "name": "Gare du Nord - Place de Valenciennes", "is_installed": "OUI", "capacity": 25, "numdocksavailable": 9, "numbikesavailable": 15, "mechanical": 7, "ebike": 8, "is_renting": "OUI", "is_returning": "OUI", "duedate": "2024-06-14T13:49:26+00:00", "coordonnees_geo": {"lon": 2.354235, "lat": 48.879089}, "nom_arrondissement_communes": "Paris", "code_insee_commune": null}, {"stationcode": "32021", "name": "Place du Front Populaire - George Sand", "is_installed": "OUI", "capacity": 65, "numdocksavailable": 34, "numbikesavailable": 29, "mechanical": 24, "ebike": 5, "is_renting": "OUI", "is_returning": "OUI", "duedate": "2024-06-14T13:48:58+00:00", "coordonnees_geo": {"lon": 2.364541214992642, "lat": 48.90680713698062}, "nom_arrondissement_communes": "Saint-Denis", "code_insee_commune": null}, {"stationcode": "15019", "name": "Paul Barruel - Vaugirard", "is_installed": "OUI", "capacity": 39, "numdocksavailable": 31, "numbikesavailable": 8, "mechanical": 7, "ebike": 1, "is_renting": "OUI", "is_returning": "OUI", "duedate": "2024-06-14T13:48:49+00:00", "coordonnees_geo": {"lon": 2.3044332861900334, "lat": 48.84014918546239}, "nom_arrondissement_communes": "Paris", "code_insee_commune": null}, {"stationcode": "7024", "name": "Rapp - Place du G\u00e9n\u00e9ral Gouraud", "is_installed": "OUI", "capacity": 31, "numdocksavailable": 7, "numbikesavailable": 24, "mechanical": 16, "ebike": 8, "is_renting": "OUI", "is_returning": "OUI", "duedate": "2024-06-14T13:50:00+00:00", "coordonnees_geo": {"lon": 2.3004072904587, "lat": 48.858102885107}, "nom_arrondissement_communes": "Paris", "code_insee_commune": null}, {"stationcode": "11031", "name": "Jacquard - Ternaux", "is_installed": "OUI", "capacity": 0, "numdocksavailable": 0, "numbikesavailable": 0, "mechanical": 0, "ebike": 0, "is_renting": "NON", "is_returning": "NON", "duedate": "2024-03-27T06:55:09+00:00", "coordonnees_geo": {"lon": 2.373162, "lat": 48.8646605}, "nom_arrondissement_communes": "Paris", "code_insee_commune": null}, {"stationcode": "13515", "name": "Auguste Blanqui - Glaci\u00e8re", "is_installed": "OUI", "capacity": 60, "numdocksavailable": 47, "numbikesavailable": 12, "mechanical": 10, "ebike": 2, "is_renting": "OUI", "is_returning": "OUI", "duedate": "2024-06-14T13:47:35+00:00", "coordonnees_geo": {"lon": 2.343822196126, "lat": 48.831151602964}, "nom_arrondissement_communes": "Paris", "code_insee_commune": null}, {"stationcode": "16007", "name": "Longchamp - Place d'I\u00e9na", "is_installed": "OUI", "capacity": 40, "numdocksavailable": 32, "numbikesavailable": 6, "mechanical": 1, "ebike": 5, "is_renting": "OUI", "is_returning": "OUI", "duedate": "2024-06-14T13:50:06+00:00", "coordonnees_geo": {"lon": 2.2926748171448708, "lat": 48.86491723343388}, "nom_arrondissement_communes": "Paris", "code_insee_commune": null}, {"stationcode": "10110", "name": "Louis Blanc - Jemmapes", "is_installed": "OUI", "capacity": 31, "numdocksavailable": 22, "numbikesavailable": 3, "mechanical": 2, "ebike": 1, "is_renting": "OUI", "is_returning": "OUI", "duedate": "2024-06-14T13:45:35+00:00", "coordonnees_geo": {"lon": 2.368448562920093, "lat": 48.879330755297346}, "nom_arrondissement_communes": "Paris", "code_insee_commune": null}, {"stationcode": "10037", "name": "Quai de Valmy", "is_installed": "OUI", "capacity": 26, "numdocksavailable": 24, "numbikesavailable": 2, "mechanical": 2, "ebike": 0, "is_renting": "OUI", "is_returning": "OUI", "duedate": "2024-06-14T13:44:52+00:00", "coordonnees_geo": {"lon": 2.368186041712761, "lat": 48.88126951579429}, "nom_arrondissement_communes": "Paris", "code_insee_commune": null}, {"stationcode": "9036", "name": "Ath\u00e8nes - Clichy", "is_installed": "OUI", "capacity": 20, "numdocksavailable": 11, "numbikesavailable": 8, "mechanical": 1, "ebike": 7, "is_renting": "OUI", "is_returning": "OUI", "duedate": "2024-06-14T13:49:23+00:00", "coordonnees_geo": {"lon": 2.32956021945824, "lat": 48.878113787876}, "nom_arrondissement_communes": "Paris", "code_insee_commune": null}, {"stationcode": "12006", "name": "Gare de Lyon - Van Gogh", "is_installed": "OUI", "capacity": 41, "numdocksavailable": 1, "numbikesavailable": 37, "mechanical": 23, "ebike": 14, "is_renting": "OUI", "is_returning": "OUI", "duedate": "2024-06-14T13:47:17+00:00", "coordonnees_geo": {"lon": 2.3704450240357, "lat": 48.843839785643}, "nom_arrondissement_communes": "Paris", "code_insee_commune": null}, {"stationcode": "15125", "name": "Parc Suzanne Lenglen", "is_installed": "OUI", "capacity": 52, "numdocksavailable": 10, "numbikesavailable": 41, "mechanical": 35, "ebike": 6, "is_renting": "OUI", "is_returning": "OUI", "duedate": "2024-06-14T13:48:59+00:00", "coordonnees_geo": {"lon": 2.2765403240919113, "lat": 48.833250690537874}, "nom_arrondissement_communes": "Paris", "code_insee_commune": null}, {"stationcode": "13027", "name": "Mazagran - Pierre de Coubertin", "is_installed": "OUI", "capacity": 15, "numdocksavailable": 12, "numbikesavailable": 3, "mechanical": 1, "ebike": 2, "is_renting": "OUI", "is_returning": "OUI", "duedate": "2024-06-14T13:43:47+00:00", "coordonnees_geo": {"lon": 2.344226874411106, "lat": 48.816218640260445}, "nom_arrondissement_communes": "Paris", "code_insee_commune": null}, {"stationcode": "10004", "name": "Metz - Faubourg Saint-Denis", "is_installed": "OUI", "capacity": 48, "numdocksavailable": 3, "numbikesavailable": 38, "mechanical": 30, "ebike": 8, "is_renting": "OUI", "is_returning": "OUI", "duedate": "2024-06-14T13:49:50+00:00", "coordonnees_geo": {"lon": 2.353521, "lat": 48.870893}, "nom_arrondissement_communes": "Paris", "code_insee_commune": null}, {"stationcode": "20039", "name": "Belleville - Couronnes", "is_installed": "OUI", "capacity": 50, "numdocksavailable": 49, "numbikesavailable": 0, "mechanical": 0, "ebike": 0, "is_renting": "OUI", "is_returning": "OUI", "duedate": "2024-06-14T13:47:18+00:00", "coordonnees_geo": {"lon": 2.3809862136841, "lat": 48.868831082877}, "nom_arrondissement_communes": "Paris", "code_insee_commune": null}, {"stationcode": "8008", "name": "Joseph Sansboeuf - Saint Lazare", "is_installed": "OUI", "capacity": 18, "numdocksavailable": 15, "numbikesavailable": 3, "mechanical": 3, "ebike": 0, "is_renting": "OUI", "is_returning": "OUI", "duedate": "2024-06-14T13:49:54+00:00", "coordonnees_geo": {"lon": 2.3229019716382027, "lat": 48.87531563065266}, "nom_arrondissement_communes": "Paris", "code_insee_commune": null}, {"stationcode": "10017", "name": "Gare de l'Est - Fid\u00e9lit\u00e9", "is_installed": "OUI", "capacity": 15, "numdocksavailable": 2, "numbikesavailable": 9, "mechanical": 7, "ebike": 2, "is_renting": "OUI", "is_returning": "OUI", "duedate": "2024-06-14T13:44:44+00:00", "coordonnees_geo": {"lon": 2.356796, "lat": 48.874575}, "nom_arrondissement_communes": "Paris", "code_insee_commune": null}, {"stationcode": "22013", "name": "Mairie de Neuilly sur Seine", "is_installed": "OUI", "capacity": 31, "numdocksavailable": 20, "numbikesavailable": 9, "mechanical": 5, "ebike": 4, "is_renting": "OUI", "is_returning": "OUI", "duedate": "2024-06-14T13:42:45+00:00", "coordonnees_geo": {"lon": 2.2677031159400944, "lat": 48.88494728765838}, "nom_arrondissement_communes": "Neuilly-sur-Seine", "code_insee_commune": null}, {"stationcode": "21115", "name": "Chanc\u00e9 Milly - Cimeti\u00e8re Communal Sud", "is_installed": "OUI", "capacity": 32, "numdocksavailable": 17, "numbikesavailable": 13, "mechanical": 10, "ebike": 3, "is_renting": "OUI", "is_returning": "OUI", "duedate": "2024-06-14T13:48:48+00:00", "coordonnees_geo": {"lon": 2.303922325372696, "lat": 48.89687189382465}, "nom_arrondissement_communes": "Clichy", "code_insee_commune": null}, {"stationcode": "21029", "name": "Cours de l'Ile Seguin - Parc Billancourt", "is_installed": "OUI", "capacity": 29, "numdocksavailable": 4, "numbikesavailable": 24, "mechanical": 15, "ebike": 9, "is_renting": "OUI", "is_returning": "OUI", "duedate": "2024-06-14T13:46:16+00:00", "coordonnees_geo": {"lon": 2.234234511852265, "lat": 48.82714055843935}, "nom_arrondissement_communes": "Boulogne-Billancourt", "code_insee_commune": null}, {"stationcode": "15072", "name": "Place Fernand Forest", "is_installed": "OUI", "capacity": 33, "numdocksavailable": 2, "numbikesavailable": 30, "mechanical": 27, "ebike": 3, "is_renting": "OUI", "is_returning": "OUI", "duedate": "2024-06-14T13:49:49+00:00", "coordonnees_geo": {"lon": 2.2818631678819656, "lat": 48.849269143835926}, "nom_arrondissement_communes": "Paris", "code_insee_commune": null}, {"stationcode": "16003", "name": "Andr\u00e9 Maurois - Joseph et Marie Hackin", "is_installed": "OUI", "capacity": 29, "numdocksavailable": 16, "numbikesavailable": 11, "mechanical": 0, "ebike": 11, "is_renting": "OUI", "is_returning": "OUI", "duedate": "2024-06-14T13:50:05+00:00", "coordonnees_geo": {"lon": 2.2789591, "lat": 48.8778983}, "nom_arrondissement_communes": "Paris", "code_insee_commune": null}, {"stationcode": "13048", "name": "Wurtz - Tolbiac", "is_installed": "OUI", "capacity": 28, "numdocksavailable": 17, "numbikesavailable": 11, "mechanical": 7, "ebike": 4, "is_renting": "OUI", "is_returning": "OUI", "duedate": "2024-06-14T13:48:27+00:00", "coordonnees_geo": {"lon": 2.344585955142975, "lat": 48.82631195621006}, "nom_arrondissement_communes": "Paris", "code_insee_commune": null}, {"stationcode": "42304", "name": "Marc Sangnier - Division Leclerc", "is_installed": "OUI", "capacity": 24, "numdocksavailable": 13, "numbikesavailable": 10, "mechanical": 9, "ebike": 1, "is_renting": "OUI", "is_returning": "OUI", "duedate": "2024-06-14T13:46:01+00:00", "coordonnees_geo": {"lon": 2.329955510795116, "lat": 48.78599652305309}, "nom_arrondissement_communes": "Cachan", "code_insee_commune": null}, {"stationcode": "11109", "name": "Pierre Lev\u00e9e - Fontaine Timbaud", "is_installed": "OUI", "capacity": 23, "numdocksavailable": 13, "numbikesavailable": 8, "mechanical": 6, "ebike": 2, "is_renting": "OUI", "is_returning": "OUI", "duedate": "2024-06-14T13:48:17+00:00", "coordonnees_geo": {"lon": 2.3711163550615306, "lat": 48.86632723374305}, "nom_arrondissement_communes": "Paris", "code_insee_commune": null}, {"stationcode": "21307", "name": "Victor Cresson - Telles de la Poterie", "is_installed": "OUI", "capacity": 31, "numdocksavailable": 7, "numbikesavailable": 24, "mechanical": 24, "ebike": 0, "is_renting": "OUI", "is_returning": "OUI", "duedate": "2024-06-14T13:48:13+00:00", "coordonnees_geo": {"lon": 2.2686498274964, "lat": 48.822698842979}, "nom_arrondissement_communes": "Issy-les-Moulineaux", "code_insee_commune": null}, {"stationcode": "15052", "name": "Convention - Vaugirard", "is_installed": "OUI", "capacity": 48, "numdocksavailable": 31, "numbikesavailable": 17, "mechanical": 12, "ebike": 5, "is_renting": "OUI", "is_returning": "OUI", "duedate": "2024-06-14T13:48:47+00:00", "coordonnees_geo": {"lon": 2.295586926020252, "lat": 48.83767682233156}, "nom_arrondissement_communes": "Paris", "code_insee_commune": null}, {"stationcode": "31021", "name": "R\u00e9sistance - Hoche", "is_installed": "OUI", "capacity": 29, "numdocksavailable": 9, "numbikesavailable": 19, "mechanical": 2, "ebike": 17, "is_renting": "OUI", "is_returning": "OUI", "duedate": "2024-06-14T13:48:46+00:00", "coordonnees_geo": {"lon": 2.435784414410591, "lat": 48.864273423741956}, "nom_arrondissement_communes": "Montreuil", "code_insee_commune": null}, {"stationcode": "44002", "name": "Paul Vaillant-Couturier - Gare RER", "is_installed": "OUI", "capacity": 26, "numdocksavailable": 8, "numbikesavailable": 18, "mechanical": 15, "ebike": 3, "is_renting": "OUI", "is_returning": "OUI", "duedate": "2024-06-14T13:48:54+00:00", "coordonnees_geo": {"lon": 2.402097210288048, "lat": 48.80108159069614}, "nom_arrondissement_communes": "Vitry-sur-Seine", "code_insee_commune": null}, {"stationcode": "15123", "name": "Commerce - Letellier", "is_installed": "OUI", "capacity": 44, "numdocksavailable": 11, "numbikesavailable": 33, "mechanical": 30, "ebike": 3, "is_renting": "OUI", "is_returning": "OUI", "duedate": "2024-06-14T13:48:26+00:00", "coordonnees_geo": {"lon": 2.2966245196598805, "lat": 48.84797660373612}, "nom_arrondissement_communes": "Paris", "code_insee_commune": null}, {"stationcode": "21030", "name": "Fessart - Ch\u00e2teau", "is_installed": "OUI", "capacity": 20, "numdocksavailable": 13, "numbikesavailable": 7, "mechanical": 2, "ebike": 5, "is_renting": "OUI", "is_returning": "OUI", "duedate": "2024-06-14T13:49:07+00:00", "coordonnees_geo": {"lon": 2.23989, "lat": 48.84245}, "nom_arrondissement_communes": "Boulogne-Billancourt", "code_insee_commune": null}, {"stationcode": "16024", "name": "Ranelagh - Maison de la Radio", "is_installed": "OUI", "capacity": 22, "numdocksavailable": 14, "numbikesavailable": 8, "mechanical": 4, "ebike": 4, "is_renting": "OUI", "is_returning": "OUI", "duedate": "2024-06-14T13:47:28+00:00", "coordonnees_geo": {"lon": 2.280449643731117, "lat": 48.85293603169479}, "nom_arrondissement_communes": "Paris", "code_insee_commune": null}, {"stationcode": "17039", "name": "Place Saint-Ferdinand", "is_installed": "OUI", "capacity": 38, "numdocksavailable": 36, "numbikesavailable": 2, "mechanical": 1, "ebike": 1, "is_renting": "OUI", "is_returning": "OUI", "duedate": "2024-06-14T13:48:54+00:00", "coordonnees_geo": {"lon": 2.288518047864942, "lat": 48.87815529789739}, "nom_arrondissement_communes": "Paris", "code_insee_commune": null}, {"stationcode": "22604", "name": "H\u00f4tel de Ville de Fontenay-aux-Roses", "is_installed": "OUI", "capacity": 34, "numdocksavailable": 32, "numbikesavailable": 2, "mechanical": 0, "ebike": 2, "is_renting": "OUI", "is_returning": "OUI", "duedate": "2024-06-14T13:41:02+00:00", "coordonnees_geo": {"lon": 2.2871455930319455, "lat": 48.790844603480856}, "nom_arrondissement_communes": "Fontenay-aux-Roses", "code_insee_commune": null}, {"stationcode": "20009", "name": "Docteurs D\u00e9j\u00e9rine - Pte de Montreuil", "is_installed": "OUI", "capacity": 20, "numdocksavailable": 12, "numbikesavailable": 7, "mechanical": 2, "ebike": 5, "is_renting": "OUI", "is_returning": "OUI", "duedate": "2024-06-14T13:43:33+00:00", "coordonnees_geo": {"lon": 2.41208288897222, "lat": 48.85398448133697}, "nom_arrondissement_communes": "Paris", "code_insee_commune": null}, {"stationcode": "10012", "name": "Vinaigriers - Magenta", "is_installed": "OUI", "capacity": 25, "numdocksavailable": 13, "numbikesavailable": 10, "mechanical": 8, "ebike": 2, "is_renting": "OUI", "is_returning": "OUI", "duedate": "2024-06-14T13:48:30+00:00", "coordonnees_geo": {"lon": 2.3593052, "lat": 48.8731167}, "nom_arrondissement_communes": "Paris", "code_insee_commune": null}, {"stationcode": "16101", "name": "Malakoff - Place de la Porte Maillot", "is_installed": "OUI", "capacity": 31, "numdocksavailable": 23, "numbikesavailable": 7, "mechanical": 6, "ebike": 1, "is_renting": "OUI", "is_returning": "OUI", "duedate": "2024-06-14T13:45:28+00:00", "coordonnees_geo": {"lon": 2.2834577411413193, "lat": 48.876733496637506}, "nom_arrondissement_communes": "Paris", "code_insee_commune": null}, {"stationcode": "42305", "name": "Vanne - Saussaies", "is_installed": "OUI", "capacity": 20, "numdocksavailable": 17, "numbikesavailable": 3, "mechanical": 1, "ebike": 2, "is_renting": "OUI", "is_returning": "OUI", "duedate": "2024-06-14T13:46:48+00:00", "coordonnees_geo": {"lon": 2.338848, "lat": 48.786404}, "nom_arrondissement_communes": "Cachan", "code_insee_commune": null}, {"stationcode": "13121", "name": "Bruneseau - Quai d'Ivry", "is_installed": "OUI", "capacity": 46, "numdocksavailable": 10, "numbikesavailable": 34, "mechanical": 31, "ebike": 3, "is_renting": "OUI", "is_returning": "OUI", "duedate": "2024-06-14T13:49:54+00:00", "coordonnees_geo": {"lon": 2.388566136360169, "lat": 48.82494563758295}, "nom_arrondissement_communes": "Ivry-sur-Seine", "code_insee_commune": null}, {"stationcode": "5107", "name": "Pontoise - La Tournelle", "is_installed": "OUI", "capacity": 23, "numdocksavailable": 7, "numbikesavailable": 15, "mechanical": 15, "ebike": 0, "is_renting": "OUI", "is_returning": "OUI", "duedate": "2024-06-14T13:49:30+00:00", "coordonnees_geo": {"lon": 2.3524542754922, "lat": 48.850458009188}, "nom_arrondissement_communes": "Paris", "code_insee_commune": null}, {"stationcode": "10018", "name": "Square Alban Satragne", "is_installed": "OUI", "capacity": 30, "numdocksavailable": 4, "numbikesavailable": 25, "mechanical": 17, "ebike": 8, "is_renting": "OUI", "is_returning": "OUI", "duedate": "2024-06-14T13:49:12+00:00", "coordonnees_geo": {"lon": 2.3559567333359, "lat": 48.875388227727}, "nom_arrondissement_communes": "Paris", "code_insee_commune": null}, {"stationcode": "32301", "name": "Mairie de Romainville", "is_installed": "OUI", "capacity": 17, "numdocksavailable": 11, "numbikesavailable": 5, "mechanical": 1, "ebike": 4, "is_renting": "OUI", "is_returning": "OUI", "duedate": "2024-06-14T13:49:59+00:00", "coordonnees_geo": {"lon": 2.435679, "lat": 48.885109}, "nom_arrondissement_communes": "Romainville", "code_insee_commune": null}, {"stationcode": "12043", "name": "Daumesnil - H\u00e9brard", "is_installed": "OUI", "capacity": 40, "numdocksavailable": 8, "numbikesavailable": 30, "mechanical": 28, "ebike": 2, "is_renting": "OUI", "is_returning": "OUI", "duedate": "2024-06-14T13:49:02+00:00", "coordonnees_geo": {"lon": 2.38474, "lat": 48.8429}, "nom_arrondissement_communes": "Paris", "code_insee_commune": null}, {"stationcode": "21219", "name": "Amaury Duval - Gabriel P\u00e9ri", "is_installed": "OUI", "capacity": 36, "numdocksavailable": 35, "numbikesavailable": 1, "mechanical": 0, "ebike": 1, "is_renting": "OUI", "is_returning": "OUI", "duedate": "2024-06-14T13:49:25+00:00", "coordonnees_geo": {"lon": 2.323841750621796, "lat": 48.81718759671675}, "nom_arrondissement_communes": "Montrouge", "code_insee_commune": null}, {"stationcode": "5014", "name": "Jean Calvin - Tournefort", "is_installed": "OUI", "capacity": 28, "numdocksavailable": 22, "numbikesavailable": 6, "mechanical": 1, "ebike": 5, "is_renting": "OUI", "is_returning": "OUI", "duedate": "2024-06-14T13:49:05+00:00", "coordonnees_geo": {"lon": 2.348489575088024, "lat": 48.84158856925782}, "nom_arrondissement_communes": "Paris", "code_insee_commune": null}, {"stationcode": "13033", "name": "Porte d'Italie", "is_installed": "OUI", "capacity": 13, "numdocksavailable": 4, "numbikesavailable": 9, "mechanical": 9, "ebike": 0, "is_renting": "OUI", "is_returning": "OUI", "duedate": "2024-06-14T13:48:51+00:00", "coordonnees_geo": {"lon": 2.360236309468746, "lat": 48.817161987718954}, "nom_arrondissement_communes": "Paris", "code_insee_commune": null}, {"stationcode": "42701", "name": "Charles Gide - Fort de Bic\u00eatre", "is_installed": "OUI", "capacity": 30, "numdocksavailable": 27, "numbikesavailable": 3, "mechanical": 0, "ebike": 3, "is_renting": "OUI", "is_returning": "OUI", "duedate": "2024-06-14T13:42:38+00:00", "coordonnees_geo": {"lon": 2.353984415531159, "lat": 48.8071937956922}, "nom_arrondissement_communes": "Le Kremlin-Bic\u00eatre", "code_insee_commune": null}, {"stationcode": "20122", "name": "Vitruve - Davout", "is_installed": "OUI", "capacity": 23, "numdocksavailable": 21, "numbikesavailable": 2, "mechanical": 0, "ebike": 2, "is_renting": "OUI", "is_returning": "OUI", "duedate": "2024-06-14T13:44:20+00:00", "coordonnees_geo": {"lon": 2.4091592812626543, "lat": 48.86053161154489}, "nom_arrondissement_communes": "Paris", "code_insee_commune": null}, {"stationcode": "16020", "name": "Place de la Porte de Passy", "is_installed": "OUI", "capacity": 36, "numdocksavailable": 32, "numbikesavailable": 4, "mechanical": 1, "ebike": 3, "is_renting": "OUI", "is_returning": "OUI", "duedate": "2024-06-14T13:49:36+00:00", "coordonnees_geo": {"lon": 2.2644165538827115, "lat": 48.857341095470794}, "nom_arrondissement_communes": "Paris", "code_insee_commune": null}, {"stationcode": "4001", "name": "Arcole - Notre-Dame", "is_installed": "OUI", "capacity": 31, "numdocksavailable": 17, "numbikesavailable": 13, "mechanical": 10, "ebike": 3, "is_renting": "OUI", "is_returning": "OUI", "duedate": "2024-06-14T13:48:42+00:00", "coordonnees_geo": {"lon": 2.3493797332048, "lat": 48.853883541328}, "nom_arrondissement_communes": "Paris", "code_insee_commune": null}, {"stationcode": "14131", "name": "Jourdan - Monticelli", "is_installed": "OUI", "capacity": 30, "numdocksavailable": 26, "numbikesavailable": 3, "mechanical": 2, "ebike": 1, "is_renting": "OUI", "is_returning": "OUI", "duedate": "2024-06-14T13:49:13+00:00", "coordonnees_geo": {"lon": 2.329095, "lat": 48.822032}, "nom_arrondissement_communes": "Paris", "code_insee_commune": null}, {"stationcode": "4002", "name": "March\u00e9 aux fleurs", "is_installed": "OUI", "capacity": 23, "numdocksavailable": 5, "numbikesavailable": 18, "mechanical": 17, "ebike": 1, "is_renting": "OUI", "is_returning": "OUI", "duedate": "2024-06-14T13:46:45+00:00", "coordonnees_geo": {"lon": 2.3473754525185, "lat": 48.855258115391}, "nom_arrondissement_communes": "Paris", "code_insee_commune": null}, {"stationcode": "44007", "name": "Camille Groult - Guy M\u00f4quet", "is_installed": "OUI", "capacity": 22, "numdocksavailable": 9, "numbikesavailable": 13, "mechanical": 12, "ebike": 1, "is_renting": "OUI", "is_returning": "OUI", "duedate": "2024-06-14T13:45:29+00:00", "coordonnees_geo": {"lon": 2.3976725712418556, "lat": 48.787482746521306}, "nom_arrondissement_communes": "Vitry-sur-Seine", "code_insee_commune": null}, {"stationcode": "10105", "name": "Mazagran - Bonne Nouvelle", "is_installed": "OUI", "capacity": 25, "numdocksavailable": 15, "numbikesavailable": 9, "mechanical": 1, "ebike": 8, "is_renting": "OUI", "is_returning": "OUI", "duedate": "2024-06-14T13:43:47+00:00", "coordonnees_geo": {"lon": 2.3511248454452, "lat": 48.870047123655}, "nom_arrondissement_communes": "Paris", "code_insee_commune": null}, {"stationcode": "17003", "name": "Jacques Kellner - Saint-Ouen", "is_installed": "OUI", "capacity": 45, "numdocksavailable": 40, "numbikesavailable": 5, "mechanical": 4, "ebike": 1, "is_renting": "OUI", "is_returning": "OUI", "duedate": "2024-06-14T13:48:31+00:00", "coordonnees_geo": {"lon": 2.327897409164145, "lat": 48.895809485802886}, "nom_arrondissement_communes": "Paris", "code_insee_commune": null}, {"stationcode": "6008", "name": "Assas - Luxembourg", "is_installed": "OUI", "capacity": 33, "numdocksavailable": 13, "numbikesavailable": 19, "mechanical": 7, "ebike": 12, "is_renting": "OUI", "is_returning": "OUI", "duedate": "2024-06-14T13:49:45+00:00", "coordonnees_geo": {"lon": 2.3334283818759, "lat": 48.843734468779}, "nom_arrondissement_communes": "Paris", "code_insee_commune": null}, {"stationcode": "13109", "name": "Brillat-Savarin - K\u00fcss", "is_installed": "OUI", "capacity": 21, "numdocksavailable": 15, "numbikesavailable": 6, "mechanical": 5, "ebike": 1, "is_renting": "OUI", "is_returning": "OUI", "duedate": "2024-06-14T13:47:11+00:00", "coordonnees_geo": {"lon": 2.350422, "lat": 48.822203}, "nom_arrondissement_communes": "Paris", "code_insee_commune": null}, {"stationcode": "42209", "name": "Place de l'Europe - Quai de Bercy", "is_installed": "OUI", "capacity": 17, "numdocksavailable": 2, "numbikesavailable": 15, "mechanical": 13, "ebike": 2, "is_renting": "OUI", "is_returning": "OUI", "duedate": "2024-06-14T13:49:43+00:00", "coordonnees_geo": {"lon": 2.3945679143071175, "lat": 48.82529858840266}, "nom_arrondissement_communes": "Charenton-le-Pont", "code_insee_commune": null}, {"stationcode": "43001", "name": "Paris - Laiti\u00e8res", "is_installed": "OUI", "capacity": 22, "numdocksavailable": 12, "numbikesavailable": 9, "mechanical": 2, "ebike": 7, "is_renting": "OUI", "is_returning": "OUI", "duedate": "2024-06-14T13:49:52+00:00", "coordonnees_geo": {"lon": 2.4207553267478947, "lat": 48.84630274151258}, "nom_arrondissement_communes": "Vincennes", "code_insee_commune": null}, {"stationcode": "13106", "name": "Bobillot - Paulin Mery", "is_installed": "OUI", "capacity": 23, "numdocksavailable": 17, "numbikesavailable": 4, "mechanical": 1, "ebike": 3, "is_renting": "OUI", "is_returning": "OUI", "duedate": "2024-06-14T13:48:02+00:00", "coordonnees_geo": {"lon": 2.3543356766748507, "lat": 48.829899841747384}, "nom_arrondissement_communes": "Paris", "code_insee_commune": null}, {"stationcode": "15064", "name": "Javel - Andr\u00e9 Citro\u00ebn", "is_installed": "OUI", "capacity": 45, "numdocksavailable": 18, "numbikesavailable": 27, "mechanical": 24, "ebike": 3, "is_renting": "OUI", "is_returning": "OUI", "duedate": "2024-06-14T13:49:55+00:00", "coordonnees_geo": {"lon": 2.2786368057131767, "lat": 48.846276485475}, "nom_arrondissement_communes": "Paris", "code_insee_commune": null}, {"stationcode": "9114", "name": "Faubourg Poissonni\u00e8re - Dunkerque", "is_installed": "OUI", "capacity": 30, "numdocksavailable": 29, "numbikesavailable": 1, "mechanical": 0, "ebike": 1, "is_renting": "OUI", "is_returning": "OUI", "duedate": "2024-06-14T13:43:12+00:00", "coordonnees_geo": {"lon": 2.349934279918671, "lat": 48.880883445404436}, "nom_arrondissement_communes": "Paris", "code_insee_commune": null}, {"stationcode": "47001", "name": "Place de la Gare", "is_installed": "OUI", "capacity": 46, "numdocksavailable": 16, "numbikesavailable": 29, "mechanical": 27, "ebike": 2, "is_renting": "OUI", "is_returning": "OUI", "duedate": "2024-06-14T13:49:43+00:00", "coordonnees_geo": {"lon": 2.4275037646293645, "lat": 48.80253358011283}, "nom_arrondissement_communes": "Maisons-Alfort", "code_insee_commune": null}, {"stationcode": "13032", "name": "Italie - Jardin Joan Miro", "is_installed": "OUI", "capacity": 26, "numdocksavailable": 18, "numbikesavailable": 7, "mechanical": 2, "ebike": 5, "is_renting": "OUI", "is_returning": "OUI", "duedate": "2024-06-14T13:48:45+00:00", "coordonnees_geo": {"lon": 2.3592948541045193, "lat": 48.81990914045756}, "nom_arrondissement_communes": "Paris", "code_insee_commune": null}, {"stationcode": "10165", "name": "Gare de l'Est - Place du 11 Novembre 1918", "is_installed": "OUI", "capacity": 40, "numdocksavailable": 25, "numbikesavailable": 11, "mechanical": 6, "ebike": 5, "is_renting": "OUI", "is_returning": "OUI", "duedate": "2024-06-14T13:49:41+00:00", "coordonnees_geo": {"lon": 2.3585464, "lat": 48.876327}, "nom_arrondissement_communes": "Paris", "code_insee_commune": null}, {"stationcode": "22303", "name": "Lucien Lanternier - Le Luth", "is_installed": "OUI", "capacity": 27, "numdocksavailable": 12, "numbikesavailable": 15, "mechanical": 12, "ebike": 3, "is_renting": "OUI", "is_returning": "OUI", "duedate": "2024-06-14T13:45:00+00:00", "coordonnees_geo": {"lon": 2.2889783978462224, "lat": 48.93159430558871}, "nom_arrondissement_communes": "Gennevilliers", "code_insee_commune": null}, {"stationcode": "92001", "name": "Mairie de quartier du Plateau - Mont-Val\u00e9rien", "is_installed": "OUI", "capacity": 20, "numdocksavailable": 17, "numbikesavailable": 3, "mechanical": 0, "ebike": 3, "is_renting": "OUI", "is_returning": "OUI", "duedate": "2024-06-14T13:43:12+00:00", "coordonnees_geo": {"lon": 2.2072437, "lat": 48.8799933}, "nom_arrondissement_communes": "Nanterre", "code_insee_commune": null}, {"stationcode": "43010", "name": "La Jarry - Place Diderot", "is_installed": "OUI", "capacity": 25, "numdocksavailable": 25, "numbikesavailable": 0, "mechanical": 0, "ebike": 0, "is_renting": "OUI", "is_returning": "OUI", "duedate": "2024-06-14T13:45:56+00:00", "coordonnees_geo": {"lon": 2.452013790607453, "lat": 48.849726940367326}, "nom_arrondissement_communes": "Vincennes", "code_insee_commune": null}, {"stationcode": "16002", "name": "Pergol\u00e8se - Malakoff", "is_installed": "OUI", "capacity": 38, "numdocksavailable": 30, "numbikesavailable": 4, "mechanical": 1, "ebike": 3, "is_renting": "OUI", "is_returning": "OUI", "duedate": "2024-06-14T13:48:01+00:00", "coordonnees_geo": {"lon": 2.2842781618237495, "lat": 48.87521088779225}, "nom_arrondissement_communes": "Paris", "code_insee_commune": null}, {"stationcode": "15004", "name": "Vaugirard - Pasteur", "is_installed": "OUI", "capacity": 21, "numdocksavailable": 8, "numbikesavailable": 12, "mechanical": 3, "ebike": 9, "is_renting": "OUI", "is_returning": "OUI", "duedate": "2024-06-14T13:47:42+00:00", "coordonnees_geo": {"lon": 2.3154367133975033, "lat": 48.84040868803496}, "nom_arrondissement_communes": "Paris", "code_insee_commune": null}, {"stationcode": "22408", "name": "Place du 14 Juillet", "is_installed": "OUI", "capacity": 22, "numdocksavailable": 19, "numbikesavailable": 2, "mechanical": 1, "ebike": 1, "is_renting": "OUI", "is_returning": "OUI", "duedate": "2024-06-14T13:47:26+00:00", "coordonnees_geo": {"lon": 2.30119988322258, "lat": 48.8192669595252}, "nom_arrondissement_communes": "Malakoff", "code_insee_commune": null}, {"stationcode": "15005", "name": "Place Jacques et Th\u00e9r\u00e8se Tr\u00e9fou\u00ebl", "is_installed": "OUI", "capacity": 43, "numdocksavailable": 21, "numbikesavailable": 19, "mechanical": 18, "ebike": 1, "is_renting": "OUI", "is_returning": "OUI", "duedate": "2024-06-14T13:49:42+00:00", "coordonnees_geo": {"lon": 2.3125657439232, "lat": 48.842726498317}, "nom_arrondissement_communes": "Paris", "code_insee_commune": null}, {"stationcode": "18006", "name": "Square Louise Michel", "is_installed": "OUI", "capacity": 36, "numdocksavailable": 32, "numbikesavailable": 2, "mechanical": 0, "ebike": 2, "is_renting": "OUI", "is_returning": "OUI", "duedate": "2024-06-14T13:44:55+00:00", "coordonnees_geo": {"lon": 2.3441386967897, "lat": 48.884687354509}, "nom_arrondissement_communes": "Paris", "code_insee_commune": null}, {"stationcode": "13044", "name": "Place Jeanne d'Arc", "is_installed": "OUI", "capacity": 36, "numdocksavailable": 28, "numbikesavailable": 8, "mechanical": 3, "ebike": 5, "is_renting": "OUI", "is_returning": "OUI", "duedate": "2024-06-14T13:49:13+00:00", "coordonnees_geo": {"lon": 2.369126, "lat": 48.829575}, "nom_arrondissement_communes": "Paris", "code_insee_commune": null}, {"stationcode": "4020", "name": "Place Edmond Michelet", "is_installed": "OUI", "capacity": 23, "numdocksavailable": 2, "numbikesavailable": 21, "mechanical": 12, "ebike": 9, "is_renting": "OUI", "is_returning": "OUI", "duedate": "2024-06-14T13:49:22+00:00", "coordonnees_geo": {"lon": 2.3500636965036, "lat": 48.860134890542}, "nom_arrondissement_communes": "Paris", "code_insee_commune": null}, {"stationcode": "23004", "name": "Paul Vaillant-Couturier - Victor Hugo", "is_installed": "OUI", "capacity": 36, "numdocksavailable": 15, "numbikesavailable": 21, "mechanical": 16, "ebike": 5, "is_renting": "OUI", "is_returning": "OUI", "duedate": "2024-06-14T13:49:54+00:00", "coordonnees_geo": {"lon": 2.293848017974069, "lat": 48.89819702263572}, "nom_arrondissement_communes": "Levallois-Perret", "code_insee_commune": null}, {"stationcode": "16001", "name": "Portugais - Kl\u00e9ber", "is_installed": "OUI", "capacity": 26, "numdocksavailable": 25, "numbikesavailable": 1, "mechanical": 1, "ebike": 0, "is_renting": "OUI", "is_returning": "OUI", "duedate": "2024-06-14T13:48:34+00:00", "coordonnees_geo": {"lon": 2.2937349, "lat": 48.8712148}, "nom_arrondissement_communes": "Paris", "code_insee_commune": null}]