[{"stationcode": "4019", "name": "Clo\u00eetre Saint-Merri - Renard", "is_installed": "OUI", "capacity": 32, "numdocksavailable": 0, "numbikesavailable": 31, "mechanical": 19, "ebike": 12, "is_renting": "OUI", "is_returning": "OUI", "duedate": "2024-06-14T12:48:44+00:00", "coordonnees_geo": {"lon": 2.3518279194832, "lat": 48.858835448898}, "nom_arrondissement_communes": "Paris", "code_insee_commune": null}, {"stationcode": "3102", "name": "Bourg l'Abb\u00e9 - Saint-Martin", "is_installed": "OUI", "capacity": 42, "numdocksavailable": 7, "numbikesavailable": 33, "mechanical": 25, "ebike": 8, "is_renting": "OUI", "is_returning": "OUI", "duedate": "2024-06-14T12:49:33+00:00", "coordonnees_geo": {"lon": 2.352406270802021, "lat": 48.86393331949257}, "nom_arrondissement_communes": "Paris", "code_insee_commune": null}, {"stationcode": "21315", "name": "Jules Guesdes - G\u00e9n\u00e9ral de Gaulle", "is_installed": "OUI", "capacity": 24, "numdocksavailable": 18, "numbikesavailable": 5, "mechanical": 2, "ebike": 3, "is_renting": "OUI", "is_returning": "OUI", "duedate": "2024-06-14T12:49:55+00:00", "coordonnees_geo": {"lon": 2.278934195637703, "lat": 48.81930581291959}, "nom_arrondissement_communes": "Issy-les-Moulineaux", "code_insee_commune": null}, {"stationcode": "2112", "name": "Biblioth\u00e8que Nationale - Richelieu", "is_installed": "OUI", "capacity": 17, "numdocksavailable": 0, "numbikesavailable": 17, "mechanical": 11, "ebike": 6, "is_renting": "OUI", "is_returning": "OUI", "duedate": "2024-06-14T12:47:49+00:00", "coordonnees_geo": {"lon": 2.3380893096328, "lat": 48.868288993515}, "nom_arrondissement_communes": "Paris", "code_insee_commune": null}, {"stationcode": "6022", "name": "March\u00e9 Saint-Germain", "is_installed": "OUI", "capacity": 21, "numdocksavailable": 10, "numbikesavailable": 10, "mechanical": 9, "ebike": 1, "is_renting": "OUI", "is_returning": "OUI", "duedate": "2024-06-14T12:49:52+00:00", "coordonnees_geo": {"lon": 2.335500307381153, "lat": 48.85165625855281}, "nom_arrondissement_communes": "Paris", "code_insee_commune": null}, {"stationcode": "21303", "name": "Jean Monnet - Iles", "is_installed": "OUI", "capacity": 32, "numdocksavailable": 19, "numbikesavailable": 12, "mechanical": 10, "ebike": 2, "is_renting": "OUI", "is_returning": "OUI", "duedate": "2024-06-14T12:47:44+00:00", "coordonnees_geo": {"lon": 2.2497073194874866, "lat": 48.823393984057304}, "nom_arrondissement_communes": "Issy-les-Moulineaux", "code_insee_commune": null}, {"stationcode": "17024", "name": "Villiers - Batignolles", "is_installed": "OUI", "capacity": 23, "numdocksavailable": 18, "numbikesavailable": 5, "mechanical": 1, "ebike": 4, "is_renting": "OUI", "is_returning": "OUI", "duedate": "2024-06-14T12:47:04+00:00", "coordonnees_geo": {"lon": 2.31653843075037, "lat": 48.88125253846116}, "nom_arrondissement_communes": "Paris", "code_insee_commune": null}, {"stationcode": "15127", "name": "Place Charles Michels", "is_installed": "OUI", "capacity": 37, "numdocksavailable": 2, "numbikesavailable": 35, "mechanical": 34, "ebike": 1, "is_renting": "OUI", "is_returning": "OUI", "duedate": "2024-06-14T12:49:06+00:00", "coordonnees_geo": {"lon": 2.28502, "lat": 48.846401}, "nom_arrondissement_communes": "Paris", "code_insee_commune": null}, {"stationcode": "14032", "name": "Mairie du 14\u00e8me", "is_installed": "OUI", "capacity": 32, "numdocksavailable": 27, "numbikesavailable": 4, "mechanical": 3, "ebike": 1, "is_renting": "OUI", "is_returning": "OUI", "duedate": "2024-06-14T12:47:28+00:00", "coordonnees_geo": {"lon": 2.3254923149943, "lat": 48.83254578123}, "nom_arrondissement_communes": "Paris", "code_insee_commune": null}, {"stationcode": "41401", "name": "Marne - Charles de Gaulle", "is_installed": "OUI", "capacity": 27, "numdocksavailable": 15, "numbikesavailable": 11, "mechanical": 8, "ebike": 3, "is_renting": "OUI", "is_returning": "OUI", "duedate": "2024-06-14T12:45:43+00:00", "coordonnees_geo": {"lon": 2.4121668934822087, "lat": 48.815071719544434}, "nom_arrondissement_communes": "Alfortville", "code_insee_commune": null}, {"stationcode": "6002", "name": "Saint-Beno\u00eet - Jacob", "is_installed": "OUI", "capacity": 23, "numdocksavailable": 10, "numbikesavailable": 13, "mechanical": 9, "ebike": 4, "is_renting": "OUI", "is_returning": "OUI", "duedate": "2024-06-14T12:46:24+00:00", "coordonnees_geo": {"lon": 2.3334722220897675, "lat": 48.85545136013941}, "nom_arrondissement_communes": "Paris", "code_insee_commune": null}, {"stationcode": "20044", "name": "Davout - Volga", "is_installed": "OUI", "capacity": 28, "numdocksavailable": 18, "numbikesavailable": 10, "mechanical": 3, "ebike": 7, "is_renting": "OUI", "is_returning": "OUI", "duedate": "2024-06-14T12:47:36+00:00", "coordonnees_geo": {"lon": 2.410522909779111, "lat": 48.852919679957296}, "nom_arrondissement_communes": "Paris", "code_insee_commune": null}, {"stationcode": "2013", "name": "Favart - Italiens", "is_installed": "OUI", "capacity": 17, "numdocksavailable": 3, "numbikesavailable": 14, "mechanical": 5, "ebike": 9, "is_renting": "OUI", "is_returning": "OUI", "duedate": "2024-06-14T12:47:28+00:00", "coordonnees_geo": {"lon": 2.3382901058508, "lat": 48.871446353921}, "nom_arrondissement_communes": "Paris", "code_insee_commune": null}, {"stationcode": "10033", "name": "Gare du Nord - Saint-Vincent de Paul", "is_installed": "OUI", "capacity": 24, "numdocksavailable": 20, "numbikesavailable": 3, "mechanical": 2, "ebike": 1, "is_renting": "OUI", "is_returning": "OUI", "duedate": "2024-06-14T12:46:09+00:00", "coordonnees_geo": {"lon": 2.3524305148385, "lat": 48.880955741648}, "nom_arrondissement_communes": "Paris", "code_insee_commune": null}, {"stationcode": "5007", "name": "Ecoles - Carmes", "is_installed": "OUI", "capacity": 36, "numdocksavailable": 4, "numbikesavailable": 32, "mechanical": 22, "ebike": 10, "is_renting": "OUI", "is_returning": "OUI", "duedate": "2024-06-14T12:47:34+00:00", "coordonnees_geo": {"lon": 2.3473486304283147, "lat": 48.848904447989405}, "nom_arrondissement_communes": "Paris", "code_insee_commune": null}, {"stationcode": "20022", "name": "Porte de Bagnolet", "is_installed": "OUI", "capacity": 33, "numdocksavailable": 33, "numbikesavailable": 0, "mechanical": 0, "ebike": 0, "is_renting": "OUI", "is_returning": "OUI", "duedate": "2024-06-14T12:43:36+00:00", "coordonnees_geo": {"lon": 2.408344637349607, "lat": 48.864707139122984}, "nom_arrondissement_communes": "Paris", "code_insee_commune": null}, {"stationcode": "4006", "name": "Bourdon - Pont Morland", "is_installed": "OUI", "capacity": 52, "numdocksavailable": 3, "numbikesavailable": 48, "mechanical": 45, "ebike": 3, "is_renting": "OUI", "is_returning": "OUI", "duedate": "2024-06-14T12:49:56+00:00", "coordonnees_geo": {"lon": 2.3659356, "lat": 48.8478103}, "nom_arrondissement_communes": "Paris", "code_insee_commune": null}, {"stationcode": "10008", "name": "Cit\u00e9 Riverin - Ch\u00e2teau d'Eau", "is_installed": "OUI", "capacity": 18, "numdocksavailable": 8, "numbikesavailable": 10, "mechanical": 7, "ebike": 3, "is_renting": "OUI", "is_returning": "OUI", "duedate": "2024-06-14T12:49:06+00:00", "coordonnees_geo": {"lon": 2.358739863900845, "lat": 48.870702423554306}, "nom_arrondissement_communes": "Paris", "code_insee_commune": null}, {"stationcode": "16036", "name": "Porte Molitor", "is_installed": "OUI", "capacity": 60, "numdocksavailable": 19, "numbikesavailable": 40, "mechanical": 27, "ebike": 13, "is_renting": "OUI", "is_returning": "OUI", "duedate": "2024-06-14T12:47:41+00:00", "coordonnees_geo": {"lon": 2.2569015249609947, "lat": 48.84524763511433}, "nom_arrondissement_communes": "Paris", "code_insee_commune": null}, {"stationcode": "42505", "name": "Charles Fr\u00e9rot - Albert Guilpin", "is_installed": "OUI", "capacity": 30, "numdocksavailable": 19, "numbikesavailable": 10, "mechanical": 9, "ebike": 1, "is_renting": "OUI", "is_returning": "OUI", "duedate": "2024-06-14T12:45:19+00:00", "coordonnees_geo": {"lon": 2.3505029082298283, "lat": 48.8155839183714}, "nom_arrondissement_communes": "Gentilly", "code_insee_commune": null}, {"stationcode": "8117", "name": "Place de la Madeleine - Royale", "is_installed": "OUI", "capacity": 43, "numdocksavailable": 4, "numbikesavailable": 39, "mechanical": 25, "ebike": 14, "is_renting": "OUI", "is_returning": "OUI", "duedate": "2024-06-14T12:48:59+00:00", "coordonnees_geo": {"lon": 2.324421107769, "lat": 48.869228052648}, "nom_arrondissement_communes": "Paris", "code_insee_commune": null}, {"stationcode": "12015", "name": "Place de la Nation - Picpus", "is_installed": "OUI", "capacity": 36, "numdocksavailable": 33, "numbikesavailable": 3, "mechanical": 0, "ebike": 3, "is_renting": "OUI", "is_returning": "OUI", "duedate": "2024-06-14T12:44:11+00:00", "coordonnees_geo": {"lon": 2.4001130461693, "lat": 48.846821681548}, "nom_arrondissement_communes": "Paris", "code_insee_commune": null}, {"stationcode": "14001", "name": "Edgar Quinet - Gait\u00e9", "is_installed": "OUI", "capacity": 27, "numdocksavailable": 18, "numbikesavailable": 8, "mechanical": 2, "ebike": 6, "is_renting": "OUI", "is_returning": "OUI", "duedate": "2024-06-14T12:47:34+00:00", "coordonnees_geo": {"lon": 2.324595451355, "lat": 48.841160928966}, "nom_arrondissement_communes": "Paris", "code_insee_commune": null}, {"stationcode": "26004", "name": "Gare RER les Gr\u00e9sillons", "is_installed": "OUI", "capacity": 22, "numdocksavailable": 11, "numbikesavailable": 8, "mechanical": 5, "ebike": 3, "is_renting": "OUI", "is_returning": "OUI", "duedate": "2024-06-14T12:48:12+00:00", "coordonnees_geo": {"lon": 2.31458459136273, "lat": 48.919898633572764}, "nom_arrondissement_communes": "Asni\u00e8res-sur-Seine", "code_insee_commune": null}, {"stationcode": "16042", "name": "Murat - Porte de Saint-Cloud", "is_installed": "OUI", "capacity": 38, "numdocksavailable": 27, "numbikesavailable": 11, "mechanical": 10, "ebike": 1, "is_renting": "OUI", "is_returning": "OUI", "duedate": "2024-06-14T12:46:46+00:00", "coordonnees_geo": {"lon": 2.2577651962637906, "lat": 48.83750862621299}, "nom_arrondissement_communes": "Paris", "code_insee_commune": null}, {"stationcode": "15008", "name": "S\u00e8vres - Lecourbe", "is_installed": "OUI", "capacity": 62, "numdocksavailable": 39, "numbikesavailable": 22, "mechanical": 19, "ebike": 3, "is_renting": "OUI", "is_returning": "OUI", "duedate": "2024-06-14T12:48:03+00:00", "coordonnees_geo": {"lon": 2.3110086, "lat": 48.8447677}, "nom_arrondissement_communes": "Paris", "code_insee_commune": null}, {"stationcode": "11112", "name": "Jules Vall\u00e8s - Charonne", "is_installed": "OUI", "capacity": 23, "numdocksavailable": 21, "numbikesavailable": 0, "mechanical": 0, "ebike": 0, "is_renting": "OUI", "is_returning": "OUI", "duedate": "2024-06-14T12:40:36+00:00", "coordonnees_geo": {"lon": 2.384767457842827, "lat": 48.85428437993525}, "nom_arrondissement_communes": "Paris", "code_insee_commune": null}, {"stationcode": "22201", "name": "Henri Ravera - Gabriel P\u00e9ri", "is_installed": "OUI", "capacity": 30, "numdocksavailable": 29, "numbikesavailable": 1, "mechanical": 0, "ebike": 1, "is_renting": "OUI", "is_returning": "OUI", "duedate": "2024-06-14T12:43:28+00:00", "coordonnees_geo": {"lon": 2.302115857601166, "lat": 48.79722273833844}, "nom_arrondissement_communes": "Bagneux", "code_insee_commune": null}, {"stationcode": "18202", "name": "Diane Arbus", "is_installed": "OUI", "capacity": 38, "numdocksavailable": 18, "numbikesavailable": 19, "mechanical": 9, "ebike": 10, "is_renting": "OUI", "is_returning": "OUI", "duedate": "2024-06-14T12:48:43+00:00", "coordonnees_geo": {"lon": 2.3524022474885, "lat": 48.898800717199}, "nom_arrondissement_communes": "Paris", "code_insee_commune": null}, {"stationcode": "6010", "name": "Chevreuse - Montparnasse", "is_installed": "OUI", "capacity": 15, "numdocksavailable": 6, "numbikesavailable": 9, "mechanical": 5, "ebike": 4, "is_renting": "OUI", "is_returning": "OUI", "duedate": "2024-06-14T12:49:20+00:00", "coordonnees_geo": {"lon": 2.3315522167367, "lat": 48.841739161231}, "nom_arrondissement_communes": "Paris", "code_insee_commune": null}, {"stationcode": "5015", "name": "Ep\u00e9e de Bois - Mouffetard", "is_installed": "OUI", "capacity": 63, "numdocksavailable": 24, "numbikesavailable": 38, "mechanical": 20, "ebike": 18, "is_renting": "OUI", "is_returning": "OUI", "duedate": "2024-06-14T12:48:05+00:00", "coordonnees_geo": {"lon": 2.350066713988781, "lat": 48.841508690388835}, "nom_arrondissement_communes": "Paris", "code_insee_commune": null}, {"stationcode": "16037", "name": "Molitor - Michel-Ange", "is_installed": "OUI", "capacity": 51, "numdocksavailable": 39, "numbikesavailable": 11, "mechanical": 8, "ebike": 3, "is_renting": "OUI", "is_returning": "OUI", "duedate": "2024-06-14T12:48:25+00:00", "coordonnees_geo": {"lon": 2.26211277356597, "lat": 48.845182081538034}, "nom_arrondissement_communes": "Paris", "code_insee_commune": null}, {"stationcode": "47003", "name": "Charentonneau - Maisons Alfort", "is_installed": "OUI", "capacity": 20, "numdocksavailable": 6, "numbikesavailable": 14, "mechanical": 9, "ebike": 5, "is_renting": "OUI", "is_returning": "OUI", "duedate": "2024-06-14T12:48:15+00:00", "coordonnees_geo": {"lon": 2.443288456496946, "lat": 48.809932980484355}, "nom_arrondissement_communes": "Maisons-Alfort", "code_insee_commune": null}, {"stationcode": "20034", "name": "Sorbier - M\u00e9nilmontant", "is_installed": "OUI", "capacity": 24, "numdocksavailable": 18, "numbikesavailable": 5, "mechanical": 0, "ebike": 5, "is_renting": "OUI", "is_returning": "OUI", "duedate": "2024-06-14T12:49:39+00:00", "coordonnees_geo": {"lon": 2.3897721245884895, "lat": 48.86854239566069}, "nom_arrondissement_communes": "Paris", "code_insee_commune": null}, {"stationcode": "7012", "name": "Cit\u00e9 Vaneau", "is_installed": "OUI", "capacity": 26, "numdocksavailable": 10, "numbikesavailable": 16, "mechanical": 11, "ebike": 5, "is_renting": "OUI", "is_returning": "OUI", "duedate": "2024-06-14T12:49:24+00:00", "coordonnees_geo": {"lon": 2.319614924490452, "lat": 48.8542210666207}, "nom_arrondissement_communes": "Paris", "code_insee_commune": null}, {"stationcode": "20001", "name": "Place de la Nation - Charonne", "is_installed": "OUI", "capacity": 36, "numdocksavailable": 33, "numbikesavailable": 3, "mechanical": 2, "ebike": 1, "is_renting": "OUI", "is_returning": "OUI", "duedate": "2024-06-14T12:48:57+00:00", "coordonnees_geo": {"lon": 2.3997623859813, "lat": 48.848364667777}, "nom_arrondissement_communes": "Paris", "code_insee_commune": null}, {"stationcode": "20008", "name": "Pyr\u00e9n\u00e9es - Avron", "is_installed": "OUI", "capacity": 32, "numdocksavailable": 29, "numbikesavailable": 3, "mechanical": 1, "ebike": 2, "is_renting": "OUI", "is_returning": "OUI", "duedate": "2024-06-14T12:48:55+00:00", "coordonnees_geo": {"lon": 2.405871044529538, "lat": 48.853246898211985}, "nom_arrondissement_communes": "Paris", "code_insee_commune": null}, {"stationcode": "16102", "name": "Pergol\u00e8se - Marbeau", "is_installed": "OUI", "capacity": 27, "numdocksavailable": 24, "numbikesavailable": 3, "mechanical": 0, "ebike": 3, "is_renting": "OUI", "is_returning": "OUI", "duedate": "2024-06-14T12:48:22+00:00", "coordonnees_geo": {"lon": 2.281512522529856, "lat": 48.87356870686902}, "nom_arrondissement_communes": "Paris", "code_insee_commune": null}, {"stationcode": "21309", "name": "Mairie d'Issy", "is_installed": "OUI", "capacity": 41, "numdocksavailable": 18, "numbikesavailable": 23, "mechanical": 17, "ebike": 6, "is_renting": "OUI", "is_returning": "OUI", "duedate": "2024-06-14T12:49:04+00:00", "coordonnees_geo": {"lon": 2.27231115102768, "lat": 48.8237677924683}, "nom_arrondissement_communes": "Issy-les-Moulineaux", "code_insee_commune": null}, {"stationcode": "20024", "name": "Gambetta - P\u00e8re Lachaise", "is_installed": "OUI", "capacity": 29, "numdocksavailable": 27, "numbikesavailable": 2, "mechanical": 0, "ebike": 2, "is_renting": "OUI", "is_returning": "OUI", "duedate": "2024-06-14T12:48:29+00:00", "coordonnees_geo": {"lon": 2.398228667282044, "lat": 48.864295696165875}, "nom_arrondissement_communes": "Paris", "code_insee_commune": null}, {"stationcode": "3010", "name": "Beaubourg - Michel-le-Comte", "is_installed": "OUI", "capacity": 17, "numdocksavailable": 0, "numbikesavailable": 17, "mechanical": 12, "ebike": 5, "is_renting": "OUI", "is_returning": "OUI", "duedate": "2024-06-14T12:49:01+00:00", "coordonnees_geo": {"lon": 2.3543103039265, "lat": 48.862534941806}, "nom_arrondissement_communes": "Paris", "code_insee_commune": null}, {"stationcode": "12156", "name": "Niger - Soult", "is_installed": "OUI", "capacity": 24, "numdocksavailable": 13, "numbikesavailable": 11, "mechanical": 6, "ebike": 5, "is_renting": "OUI", "is_returning": "OUI", "duedate": "2024-06-14T12:44:31+00:00", "coordonnees_geo": {"lon": 2.410361237220498, "lat": 48.84369906369085}, "nom_arrondissement_communes": "Paris", "code_insee_commune": null}, {"stationcode": "13005", "name": "Cordeli\u00e8res - Arago", "is_installed": "OUI", "capacity": 46, "numdocksavailable": 32, "numbikesavailable": 11, "mechanical": 9, "ebike": 2, "is_renting": "OUI", "is_returning": "OUI", "duedate": "2024-06-14T12:49:12+00:00", "coordonnees_geo": {"lon": 2.348572461702221, "lat": 48.83548071896613}, "nom_arrondissement_communes": "Paris", "code_insee_commune": null}, {"stationcode": "19002", "name": "Centquatre", "is_installed": "OUI", "capacity": 42, "numdocksavailable": 37, "numbikesavailable": 5, "mechanical": 3, "ebike": 2, "is_renting": "OUI", "is_returning": "OUI", "duedate": "2024-06-14T12:49:49+00:00", "coordonnees_geo": {"lon": 2.3707854375243187, "lat": 48.88933353845543}, "nom_arrondissement_communes": "Paris", "code_insee_commune": null}, {"stationcode": "6104", "name": "Herschel - Observatoire", "is_installed": "OUI", "capacity": 37, "numdocksavailable": 32, "numbikesavailable": 4, "mechanical": 0, "ebike": 4, "is_renting": "OUI", "is_returning": "OUI", "duedate": "2024-06-14T12:42:43+00:00", "coordonnees_geo": {"lon": 2.3376645147800446, "lat": 48.84342376221923}, "nom_arrondissement_communes": "Paris", "code_insee_commune": null}, {"stationcode": "17019", "name": "Phalsbourg - Villiers", "is_installed": "OUI", "capacity": 20, "numdocksavailable": 13, "numbikesavailable": 6, "mechanical": 4, "ebike": 2, "is_renting": "OUI", "is_returning": "OUI", "duedate": "2024-06-14T12:44:14+00:00", "coordonnees_geo": {"lon": 2.3090453445911407, "lat": 48.88242307900951}, "nom_arrondissement_communes": "Paris", "code_insee_commune": null}, {"stationcode": "19201", "name": "Petit - Georges Thill", "is_installed": "OUI", "capacity": 23, "numdocksavailable": 16, "numbikesavailable": 6, "mechanical": 4, "ebike": 2, "is_renting": "OUI", "is_returning": "OUI", "duedate": "2024-06-14T12:43:34+00:00", "coordonnees_geo": {"lon": 2.3895753175020222, "lat": 48.88603131999171}, "nom_arrondissement_communes": "Paris", "code_insee_commune": null}, {"stationcode": "41405", "name": "Place de l'Europe - Alfortville", "is_installed": "OUI", "capacity": 24, "numdocksavailable": 10, "numbikesavailable": 14, "mechanical": 8, "ebike": 6, "is_renting": "OUI", "is_returning": "OUI", "duedate": "2024-06-14T12:47:51+00:00", "coordonnees_geo": {"lon": 2.4284800887107854, "lat": 48.78913702405837}, "nom_arrondissement_communes": "Alfortville", "code_insee_commune": null}, {"stationcode": "20006", "name": "Pyr\u00e9n\u00e9es - Plaine", "is_installed": "OUI", "capacity": 12, "numdocksavailable": 10, "numbikesavailable": 2, "mechanical": 1, "ebike": 1, "is_renting": "OUI", "is_returning": "OUI", "duedate": "2024-06-14T12:46:22+00:00", "coordonnees_geo": {"lon": 2.4062821269035, "lat": 48.85026702458}, "nom_arrondissement_communes": "Paris", "code_insee_commune": null}, {"stationcode": "21026", "name": "S\u00e8vres - G\u00e9n\u00e9ral Leclerc", "is_installed": "OUI", "capacity": 30, "numdocksavailable": 17, "numbikesavailable": 13, "mechanical": 8, "ebike": 5, "is_renting": "OUI", "is_returning": "OUI", "duedate": "2024-06-14T12:46:42+00:00", "coordonnees_geo": {"lon": 2.231426239013672, "lat": 48.83012155905476}, "nom_arrondissement_communes": "Boulogne-Billancourt", "code_insee_commune": null}, {"stationcode": "32013", "name": "Saint-Denis - Universit\u00e9", "is_installed": "OUI", "capacity": 24, "numdocksavailable": 7, "numbikesavailable": 16, "mechanical": 1, "ebike": 15, "is_renting": "OUI", "is_returning": "OUI", "duedate": "2024-06-14T12:49:43+00:00", "coordonnees_geo": {"lon": 2.3638297989964485, "lat": 48.94563430946964}, "nom_arrondissement_communes": "Saint-Denis", "code_insee_commune": null}, {"stationcode": "7021", "name": "Bosquet - Saint-Dominique", "is_installed": "OUI", "capacity": 28, "numdocksavailable": 18, "numbikesavailable": 9, "mechanical": 9, "ebike": 0, "is_renting": "OUI", "is_returning": "OUI", "duedate": "2024-06-14T12:48:31+00:00", "coordonnees_geo": {"lon": 2.303716580234576, "lat": 48.85865170952645}, "nom_arrondissement_communes": "Paris", "code_insee_commune": null}, {"stationcode": "14137", "name": "Maurice d'Ocagne - General Maudhuy", "is_installed": "OUI", "capacity": 30, "numdocksavailable": 17, "numbikesavailable": 13, "mechanical": 12, "ebike": 1, "is_renting": "OUI", "is_returning": "OUI", "duedate": "2024-06-14T12:49:57+00:00", "coordonnees_geo": {"lon": 2.3158789426088333, "lat": 48.82414282524159}, "nom_arrondissement_communes": "Paris", "code_insee_commune": null}, {"stationcode": "14019", "name": "Sarrette - G\u00e9n\u00e9ral Leclerc", "is_installed": "OUI", "capacity": 22, "numdocksavailable": 19, "numbikesavailable": 3, "mechanical": 0, "ebike": 3, "is_renting": "OUI", "is_returning": "OUI", "duedate": "2024-06-14T12:48:48+00:00", "coordonnees_geo": {"lon": 2.3264128693982, "lat": 48.825030852925}, "nom_arrondissement_communes": "Paris", "code_insee_commune": null}, {"stationcode": "31709", "name": "Place de la Fraternit\u00e9", "is_installed": "OUI", "capacity": 22, "numdocksavailable": 17, "numbikesavailable": 3, "mechanical": 0, "ebike": 3, "is_renting": "OUI", "is_returning": "OUI", "duedate": "2024-06-14T12:46:46+00:00", "coordonnees_geo": {"lon": 2.422847449779511, "lat": 48.85716405838368}, "nom_arrondissement_communes": "Montreuil", "code_insee_commune": null}, {"stationcode": "10027", "name": "Dunkerque - Alsace", "is_installed": "OUI", "capacity": 20, "numdocksavailable": 16, "numbikesavailable": 2, "mechanical": 1, "ebike": 1, "is_renting": "OUI", "is_returning": "OUI", "duedate": "2024-06-14T12:43:32+00:00", "coordonnees_geo": {"lon": 2.358379, "lat": 48.879355}, "nom_arrondissement_communes": "Paris", "code_insee_commune": null}, {"stationcode": "10006", "name": "Petites Ecuries - Faubourg Saint-Denis", "is_installed": "OUI", "capacity": 28, "numdocksavailable": 8, "numbikesavailable": 17, "mechanical": 13, "ebike": 4, "is_renting": "OUI", "is_returning": "OUI", "duedate": "2024-06-14T12:49:58+00:00", "coordonnees_geo": {"lon": 2.3542150855064397, "lat": 48.87287120589831}, "nom_arrondissement_communes": "Paris", "code_insee_commune": null}, {"stationcode": "22401", "name": "Charles de Gaulle - Plateau de Vanves", "is_installed": "OUI", "capacity": 33, "numdocksavailable": 26, "numbikesavailable": 7, "mechanical": 2, "ebike": 5, "is_renting": "OUI", "is_returning": "OUI", "duedate": "2024-06-14T12:44:54+00:00", "coordonnees_geo": {"lon": 2.298571803412886, "lat": 48.82233088973263}, "nom_arrondissement_communes": "Malakoff", "code_insee_commune": null}, {"stationcode": "12002", "name": "Lacu\u00e9e - Lyon", "is_installed": "OUI", "capacity": 16, "numdocksavailable": 5, "numbikesavailable": 9, "mechanical": 4, "ebike": 5, "is_renting": "OUI", "is_returning": "OUI", "duedate": "2024-06-14T12:49:27+00:00", "coordonnees_geo": {"lon": 2.3704585433006, "lat": 48.849268481958}, "nom_arrondissement_communes": "Paris", "code_insee_commune": null}, {"stationcode": "19129", "name": "Solitaires - Place des F\u00eates", "is_installed": "OUI", "capacity": 29, "numdocksavailable": 26, "numbikesavailable": 2, "mechanical": 0, "ebike": 2, "is_renting": "OUI", "is_returning": "OUI", "duedate": "2024-06-14T12:49:05+00:00", "coordonnees_geo": {"lon": 2.391769, "lat": 48.876601}, "nom_arrondissement_communes": "Paris", "code_insee_commune": null}, {"stationcode": "14103", "name": "Maine - Liancourt", "is_installed": "OUI", "capacity": 27, "numdocksavailable": 22, "numbikesavailable": 5, "mechanical": 3, "ebike": 2, "is_renting": "OUI", "is_returning": "OUI", "duedate": "2024-06-14T12:48:09+00:00", "coordonnees_geo": {"lon": 2.323731449974, "lat": 48.835064363954}, "nom_arrondissement_communes": "Paris", "code_insee_commune": null}, {"stationcode": "3001", "name": "Beaumarchais - Saint-Gilles", "is_installed": "OUI", "capacity": 51, "numdocksavailable": 13, "numbikesavailable": 37, "mechanical": 34, "ebike": 3, "is_renting": "OUI", "is_returning": "OUI", "duedate": "2024-06-14T12:48:57+00:00", "coordonnees_geo": {"lon": 2.3679352, "lat": 48.8580378}, "nom_arrondissement_communes": "Paris", "code_insee_commune": null}, {"stationcode": "20029", "name": "Fr\u00e8res Flavien - Porte des Lilas", "is_installed": "OUI", "capacity": 23, "numdocksavailable": 17, "numbikesavailable": 6, "mechanical": 0, "ebike": 6, "is_renting": "OUI", "is_returning": "OUI", "duedate": "2024-06-14T12:47:09+00:00", "coordonnees_geo": {"lon": 2.41104629853209, "lat": 48.8780992764359}, "nom_arrondissement_communes": "Paris", "code_insee_commune": null}, {"stationcode": "2003", "name": "Saint-Denis - R\u00e9aumur", "is_installed": "OUI", "capacity": 32, "numdocksavailable": 22, "numbikesavailable": 8, "mechanical": 6, "ebike": 2, "is_renting": "OUI", "is_returning": "OUI", "duedate": "2024-06-14T12:48:06+00:00", "coordonnees_geo": {"lon": 2.3507790675507594, "lat": 48.8661116315789}, "nom_arrondissement_communes": "Paris", "code_insee_commune": null}, {"stationcode": "15111", "name": "Olivier de Serres - Leriche", "is_installed": "OUI", "capacity": 25, "numdocksavailable": 16, "numbikesavailable": 9, "mechanical": 3, "ebike": 6, "is_renting": "OUI", "is_returning": "OUI", "duedate": "2024-06-14T12:49:03+00:00", "coordonnees_geo": {"lon": 2.2957482933998112, "lat": 48.83460221715206}, "nom_arrondissement_communes": "Paris", "code_insee_commune": null}, {"stationcode": "12020", "name": "Cours de Vincennes - Soult", "is_installed": "OUI", "capacity": 45, "numdocksavailable": 45, "numbikesavailable": 0, "mechanical": 0, "ebike": 0, "is_renting": "OUI", "is_returning": "OUI", "duedate": "2024-06-14T12:48:18+00:00", "coordonnees_geo": {"lon": 2.4105220288038, "lat": 48.846918761569}, "nom_arrondissement_communes": "Paris", "code_insee_commune": null}, {"stationcode": "24006", "name": "Adolphe Lalyre - Armand Silvestre", "is_installed": "OUI", "capacity": 40, "numdocksavailable": 32, "numbikesavailable": 6, "mechanical": 2, "ebike": 4, "is_renting": "OUI", "is_returning": "OUI", "duedate": "2024-06-14T12:46:49+00:00", "coordonnees_geo": {"lon": 2.273416221141815, "lat": 48.90406266961591}, "nom_arrondissement_communes": "Courbevoie", "code_insee_commune": null}, {"stationcode": "3009", "name": "Temple - Haudriettes", "is_installed": "OUI", "capacity": 19, "numdocksavailable": 1, "numbikesavailable": 18, "mechanical": 13, "ebike": 5, "is_renting": "OUI", "is_returning": "OUI", "duedate": "2024-06-14T12:49:46+00:00", "coordonnees_geo": {"lon": 2.3566960206458, "lat": 48.861636880212}, "nom_arrondissement_communes": "Paris", "code_insee_commune": null}, {"stationcode": "4014", "name": "Blancs-Manteaux - Archives", "is_installed": "OUI", "capacity": 29, "numdocksavailable": 5, "numbikesavailable": 21, "mechanical": 17, "ebike": 4, "is_renting": "OUI", "is_returning": "OUI", "duedate": "2024-06-14T12:48:41+00:00", "coordonnees_geo": {"lon": 2.3559471219778, "lat": 48.85941800703}, "nom_arrondissement_communes": "Paris", "code_insee_commune": null}, {"stationcode": "26005", "name": "H\u00f4tel de Ville d'Asni\u00e8res sur Seine", "is_installed": "OUI", "capacity": 30, "numdocksavailable": 28, "numbikesavailable": 2, "mechanical": 2, "ebike": 0, "is_renting": "OUI", "is_returning": "OUI", "duedate": "2024-06-14T12:48:56+00:00", "coordonnees_geo": {"lon": 2.288238108158112, "lat": 48.90999330025577}, "nom_arrondissement_communes": "Asni\u00e8res-sur-Seine", "code_insee_commune": null}, {"stationcode": "2005", "name": "Montmartre - Etienne Marcel", "is_installed": "OUI", "capacity": 16, "numdocksavailable": 6, "numbikesavailable": 10, "mechanical": 4, "ebike": 6, "is_renting": "OUI", "is_returning": "OUI", "duedate": "2024-06-14T12:49:40+00:00", "coordonnees_geo": {"lon": 2.3450684401448, "lat": 48.86502194581}, "nom_arrondissement_communes": "Paris", "code_insee_commune": null}, {"stationcode": "3012", "name": "Square Emile - Chautemps", "is_installed": "OUI", "capacity": 25, "numdocksavailable": 1, "numbikesavailable": 24, "mechanical": 18, "ebike": 6, "is_renting": "OUI", "is_returning": "OUI", "duedate": "2024-06-14T12:46:38+00:00", "coordonnees_geo": {"lon": 2.3536357283592, "lat": 48.867433724231}, "nom_arrondissement_communes": "Paris", "code_insee_commune": null}, {"stationcode": "23702", "name": "H\u00f4tel de Ville de Chaville", "is_installed": "OUI", "capacity": 20, "numdocksavailable": 20, "numbikesavailable": 0, "mechanical": 0, "ebike": 0, "is_renting": "OUI", "is_returning": "OUI", "duedate": "2024-06-14T12:43:23+00:00", "coordonnees_geo": {"lon": 2.188134044408798, "lat": 48.80887149094033}, "nom_arrondissement_communes": "Chaville", "code_insee_commune": null}, {"stationcode": "13125", "name": "Gare d'Austerlitz - Pont Charles de Gaulle", "is_installed": "OUI", "capacity": 55, "numdocksavailable": 0, "numbikesavailable": 53, "mechanical": 39, "ebike": 14, "is_renting": "OUI", "is_returning": "OUI", "duedate": "2024-06-14T12:49:25+00:00", "coordonnees_geo": {"lon": 2.3670300096273422, "lat": 48.842319830109304}, "nom_arrondissement_communes": "Paris", "code_insee_commune": null}, {"stationcode": "19012", "name": "Lally-Tollendal - Armand Carrel", "is_installed": "OUI", "capacity": 28, "numdocksavailable": 24, "numbikesavailable": 4, "mechanical": 1, "ebike": 3, "is_renting": "OUI", "is_returning": "OUI", "duedate": "2024-06-14T12:46:38+00:00", "coordonnees_geo": {"lon": 2.374717555940151, "lat": 48.88270066221072}, "nom_arrondissement_communes": "Paris", "code_insee_commune": null}, {"stationcode": "21507", "name": "Gardenat-Lapostol - Velettes", "is_installed": "OUI", "capacity": 20, "numdocksavailable": 20, "numbikesavailable": 0, "mechanical": 0, "ebike": 0, "is_renting": "OUI", "is_returning": "OUI", "duedate": "2024-06-14T12:42:35+00:00", "coordonnees_geo": {"lon": 2.224185, "lat": 48.87387}, "nom_arrondissement_communes": "Suresnes", "code_insee_commune": null}, {"stationcode": "22504", "name": "Ch\u00e2teau - R\u00e9publique", "is_installed": "OUI", "capacity": 20, "numdocksavailable": 13, "numbikesavailable": 7, "mechanical": 2, "ebike": 5, "is_renting": "OUI", "is_returning": "OUI", "duedate": "2024-06-14T12:42:53+00:00", "coordonnees_geo": {"lon": 2.253629, "lat": 48.905928}, "nom_arrondissement_communes": "La Garenne-Colombes", "code_insee_commune": null}, {"stationcode": "19111", "name": "Cesaria Evora - Rosa Parks", "is_installed": "OUI", "capacity": 40, "numdocksavailable": 28, "numbikesavailable": 11, "mechanical": 9, "ebike": 2, "is_renting": "OUI", "is_returning": "OUI", "duedate": "2024-06-14T12:47:12+00:00", "coordonnees_geo": {"lon": 2.3745173960924144, "lat": 48.89717672825043}, "nom_arrondissement_communes": "Paris", "code_insee_commune": null}, {"stationcode": "9111", "name": "Victoire - Laffitte", "is_installed": "OUI", "capacity": 20, "numdocksavailable": 9, "numbikesavailable": 11, "mechanical": 7, "ebike": 4, "is_renting": "OUI", "is_returning": "OUI", "duedate": "2024-06-14T12:44:07+00:00", "coordonnees_geo": {"lon": 2.338118505144376, "lat": 48.87514373494672}, "nom_arrondissement_communes": "Paris", "code_insee_commune": null}, {"stationcode": "14133", "name": "Froidevaux - Boulard", "is_installed": "OUI", "capacity": 35, "numdocksavailable": 29, "numbikesavailable": 6, "mechanical": 0, "ebike": 6, "is_renting": "OUI", "is_returning": "OUI", "duedate": "2024-06-14T12:48:20+00:00", "coordonnees_geo": {"lon": 2.3294411972165, "lat": 48.835147319625}, "nom_arrondissement_communes": "Paris", "code_insee_commune": null}, {"stationcode": "21215", "name": "Verdier - Jean Jaur\u00e8s", "is_installed": "OUI", "capacity": 33, "numdocksavailable": 29, "numbikesavailable": 4, "mechanical": 0, "ebike": 4, "is_renting": "OUI", "is_returning": "OUI", "duedate": "2024-06-14T12:46:25+00:00", "coordonnees_geo": {"lon": 2.3123561963438988, "lat": 48.81614048711214}, "nom_arrondissement_communes": "Montrouge", "code_insee_commune": null}, {"stationcode": "42704", "name": "Mairie du Kremlin-Bic\u00eatre", "is_installed": "OUI", "capacity": 25, "numdocksavailable": 12, "numbikesavailable": 13, "mechanical": 11, "ebike": 2, "is_renting": "OUI", "is_returning": "OUI", "duedate": "2024-06-14T12:48:26+00:00", "coordonnees_geo": {"lon": 2.3570189997553825, "lat": 48.81191981537702}, "nom_arrondissement_communes": "Le Kremlin-Bic\u00eatre", "code_insee_commune": null}, {"stationcode": "21706", "name": "Jean Bleuzen - Square du 11 Novembre", "is_installed": "OUI", "capacity": 49, "numdocksavailable": 46, "numbikesavailable": 0, "mechanical": 0, "ebike": 0, "is_renting": "OUI", "is_returning": "OUI", "duedate": "2024-06-14T12:43:22+00:00", "coordonnees_geo": {"lon": 2.2965213, "lat": 48.8232579}, "nom_arrondissement_communes": "Vanves", "code_insee_commune": null}, {"stationcode": "10041", "name": "Gare du Nord - La Chapelle", "is_installed": "OUI", "capacity": 18, "numdocksavailable": 13, "numbikesavailable": 2, "mechanical": 0, "ebike": 2, "is_renting": "OUI", "is_returning": "OUI", "duedate": "2024-06-14T12:48:00+00:00", "coordonnees_geo": {"lon": 2.3561057075858, "lat": 48.884178287286}, "nom_arrondissement_communes": "Paris", "code_insee_commune": null}, {"stationcode": "4017", "name": "Place de l'H\u00f4tel de Ville", "is_installed": "OUI", "capacity": 14, "numdocksavailable": 1, "numbikesavailable": 12, "mechanical": 8, "ebike": 4, "is_renting": "OUI", "is_returning": "OUI", "duedate": "2024-06-14T12:49:05+00:00", "coordonnees_geo": {"lon": 2.351458, "lat": 48.8573314}, "nom_arrondissement_communes": "Paris", "code_insee_commune": null}, {"stationcode": "1014", "name": "Rivoli - Mus\u00e9e du Louvre", "is_installed": "OUI", "capacity": 24, "numdocksavailable": 1, "numbikesavailable": 21, "mechanical": 11, "ebike": 10, "is_renting": "OUI", "is_returning": "OUI", "duedate": "2024-06-14T12:46:58+00:00", "coordonnees_geo": {"lon": 2.33409583568573, "lat": 48.86364636851945}, "nom_arrondissement_communes": "Paris", "code_insee_commune": null}, {"stationcode": "26006", "name": "Bas - Gabriel P\u00e9ri", "is_installed": "OUI", "capacity": 30, "numdocksavailable": 28, "numbikesavailable": 2, "mechanical": 1, "ebike": 1, "is_renting": "OUI", "is_returning": "OUI", "duedate": "2024-06-14T12:44:55+00:00", "coordonnees_geo": {"lon": 2.2948095202445984, "lat": 48.91585580539625}, "nom_arrondissement_communes": "Asni\u00e8res-sur-Seine", "code_insee_commune": null}, {"stationcode": "12163", "name": "Hippodrome Paris-Vincennes", "is_installed": "OUI", "capacity": 42, "numdocksavailable": 35, "numbikesavailable": 7, "mechanical": 2, "ebike": 5, "is_renting": "OUI", "is_returning": "OUI", "duedate": "2024-06-14T12:40:59+00:00", "coordonnees_geo": {"lon": 2.446271181106568, "lat": 48.82048387758518}, "nom_arrondissement_communes": "Paris", "code_insee_commune": null}, {"stationcode": "4101", "name": "Bastille - Beaumarchais", "is_installed": "OUI", "capacity": 23, "numdocksavailable": 6, "numbikesavailable": 15, "mechanical": 11, "ebike": 4, "is_renting": "OUI", "is_returning": "OUI", "duedate": "2024-06-14T12:48:48+00:00", "coordonnees_geo": {"lon": 2.3685702681541, "lat": 48.853833463852}, "nom_arrondissement_communes": "Paris", "code_insee_commune": null}, {"stationcode": "13054", "name": "Pau Casals - Neuve Tolbiac", "is_installed": "OUI", "capacity": 53, "numdocksavailable": 7, "numbikesavailable": 45, "mechanical": 39, "ebike": 6, "is_renting": "OUI", "is_returning": "OUI", "duedate": "2024-06-14T12:49:13+00:00", "coordonnees_geo": {"lon": 2.3774395, "lat": 48.8311602}, "nom_arrondissement_communes": "Paris", "code_insee_commune": null}, {"stationcode": "1012", "name": "Jean-Jacques Rousseau - Deux Ecus", "is_installed": "OUI", "capacity": 22, "numdocksavailable": 4, "numbikesavailable": 18, "mechanical": 14, "ebike": 4, "is_renting": "OUI", "is_returning": "OUI", "duedate": "2024-06-14T12:49:49+00:00", "coordonnees_geo": {"lon": 2.3414635285735126, "lat": 48.86297805972131}, "nom_arrondissement_communes": "Paris", "code_insee_commune": null}, {"stationcode": "2004", "name": "Square Pierre Lazareff", "is_installed": "OUI", "capacity": 17, "numdocksavailable": 3, "numbikesavailable": 13, "mechanical": 10, "ebike": 3, "is_renting": "OUI", "is_returning": "OUI", "duedate": "2024-06-14T12:48:37+00:00", "coordonnees_geo": {"lon": 2.3483933508396, "lat": 48.867141720746}, "nom_arrondissement_communes": "Paris", "code_insee_commune": null}, {"stationcode": "21505", "name": "\u00c9douard Vaillant - Place Jean Jaur\u00e8s", "is_installed": "OUI", "capacity": 24, "numdocksavailable": 23, "numbikesavailable": 1, "mechanical": 0, "ebike": 1, "is_renting": "OUI", "is_returning": "OUI", "duedate": "2024-06-14T12:47:10+00:00", "coordonnees_geo": {"lon": 2.2089037319128613, "lat": 48.86265537999924}, "nom_arrondissement_communes": "Suresnes", "code_insee_commune": null}, {"stationcode": "4018", "name": "Saint-Bon - Rivoli", "is_installed": "OUI", "capacity": 19, "numdocksavailable": 2, "numbikesavailable": 17, "mechanical": 11, "ebike": 6, "is_renting": "OUI", "is_returning": "OUI", "duedate": "2024-06-14T12:46:32+00:00", "coordonnees_geo": {"lon": 2.3502172809763, "lat": 48.857999643315}, "nom_arrondissement_communes": "Paris", "code_insee_commune": null}, {"stationcode": "16044", "name": "Porte de Saint Cloud - Parc des Princes", "is_installed": "OUI", "capacity": 32, "numdocksavailable": 7, "numbikesavailable": 24, "mechanical": 24, "ebike": 0, "is_renting": "OUI", "is_returning": "OUI", "duedate": "2024-06-14T12:49:24+00:00", "coordonnees_geo": {"lon": 2.2525164484978, "lat": 48.838662757066}, "nom_arrondissement_communes": "Paris", "code_insee_commune": null}, {"stationcode": "44001", "name": "Quai Jules Guesde - Saint-Simon", "is_installed": "OUI", "capacity": 30, "numdocksavailable": 14, "numbikesavailable": 16, "mechanical": 7, "ebike": 9, "is_renting": "OUI", "is_returning": "OUI", "duedate": "2024-06-14T12:45:08+00:00", "coordonnees_geo": {"lon": 2.4089661620274, "lat": 48.80391487219}, "nom_arrondissement_communes": "Vitry-sur-Seine", "code_insee_commune": null}, {"stationcode": "1026", "name": "Place du Lieutenant Henri Karcher", "is_installed": "OUI", "capacity": 30, "numdocksavailable": 19, "numbikesavailable": 10, "mechanical": 6, "ebike": 4, "is_renting": "OUI", "is_returning": "OUI", "duedate": "2024-06-14T12:47:57+00:00", "coordonnees_geo": {"lon": 2.3400671035051346, "lat": 48.863490871724466}, "nom_arrondissement_communes": "Paris", "code_insee_commune": null}, {"stationcode": "1018", "name": "Alger - Rivoli", "is_installed": "OUI", "capacity": 21, "numdocksavailable": 0, "numbikesavailable": 19, "mechanical": 11, "ebike": 8, "is_renting": "OUI", "is_returning": "OUI", "duedate": "2024-06-14T12:49:59+00:00", "coordonnees_geo": {"lon": 2.3294493936128, "lat": 48.864773553495}, "nom_arrondissement_communes": "Paris", "code_insee_commune": null}, {"stationcode": "17106", "name": "Berthier - Porte de Clichy", "is_installed": "OUI", "capacity": 24, "numdocksavailable": 5, "numbikesavailable": 19, "mechanical": 16, "ebike": 3, "is_renting": "OUI", "is_returning": "OUI", "duedate": "2024-06-14T12:45:53+00:00", "coordonnees_geo": {"lon": 2.3125872006816, "lat": 48.894222687781}, "nom_arrondissement_communes": "Paris", "code_insee_commune": null}, {"stationcode": "1116", "name": "Ventadour - Op\u00e9ra", "is_installed": "OUI", "capacity": 27, "numdocksavailable": 2, "numbikesavailable": 25, "mechanical": 20, "ebike": 5, "is_renting": "OUI", "is_returning": "OUI", "duedate": "2024-06-14T12:49:22+00:00", "coordonnees_geo": {"lon": 2.3343884482519, "lat": 48.866810653323}, "nom_arrondissement_communes": "Paris", "code_insee_commune": null}]