[{"stationcode": "16023", "name": "Passy - Place du Costa Rica", "is_installed": "OUI", "capacity": 33, "numdocksavailable": 25, "numbikesavailable": 7, "mechanical": 3, "ebike": 4, "is_renting": "OUI", "is_returning": "OUI", "duedate": "2024-06-17T12:55:57+00:00", "coordonnees_geo": {"lon": 2.2839655, "lat": 48.8584893}, "nom_arrondissement_communes": "Paris", "code_insee_commune": null}, {"stationcode": "15114", "name": "Pasteur - Cotentin", "is_installed": "OUI", "capacity": 33, "numdocksavailable": 28, "numbikesavailable": 5, "mechanical": 1, "ebike": 4, "is_renting": "OUI", "is_returning": "OUI", "duedate": "2024-06-17T12:56:39+00:00", "coordonnees_geo": {"lon": 2.316356, "lat": 48.8389284}, "nom_arrondissement_communes": "Paris", "code_insee_commune": null}, {"stationcode": "19014", "name": "Lorraine - Jean Jaur\u00e8s", "is_installed": "OUI", "capacity": 19, "numdocksavailable": 19, "numbikesavailable": 0, "mechanical": 0, "ebike": 0, "is_renting": "OUI", "is_returning": "OUI", "duedate": "2024-06-17T12:52:21+00:00", "coordonnees_geo": {"lon": 2.3825772, "lat": 48.8863865}, "nom_arrondissement_communes": "Paris", "code_insee_commune": null}, {"stationcode": "15014", "name": "Volontaires - Vaugirard", "is_installed": "OUI", "capacity": 34, "numdocksavailable": 31, "numbikesavailable": 3, "mechanical": 3, "ebike": 0, "is_renting": "OUI", "is_returning": "OUI", "duedate": "2024-06-17T12:58:14+00:00", "coordonnees_geo": {"lon": 2.30808901725357, "lat": 48.84132050184004}, "nom_arrondissement_communes": "Paris", "code_insee_commune": null}, {"stationcode": "11028", "name": "Guillaume Bertrand - R\u00e9publique", "is_installed": "OUI", "capacity": 38, "numdocksavailable": 33, "numbikesavailable": 4, "mechanical": 0, "ebike": 4, "is_renting": "OUI", "is_returning": "OUI", "duedate": "2024-06-17T12:57:33+00:00", "coordonnees_geo": {"lon": 2.380906377155, "lat": 48.863825174341}, "nom_arrondissement_communes": "Paris", "code_insee_commune": null}, {"stationcode": "13055", "name": "M.- A. Lagroua Weill-Hall\u00e9 -  F. Dolto", "is_installed": "OUI", "capacity": 60, "numdocksavailable": 5, "numbikesavailable": 55, "mechanical": 48, "ebike": 7, "is_renting": "OUI", "is_returning": "OUI", "duedate": "2024-06-17T12:58:02+00:00", "coordonnees_geo": {"lon": 2.380220606266108, "lat": 48.828595283857425}, "nom_arrondissement_communes": "Paris", "code_insee_commune": null}, {"stationcode": "22014", "name": "Victor Hugo - Bineau", "is_installed": "OUI", "capacity": 25, "numdocksavailable": 7, "numbikesavailable": 17, "mechanical": 11, "ebike": 6, "is_renting": "OUI", "is_returning": "OUI", "duedate": "2024-06-17T12:57:26+00:00", "coordonnees_geo": {"lon": 2.2783890366554265, "lat": 48.88758225888669}, "nom_arrondissement_communes": "Neuilly-sur-Seine", "code_insee_commune": null}, {"stationcode": "20106", "name": "Mairie du 20\u00e8me", "is_installed": "OUI", "capacity": 27, "numdocksavailable": 24, "numbikesavailable": 2, "mechanical": 0, "ebike": 2, "is_renting": "OUI", "is_returning": "OUI", "duedate": "2024-06-17T12:54:05+00:00", "coordonnees_geo": {"lon": 2.3990669846535, "lat": 48.865302324275}, "nom_arrondissement_communes": "Paris", "code_insee_commune": null}, {"stationcode": "21027", "name": "Fief - R\u00e9publique", "is_installed": "OUI", "capacity": 25, "numdocksavailable": 0, "numbikesavailable": 24, "mechanical": 21, "ebike": 3, "is_renting": "OUI", "is_returning": "OUI", "duedate": "2024-06-17T12:58:05+00:00", "coordonnees_geo": {"lon": 2.255771979689598, "lat": 48.83170888166024}, "nom_arrondissement_communes": "Boulogne-Billancourt", "code_insee_commune": null}, {"stationcode": "25002", "name": "H\u00f4tel de Ville de Rueil-Malmaison", "is_installed": "OUI", "capacity": 20, "numdocksavailable": 13, "numbikesavailable": 6, "mechanical": 2, "ebike": 4, "is_renting": "OUI", "is_returning": "OUI", "duedate": "2024-06-17T12:54:09+00:00", "coordonnees_geo": {"lon": 2.181724, "lat": 48.878194}, "nom_arrondissement_communes": "Rueil-Malmaison", "code_insee_commune": null}, {"stationcode": "6005", "name": "Montparnasse -  Square Ozanam", "is_installed": "OUI", "capacity": 49, "numdocksavailable": 43, "numbikesavailable": 6, "mechanical": 3, "ebike": 3, "is_renting": "OUI", "is_returning": "OUI", "duedate": "2024-06-17T12:57:09+00:00", "coordonnees_geo": {"lon": 2.3265242949128, "lat": 48.843310567822}, "nom_arrondissement_communes": "Paris", "code_insee_commune": null}, {"stationcode": "16022", "name": "Jean Bologne - Passy", "is_installed": "OUI", "capacity": 19, "numdocksavailable": 16, "numbikesavailable": 3, "mechanical": 2, "ebike": 1, "is_renting": "OUI", "is_returning": "OUI", "duedate": "2024-06-17T12:52:17+00:00", "coordonnees_geo": {"lon": 2.280027395306772, "lat": 48.857566889784465}, "nom_arrondissement_communes": "Paris", "code_insee_commune": null}, {"stationcode": "19001", "name": "Crim\u00e9e - Ourcq", "is_installed": "OUI", "capacity": 56, "numdocksavailable": 52, "numbikesavailable": 3, "mechanical": 0, "ebike": 3, "is_renting": "OUI", "is_returning": "OUI", "duedate": "2024-06-17T12:54:31+00:00", "coordonnees_geo": {"lon": 2.3729460884673, "lat": 48.894104140316}, "nom_arrondissement_communes": "Paris", "code_insee_commune": null}, {"stationcode": "6020", "name": "Place Saint-Andr\u00e9 des Arts", "is_installed": "OUI", "capacity": 37, "numdocksavailable": 4, "numbikesavailable": 33, "mechanical": 29, "ebike": 4, "is_renting": "OUI", "is_returning": "OUI", "duedate": "2024-06-17T12:56:39+00:00", "coordonnees_geo": {"lon": 2.3426544293761, "lat": 48.852886173881}, "nom_arrondissement_communes": "Paris", "code_insee_commune": null}, {"stationcode": "21016", "name": "Point du Jour - Jean Jaur\u00e8s", "is_installed": "OUI", "capacity": 40, "numdocksavailable": 31, "numbikesavailable": 9, "mechanical": 4, "ebike": 5, "is_renting": "OUI", "is_returning": "OUI", "duedate": "2024-06-17T12:54:34+00:00", "coordonnees_geo": {"lon": 2.245911467014621, "lat": 48.828753141436465}, "nom_arrondissement_communes": "Boulogne-Billancourt", "code_insee_commune": null}, {"stationcode": "11018", "name": "Saint-Maur - R\u00e9publique", "is_installed": "OUI", "capacity": 38, "numdocksavailable": 35, "numbikesavailable": 2, "mechanical": 0, "ebike": 2, "is_renting": "OUI", "is_returning": "OUI", "duedate": "2024-06-17T12:57:17+00:00", "coordonnees_geo": {"lon": 2.3783174157143, "lat": 48.864185861455}, "nom_arrondissement_communes": "Paris", "code_insee_commune": null}, {"stationcode": "19123", "name": "Metz - Marne", "is_installed": "OUI", "capacity": 33, "numdocksavailable": 27, "numbikesavailable": 6, "mechanical": 2, "ebike": 4, "is_renting": "OUI", "is_returning": "OUI", "duedate": "2024-06-17T12:51:11+00:00", "coordonnees_geo": {"lon": 2.3865705, "lat": 48.891163}, "nom_arrondissement_communes": "Paris", "code_insee_commune": null}, {"stationcode": "21107", "name": "Bertrand Sincholle - Henri Barbusse", "is_installed": "OUI", "capacity": 23, "numdocksavailable": 13, "numbikesavailable": 6, "mechanical": 3, "ebike": 3, "is_renting": "OUI", "is_returning": "OUI", "duedate": "2024-06-17T12:57:46+00:00", "coordonnees_geo": {"lon": 2.3042294383049016, "lat": 48.89925982394349}, "nom_arrondissement_communes": "Clichy", "code_insee_commune": null}, {"stationcode": "12017", "name": "Saint-Mand\u00e9 - Docteur Arnold Netter", "is_installed": "OUI", "capacity": 39, "numdocksavailable": 34, "numbikesavailable": 5, "mechanical": 1, "ebike": 4, "is_renting": "OUI", "is_returning": "OUI", "duedate": "2024-06-17T12:58:02+00:00", "coordonnees_geo": {"lon": 2.404946386814118, "lat": 48.84462585769668}, "nom_arrondissement_communes": "Paris", "code_insee_commune": null}, {"stationcode": "21511", "name": "Marcel Monge - Marcel Dassault", "is_installed": "OUI", "capacity": 46, "numdocksavailable": 26, "numbikesavailable": 20, "mechanical": 9, "ebike": 11, "is_renting": "OUI", "is_returning": "OUI", "duedate": "2024-06-17T12:52:01+00:00", "coordonnees_geo": {"lon": 2.2246733296048142, "lat": 48.86096384533371}, "nom_arrondissement_communes": "Suresnes", "code_insee_commune": null}, {"stationcode": "14025", "name": "Jacquier - Didot", "is_installed": "OUI", "capacity": 30, "numdocksavailable": 30, "numbikesavailable": 0, "mechanical": 0, "ebike": 0, "is_renting": "OUI", "is_returning": "OUI", "duedate": "2024-06-17T12:50:43+00:00", "coordonnees_geo": {"lon": 2.318179272115231, "lat": 48.82953336292279}, "nom_arrondissement_communes": "Paris", "code_insee_commune": null}, {"stationcode": "6009", "name": "Guynemer - Jardin du Luxembourg", "is_installed": "OUI", "capacity": 36, "numdocksavailable": 19, "numbikesavailable": 15, "mechanical": 8, "ebike": 7, "is_renting": "OUI", "is_returning": "OUI", "duedate": "2024-06-17T12:57:50+00:00", "coordonnees_geo": {"lon": 2.3325478, "lat": 48.8466127}, "nom_arrondissement_communes": "Paris", "code_insee_commune": null}, {"stationcode": "42027", "name": "Verdun - Pierre et Marie Curie", "is_installed": "OUI", "capacity": 26, "numdocksavailable": 24, "numbikesavailable": 2, "mechanical": 0, "ebike": 2, "is_renting": "OUI", "is_returning": "OUI", "duedate": "2024-06-17T12:54:09+00:00", "coordonnees_geo": {"lon": 2.3707106709480286, "lat": 48.812822398263286}, "nom_arrondissement_communes": "Ivry-sur-Seine", "code_insee_commune": null}, {"stationcode": "16104", "name": "Paul Valery - Victor Hugo", "is_installed": "OUI", "capacity": 35, "numdocksavailable": 18, "numbikesavailable": 17, "mechanical": 1, "ebike": 16, "is_renting": "OUI", "is_returning": "OUI", "duedate": "2024-06-17T12:56:29+00:00", "coordonnees_geo": {"lon": 2.2887128591537476, "lat": 48.87137406080164}, "nom_arrondissement_communes": "Paris", "code_insee_commune": null}, {"stationcode": "20033", "name": "Etienne Dolet - Place Maurice Chevalier", "is_installed": "OUI", "capacity": 33, "numdocksavailable": 33, "numbikesavailable": 0, "mechanical": 0, "ebike": 0, "is_renting": "OUI", "is_returning": "OUI", "duedate": "2024-06-17T12:55:11+00:00", "coordonnees_geo": {"lon": 2.3851405311143026, "lat": 48.86798303359366}, "nom_arrondissement_communes": "Paris", "code_insee_commune": null}, {"stationcode": "1201", "name": "Perrault - Place du Louvre", "is_installed": "OUI", "capacity": 28, "numdocksavailable": 0, "numbikesavailable": 26, "mechanical": 21, "ebike": 5, "is_renting": "OUI", "is_returning": "OUI", "duedate": "2024-06-17T12:58:13+00:00", "coordonnees_geo": {"lon": 2.3412468419093, "lat": 48.860273568996}, "nom_arrondissement_communes": "Paris", "code_insee_commune": null}, {"stationcode": "51007", "name": "R\u00e9sistance - Romain Rolland", "is_installed": "OUI", "capacity": 28, "numdocksavailable": 10, "numbikesavailable": 18, "mechanical": 8, "ebike": 10, "is_renting": "OUI", "is_returning": "OUI", "duedate": "2024-06-17T12:52:11+00:00", "coordonnees_geo": {"lon": 2.2310190077797, "lat": 48.950873482371}, "nom_arrondissement_communes": "Argenteuil", "code_insee_commune": null}, {"stationcode": "17036", "name": "Place Tristan Bernard", "is_installed": "OUI", "capacity": 28, "numdocksavailable": 15, "numbikesavailable": 13, "mechanical": 9, "ebike": 4, "is_renting": "OUI", "is_returning": "OUI", "duedate": "2024-06-17T12:52:13+00:00", "coordonnees_geo": {"lon": 2.2915423, "lat": 48.8794936}, "nom_arrondissement_communes": "Paris", "code_insee_commune": null}, {"stationcode": "11040", "name": "Temple - Jean-Pierre Timbaud", "is_installed": "OUI", "capacity": 36, "numdocksavailable": 4, "numbikesavailable": 32, "mechanical": 30, "ebike": 2, "is_renting": "OUI", "is_returning": "OUI", "duedate": "2024-06-17T12:57:03+00:00", "coordonnees_geo": {"lon": 2.3660597205162, "lat": 48.86446597201}, "nom_arrondissement_communes": "Paris", "code_insee_commune": null}, {"stationcode": "21033", "name": "S\u00e8vres - Mar\u00e9chal Juin", "is_installed": "OUI", "capacity": 18, "numdocksavailable": 10, "numbikesavailable": 7, "mechanical": 5, "ebike": 2, "is_renting": "OUI", "is_returning": "OUI", "duedate": "2024-06-17T12:54:52+00:00", "coordonnees_geo": {"lon": 2.2292812, "lat": 48.8324305}, "nom_arrondissement_communes": "Boulogne-Billancourt", "code_insee_commune": null}, {"stationcode": "44010", "name": "8 Mai 1945 - 10 Juillet 1940", "is_installed": "OUI", "capacity": 30, "numdocksavailable": 30, "numbikesavailable": 0, "mechanical": 0, "ebike": 0, "is_renting": "NON", "is_returning": "NON", "duedate": "2023-11-05T08:56:42+00:00", "coordonnees_geo": {"lon": 2.3979035764933, "lat": 48.784567029674}, "nom_arrondissement_communes": "Vitry-sur-Seine", "code_insee_commune": null}, {"stationcode": "22703", "name": "Place Jean Mermoz", "is_installed": "OUI", "capacity": 30, "numdocksavailable": 21, "numbikesavailable": 7, "mechanical": 4, "ebike": 3, "is_renting": "OUI", "is_returning": "OUI", "duedate": "2024-06-17T12:51:28+00:00", "coordonnees_geo": {"lon": 2.2718348, "lat": 48.9220937}, "nom_arrondissement_communes": "Bois-Colombes", "code_insee_commune": null}, {"stationcode": "25009", "name": "Place des Arts - Jean Mermoz", "is_installed": "OUI", "capacity": 20, "numdocksavailable": 20, "numbikesavailable": 0, "mechanical": 0, "ebike": 0, "is_renting": "OUI", "is_returning": "OUI", "duedate": "2024-06-17T12:52:28+00:00", "coordonnees_geo": {"lon": 2.1832160452221, "lat": 48.880391139734}, "nom_arrondissement_communes": "Rueil-Malmaison", "code_insee_commune": null}, {"stationcode": "41101", "name": "Paul Doumer - Stalingrad", "is_installed": "OUI", "capacity": 24, "numdocksavailable": 8, "numbikesavailable": 16, "mechanical": 16, "ebike": 0, "is_renting": "OUI", "is_returning": "OUI", "duedate": "2024-06-17T12:54:30+00:00", "coordonnees_geo": {"lon": 2.3368880152702, "lat": 48.806518992199}, "nom_arrondissement_communes": "Arcueil", "code_insee_commune": null}, {"stationcode": "8003", "name": "Galil\u00e9e - Vernet", "is_installed": "OUI", "capacity": 17, "numdocksavailable": 5, "numbikesavailable": 12, "mechanical": 1, "ebike": 11, "is_renting": "OUI", "is_returning": "OUI", "duedate": "2024-06-17T12:53:29+00:00", "coordonnees_geo": {"lon": 2.2985444962978, "lat": 48.871715878697}, "nom_arrondissement_communes": "Paris", "code_insee_commune": null}, {"stationcode": "16140", "name": "Hippodrome de Longchamp", "is_installed": "OUI", "capacity": 30, "numdocksavailable": 6, "numbikesavailable": 23, "mechanical": 11, "ebike": 12, "is_renting": "OUI", "is_returning": "OUI", "duedate": "2024-06-17T12:58:16+00:00", "coordonnees_geo": {"lon": 2.239905372262, "lat": 48.86413226532}, "nom_arrondissement_communes": "Paris", "code_insee_commune": null}, {"stationcode": "7007", "name": "Mus\u00e9e d'Orsay", "is_installed": "OUI", "capacity": 65, "numdocksavailable": 10, "numbikesavailable": 55, "mechanical": 37, "ebike": 18, "is_renting": "OUI", "is_returning": "OUI", "duedate": "2024-06-17T12:56:17+00:00", "coordonnees_geo": {"lon": 2.325860448181629, "lat": 48.85972615790874}, "nom_arrondissement_communes": "Paris", "code_insee_commune": null}, {"stationcode": "3201", "name": "Payenne - Square George Ca\u00efn", "is_installed": "OUI", "capacity": 24, "numdocksavailable": 8, "numbikesavailable": 15, "mechanical": 13, "ebike": 2, "is_renting": "OUI", "is_returning": "OUI", "duedate": "2024-06-17T12:57:13+00:00", "coordonnees_geo": {"lon": 2.3622643, "lat": 48.8578329}, "nom_arrondissement_communes": "Paris", "code_insee_commune": null}, {"stationcode": "20035", "name": "Pyr\u00e9n\u00e9es - M\u00e9nilmontant", "is_installed": "OUI", "capacity": 26, "numdocksavailable": 24, "numbikesavailable": 1, "mechanical": 0, "ebike": 1, "is_renting": "OUI", "is_returning": "OUI", "duedate": "2024-06-17T12:57:01+00:00", "coordonnees_geo": {"lon": 2.395084574818611, "lat": 48.8693268535238}, "nom_arrondissement_communes": "Paris", "code_insee_commune": null}, {"stationcode": "15032", "name": "F\u00e9lix Faure - Lourmel", "is_installed": "OUI", "capacity": 58, "numdocksavailable": 40, "numbikesavailable": 17, "mechanical": 11, "ebike": 6, "is_renting": "OUI", "is_returning": "OUI", "duedate": "2024-06-17T12:56:08+00:00", "coordonnees_geo": {"lon": 2.2818081825971603, "lat": 48.83868901709515}, "nom_arrondissement_communes": "Paris", "code_insee_commune": null}, {"stationcode": "23106", "name": "Pav\u00e9 des Gardes - Charles Vaillant", "is_installed": "OUI", "capacity": 20, "numdocksavailable": 18, "numbikesavailable": 1, "mechanical": 0, "ebike": 1, "is_renting": "OUI", "is_returning": "OUI", "duedate": "2024-06-17T12:56:06+00:00", "coordonnees_geo": {"lon": 2.2111820107205, "lat": 48.81168551728}, "nom_arrondissement_communes": "S\u00e8vres", "code_insee_commune": null}, {"stationcode": "34009", "name": "Dora Maar - Nadia Guendouz", "is_installed": "OUI", "capacity": 30, "numdocksavailable": 19, "numbikesavailable": 11, "mechanical": 8, "ebike": 3, "is_renting": "OUI", "is_returning": "OUI", "duedate": "2024-06-17T12:57:11+00:00", "coordonnees_geo": {"lon": 2.3220406472683, "lat": 48.905452421305}, "nom_arrondissement_communes": "Saint-Ouen-sur-Seine", "code_insee_commune": null}, {"stationcode": "41304", "name": "Port - Maurice Chevalier", "is_installed": "OUI", "capacity": 30, "numdocksavailable": 6, "numbikesavailable": 23, "mechanical": 20, "ebike": 3, "is_renting": "OUI", "is_returning": "OUI", "duedate": "2024-06-17T12:56:39+00:00", "coordonnees_geo": {"lon": 2.490257616467, "lat": 48.832474421632}, "nom_arrondissement_communes": "Nogent-sur-Marne", "code_insee_commune": null}, {"stationcode": "10151", "name": "Gare du Nord - Faubourg Saint-Denis", "is_installed": "OUI", "capacity": 28, "numdocksavailable": 23, "numbikesavailable": 3, "mechanical": 1, "ebike": 2, "is_renting": "OUI", "is_returning": "OUI", "duedate": "2024-06-17T12:54:25+00:00", "coordonnees_geo": {"lon": 2.3568402975798, "lat": 48.879612765504}, "nom_arrondissement_communes": "Paris", "code_insee_commune": null}, {"stationcode": "8031", "name": "Jean Mermoz - Champs-Elys\u00e9es", "is_installed": "OUI", "capacity": 49, "numdocksavailable": 4, "numbikesavailable": 45, "mechanical": 24, "ebike": 21, "is_renting": "OUI", "is_returning": "OUI", "duedate": "2024-06-17T12:58:14+00:00", "coordonnees_geo": {"lon": 2.3107324540615, "lat": 48.869689856852}, "nom_arrondissement_communes": "Paris", "code_insee_commune": null}, {"stationcode": "10001_relais", "name": "Ren\u00e9 Boulanger - Lancry", "is_installed": "NON", "capacity": 0, "numdocksavailable": 0, "numbikesavailable": 0, "mechanical": 0, "ebike": 0, "is_renting": "NON", "is_returning": "NON", "duedate": "2024-06-17T12:57:47+00:00", "coordonnees_geo": {"lon": 2.3599605, "lat": 48.8687079}, "nom_arrondissement_communes": "Paris", "code_insee_commune": null}, {"stationcode": "26011", "name": "M\u00e9nil - Argenteuil", "is_installed": "OUI", "capacity": 20, "numdocksavailable": 12, "numbikesavailable": 8, "mechanical": 5, "ebike": 3, "is_renting": "OUI", "is_returning": "OUI", "duedate": "2024-06-17T12:52:40+00:00", "coordonnees_geo": {"lon": 2.2741496502338, "lat": 48.925901818305}, "nom_arrondissement_communes": "Asni\u00e8res-sur-Seine", "code_insee_commune": null}, {"stationcode": "22209", "name": "Verdun - Henri Barbusse", "is_installed": "OUI", "capacity": 24, "numdocksavailable": 21, "numbikesavailable": 2, "mechanical": 0, "ebike": 2, "is_renting": "OUI", "is_returning": "OUI", "duedate": "2024-06-17T12:56:14+00:00", "coordonnees_geo": {"lon": 2.3159965061736, "lat": 48.802056061754}, "nom_arrondissement_communes": "Bagneux", "code_insee_commune": null}, {"stationcode": "18203", "name": "Lamarck - Saint-Ouen", "is_installed": "OUI", "capacity": 40, "numdocksavailable": 40, "numbikesavailable": 0, "mechanical": 0, "ebike": 0, "is_renting": "NON", "is_returning": "NON", "duedate": "2024-06-17T12:56:06+00:00", "coordonnees_geo": {"lon": 2.3272445342326, "lat": 48.891334555236}, "nom_arrondissement_communes": "Paris", "code_insee_commune": null}, {"stationcode": "35021", "name": "Cartier Bresson - Denis Papin", "is_installed": "OUI", "capacity": 32, "numdocksavailable": 29, "numbikesavailable": 3, "mechanical": 0, "ebike": 3, "is_renting": "OUI", "is_returning": "OUI", "duedate": "2024-06-17T12:58:11+00:00", "coordonnees_geo": {"lon": 2.397814, "lat": 48.902616}, "nom_arrondissement_communes": "Pantin", "code_insee_commune": null}, {"stationcode": "18045", "name": "Pierre Ginier - Clichy", "is_installed": "OUI", "capacity": 16, "numdocksavailable": 10, "numbikesavailable": 5, "mechanical": 0, "ebike": 5, "is_renting": "OUI", "is_returning": "OUI", "duedate": "2024-06-17T12:54:33+00:00", "coordonnees_geo": {"lon": 2.326228, "lat": 48.8867667}, "nom_arrondissement_communes": "Paris", "code_insee_commune": null}, {"stationcode": "25010", "name": "Mar\u00e9chal Leclerc de Hauteclocque - March\u00e9 Buzenval", "is_installed": "OUI", "capacity": 30, "numdocksavailable": 21, "numbikesavailable": 9, "mechanical": 1, "ebike": 8, "is_renting": "OUI", "is_returning": "OUI", "duedate": "2024-06-17T12:56:19+00:00", "coordonnees_geo": {"lon": 2.192077, "lat": 48.858446}, "nom_arrondissement_communes": "Rueil-Malmaison", "code_insee_commune": null}, {"stationcode": "14110", "name": "Abb\u00e9 Carton - Plantes", "is_installed": "OUI", "capacity": 25, "numdocksavailable": 22, "numbikesavailable": 1, "mechanical": 1, "ebike": 0, "is_renting": "OUI", "is_returning": "OUI", "duedate": "2024-06-17T12:57:02+00:00", "coordonnees_geo": {"lon": 2.3209181427956, "lat": 48.827673823166}, "nom_arrondissement_communes": "Paris", "code_insee_commune": null}, {"stationcode": "18018", "name": "Carpeaux - Place Jacques Froment", "is_installed": "OUI", "capacity": 19, "numdocksavailable": 11, "numbikesavailable": 6, "mechanical": 1, "ebike": 5, "is_renting": "OUI", "is_returning": "OUI", "duedate": "2024-06-17T12:57:45+00:00", "coordonnees_geo": {"lon": 2.3309428, "lat": 48.8906542}, "nom_arrondissement_communes": "Paris", "code_insee_commune": null}, {"stationcode": "10025", "name": "Jemmapes - Ecluses Saint-Martin", "is_installed": "OUI", "capacity": 15, "numdocksavailable": 13, "numbikesavailable": 1, "mechanical": 1, "ebike": 0, "is_renting": "OUI", "is_returning": "OUI", "duedate": "2024-06-17T12:56:24+00:00", "coordonnees_geo": {"lon": 2.3660067468881607, "lat": 48.87748519186726}, "nom_arrondissement_communes": "Paris", "code_insee_commune": null}, {"stationcode": "32305", "name": "Saint-Germain - Verdun", "is_installed": "OUI", "capacity": 30, "numdocksavailable": 30, "numbikesavailable": 0, "mechanical": 0, "ebike": 0, "is_renting": "OUI", "is_returning": "OUI", "duedate": "2024-06-17T12:48:16+00:00", "coordonnees_geo": {"lon": 2.4331868384644, "lat": 48.882877330093}, "nom_arrondissement_communes": "Romainville", "code_insee_commune": null}, {"stationcode": "21954", "name": "Val-Fleury", "is_installed": "OUI", "capacity": 23, "numdocksavailable": 14, "numbikesavailable": 8, "mechanical": 1, "ebike": 7, "is_renting": "OUI", "is_returning": "OUI", "duedate": "2024-06-17T12:55:11+00:00", "coordonnees_geo": {"lon": 2.2407217696309, "lat": 48.807671407991}, "nom_arrondissement_communes": "Meudon", "code_insee_commune": null}, {"stationcode": "23205", "name": "Parc des Pierrettes", "is_installed": "OUI", "capacity": 23, "numdocksavailable": 23, "numbikesavailable": 0, "mechanical": 0, "ebike": 0, "is_renting": "OUI", "is_returning": "OUI", "duedate": "2024-06-17T12:54:26+00:00", "coordonnees_geo": {"lon": 2.2909969, "lat": 48.7973062}, "nom_arrondissement_communes": "Ch\u00e2tillon", "code_insee_commune": null}, {"stationcode": "11001", "name": "Richard Lenoir - Place de la Bastille", "is_installed": "OUI", "capacity": 53, "numdocksavailable": 2, "numbikesavailable": 46, "mechanical": 37, "ebike": 9, "is_renting": "OUI", "is_returning": "OUI", "duedate": "2024-06-17T12:58:16+00:00", "coordonnees_geo": {"lon": 2.3697222, "lat": 48.8538327}, "nom_arrondissement_communes": "Paris", "code_insee_commune": null}, {"stationcode": "32051", "name": "Centre Aquatique Olympique - Stade de France", "is_installed": "NON", "capacity": 200, "numdocksavailable": 200, "numbikesavailable": 0, "mechanical": 0, "ebike": 0, "is_renting": "NON", "is_returning": "NON", "duedate": "2019-06-19T12:26:12+00:00", "coordonnees_geo": {"lon": 2.3577524078641, "lat": 48.915153832393}, "nom_arrondissement_communes": "Saint-Denis", "code_insee_commune": null}, {"stationcode": "17126", "name": "H\u00e9l\u00e8ne et Fran\u00e7ois Missoffe - Emile Borel", "is_installed": "OUI", "capacity": 32, "numdocksavailable": 5, "numbikesavailable": 27, "mechanical": 25, "ebike": 2, "is_renting": "OUI", "is_returning": "OUI", "duedate": "2024-06-17T12:55:45+00:00", "coordonnees_geo": {"lon": 2.321543991674844, "lat": 48.89990653843488}, "nom_arrondissement_communes": "Paris", "code_insee_commune": null}, {"stationcode": "17127", "name": "Porte de Clichy - Place des Nations Unies", "is_installed": "OUI", "capacity": 40, "numdocksavailable": 30, "numbikesavailable": 9, "mechanical": 9, "ebike": 0, "is_renting": "OUI", "is_returning": "OUI", "duedate": "2024-06-17T12:57:30+00:00", "coordonnees_geo": {"lon": 2.310542999196392, "lat": 48.896737263309504}, "nom_arrondissement_communes": "Paris", "code_insee_commune": null}, {"stationcode": "26008", "name": "Henri Barbusse - Bourguignons", "is_installed": "OUI", "capacity": 34, "numdocksavailable": 33, "numbikesavailable": 1, "mechanical": 0, "ebike": 1, "is_renting": "OUI", "is_returning": "OUI", "duedate": "2024-06-17T12:52:02+00:00", "coordonnees_geo": {"lon": 2.2734212270774417, "lat": 48.91301722799713}, "nom_arrondissement_communes": "Asni\u00e8res-sur-Seine", "code_insee_commune": null}, {"stationcode": "26009", "name": "Marceau Delorme - Pierre Brossolette", "is_installed": "OUI", "capacity": 28, "numdocksavailable": 10, "numbikesavailable": 16, "mechanical": 10, "ebike": 6, "is_renting": "OUI", "is_returning": "OUI", "duedate": "2024-06-17T12:54:47+00:00", "coordonnees_geo": {"lon": 2.295897423568745, "lat": 48.91206062860357}, "nom_arrondissement_communes": "Asni\u00e8res-sur-Seine", "code_insee_commune": null}, {"stationcode": "34008", "name": "Garibaldi - Gabriel P\u00e9ri", "is_installed": "OUI", "capacity": 30, "numdocksavailable": 12, "numbikesavailable": 16, "mechanical": 14, "ebike": 2, "is_renting": "OUI", "is_returning": "OUI", "duedate": "2024-06-17T12:57:33+00:00", "coordonnees_geo": {"lon": 2.3316044208059, "lat": 48.905741911394}, "nom_arrondissement_communes": "Saint-Ouen-sur-Seine", "code_insee_commune": null}, {"stationcode": "34012", "name": "Bateliers - Quai de Seine", "is_installed": "OUI", "capacity": 26, "numdocksavailable": 11, "numbikesavailable": 15, "mechanical": 15, "ebike": 0, "is_renting": "OUI", "is_returning": "OUI", "duedate": "2024-06-17T08:49:04+00:00", "coordonnees_geo": {"lon": 2.3239533298594, "lat": 48.915817585516}, "nom_arrondissement_communes": "Saint-Ouen-sur-Seine", "code_insee_commune": null}, {"stationcode": "23204", "name": "Roland Garros - Jean Bouin", "is_installed": "OUI", "capacity": 28, "numdocksavailable": 27, "numbikesavailable": 1, "mechanical": 0, "ebike": 1, "is_renting": "OUI", "is_returning": "OUI", "duedate": "2024-06-17T12:52:34+00:00", "coordonnees_geo": {"lon": 2.2853198638301, "lat": 48.809460857173}, "nom_arrondissement_communes": "Ch\u00e2tillon", "code_insee_commune": null}, {"stationcode": "21514", "name": "Place de la Paix - Abb\u00e9 Saint-Pierre", "is_installed": "OUI", "capacity": 24, "numdocksavailable": 22, "numbikesavailable": 1, "mechanical": 0, "ebike": 1, "is_renting": "OUI", "is_returning": "OUI", "duedate": "2024-06-17T12:51:12+00:00", "coordonnees_geo": {"lon": 2.2047570338469806, "lat": 48.86462724459225}, "nom_arrondissement_communes": "Suresnes", "code_insee_commune": null}, {"stationcode": "10026", "name": "Gare de l'Est - Chateau Landon", "is_installed": "OUI", "capacity": 59, "numdocksavailable": 55, "numbikesavailable": 2, "mechanical": 1, "ebike": 1, "is_renting": "OUI", "is_returning": "OUI", "duedate": "2024-06-17T12:54:16+00:00", "coordonnees_geo": {"lon": 2.362424, "lat": 48.879305}, "nom_arrondissement_communes": "Paris", "code_insee_commune": null}, {"stationcode": "18023", "name": "Ordener - Poissonniers", "is_installed": "OUI", "capacity": 35, "numdocksavailable": 30, "numbikesavailable": 3, "mechanical": 1, "ebike": 2, "is_renting": "OUI", "is_returning": "OUI", "duedate": "2024-06-17T12:54:00+00:00", "coordonnees_geo": {"lon": 2.351288666219873, "lat": 48.891213890844654}, "nom_arrondissement_communes": "Paris", "code_insee_commune": null}, {"stationcode": "18024", "name": "Clignancourt - Ordener", "is_installed": "OUI", "capacity": 35, "numdocksavailable": 35, "numbikesavailable": 0, "mechanical": 0, "ebike": 0, "is_renting": "OUI", "is_returning": "OUI", "duedate": "2024-06-17T12:57:49+00:00", "coordonnees_geo": {"lon": 2.348636478060487, "lat": 48.891457726153774}, "nom_arrondissement_communes": "Paris", "code_insee_commune": null}, {"stationcode": "18500", "name": "Arena Porte de la Chapelle", "is_installed": "NON", "capacity": 0, "numdocksavailable": 0, "numbikesavailable": 0, "mechanical": 0, "ebike": 0, "is_renting": "NON", "is_returning": "NON", "duedate": "2024-06-14T14:41:33+00:00", "coordonnees_geo": {"lon": 2.3592036703116, "lat": 48.898245541974}, "nom_arrondissement_communes": "Paris", "code_insee_commune": null}, {"stationcode": "7500", "name": "Invalides", "is_installed": "NON", "capacity": 0, "numdocksavailable": 0, "numbikesavailable": 0, "mechanical": 0, "ebike": 0, "is_renting": "NON", "is_returning": "NON", "duedate": "2024-06-14T13:17:18+00:00", "coordonnees_geo": {"lon": 2.3101201982988, "lat": 48.862460891184}, "nom_arrondissement_communes": "Paris", "code_insee_commune": null}, {"stationcode": "15501", "name": "Arena Paris Sud", "is_installed": "NON", "capacity": 0, "numdocksavailable": 0, "numbikesavailable": 0, "mechanical": 0, "ebike": 0, "is_renting": "NON", "is_returning": "NON", "duedate": "2024-06-14T13:43:35+00:00", "coordonnees_geo": {"lon": 2.2924954906579, "lat": 48.828570063199}, "nom_arrondissement_communes": "Paris", "code_insee_commune": null}, {"stationcode": "33019", "name": "Madeleine Vionnet", "is_installed": "OUI", "capacity": 34, "numdocksavailable": 5, "numbikesavailable": 55, "mechanical": 12, "ebike": 43, "is_renting": "OUI", "is_returning": "OUI", "duedate": "2024-06-17T12:58:16+00:00", "coordonnees_geo": {"lon": 2.3740895837545, "lat": 48.902519074064}, "nom_arrondissement_communes": "Aubervilliers", "code_insee_commune": null}, {"stationcode": "7201", "name": "Place Fontenoy - Saxe", "is_installed": "NON", "capacity": 0, "numdocksavailable": 0, "numbikesavailable": 0, "mechanical": 0, "ebike": 0, "is_renting": "NON", "is_returning": "NON", "duedate": "2024-04-26T16:47:44+00:00", "coordonnees_geo": {"lon": 2.3069813815839, "lat": 48.850270554523}, "nom_arrondissement_communes": "Paris", "code_insee_commune": null}, {"stationcode": "21501", "name": "Pont de Suresnes", "is_installed": "OUI", "capacity": 24, "numdocksavailable": 24, "numbikesavailable": 0, "mechanical": 0, "ebike": 0, "is_renting": "NON", "is_returning": "NON", "duedate": "2018-12-21T14:18:50+00:00", "coordonnees_geo": {"lon": 2.2258946679617, "lat": 48.867415092322}, "nom_arrondissement_communes": "Suresnes", "code_insee_commune": null}, {"stationcode": "13035", "name": "Choisy - Tolbiac", "is_installed": "OUI", "capacity": 0, "numdocksavailable": 0, "numbikesavailable": 0, "mechanical": 0, "ebike": 0, "is_renting": "NON", "is_returning": "NON", "duedate": "2023-11-29T12:09:17+00:00", "coordonnees_geo": {"lon": 2.3602393269539, "lat": 48.82591155587}, "nom_arrondissement_communes": "Paris", "code_insee_commune": null}, {"stationcode": "18031", "name": "Place Albert Kahn", "is_installed": "OUI", "capacity": 0, "numdocksavailable": 0, "numbikesavailable": 0, "mechanical": 0, "ebike": 0, "is_renting": "NON", "is_returning": "NON", "duedate": "2023-07-03T08:59:24+00:00", "coordonnees_geo": {"lon": 2.3455855841349, "lat": 48.89579697978}, "nom_arrondissement_communes": "Paris", "code_insee_commune": null}, {"stationcode": "19204", "name": "Rampal - Belleville", "is_installed": "NON", "capacity": 0, "numdocksavailable": 0, "numbikesavailable": 0, "mechanical": 0, "ebike": 0, "is_renting": "NON", "is_returning": "NON", "duedate": "2023-09-19T08:41:41+00:00", "coordonnees_geo": {"lon": 2.3798409114805, "lat": 48.873114661405}, "nom_arrondissement_communes": "Paris", "code_insee_commune": null}, {"stationcode": "9104", "name": "Caumartin - Provence", "is_installed": "OUI", "capacity": 22, "numdocksavailable": 3, "numbikesavailable": 26, "mechanical": 19, "ebike": 7, "is_renting": "OUI", "is_returning": "OUI", "duedate": "2024-06-17T12:55:02+00:00", "coordonnees_geo": {"lon": 2.3284685611724854, "lat": 48.874422773426545}, "nom_arrondissement_communes": "Paris", "code_insee_commune": null}, {"stationcode": "8038", "name": "Fran\u00e7ois 1er - Montaigne", "is_installed": "OUI", "capacity": 53, "numdocksavailable": 5, "numbikesavailable": 48, "mechanical": 26, "ebike": 22, "is_renting": "OUI", "is_returning": "OUI", "duedate": "2024-06-17T12:57:21+00:00", "coordonnees_geo": {"lon": 2.3066755757207, "lat": 48.866887649978}, "nom_arrondissement_communes": "Paris", "code_insee_commune": null}, {"stationcode": "15056", "name": "Place Balard", "is_installed": "OUI", "capacity": 22, "numdocksavailable": 3, "numbikesavailable": 37, "mechanical": 33, "ebike": 4, "is_renting": "OUI", "is_returning": "OUI", "duedate": "2024-06-17T12:57:34+00:00", "coordonnees_geo": {"lon": 2.2784192115068, "lat": 48.836395736424}, "nom_arrondissement_communes": "Paris", "code_insee_commune": null}, {"stationcode": "32050", "name": "Stade de France", "is_installed": "NON", "capacity": 0, "numdocksavailable": 0, "numbikesavailable": 0, "mechanical": 0, "ebike": 0, "is_renting": "NON", "is_returning": "NON", "duedate": "2024-06-14T14:50:30+00:00", "coordonnees_geo": {"lon": 2.3653386785198, "lat": 48.922987525712}, "nom_arrondissement_communes": "Saint-Denis", "code_insee_commune": null}, {"stationcode": "10114", "name": "Granges aux Belles - H\u00f4pital Saint-Louis", "is_installed": "OUI", "capacity": 60, "numdocksavailable": 57, "numbikesavailable": 2, "mechanical": 0, "ebike": 2, "is_renting": "OUI", "is_returning": "OUI", "duedate": "2024-06-17T12:56:57+00:00", "coordonnees_geo": {"lon": 2.366669436985, "lat": 48.874794994841}, "nom_arrondissement_communes": "Paris", "code_insee_commune": null}, {"stationcode": "15058", "name": "Place du Moulin de Javel", "is_installed": "OUI", "capacity": 45, "numdocksavailable": 2, "numbikesavailable": 48, "mechanical": 34, "ebike": 14, "is_renting": "OUI", "is_returning": "OUI", "duedate": "2024-06-17T12:56:34+00:00", "coordonnees_geo": {"lon": 2.2716060653329, "lat": 48.84021670922}, "nom_arrondissement_communes": "Paris", "code_insee_commune": null}, {"stationcode": "28050", "name": "Paris La D\u00e9fense Arena", "is_installed": "NON", "capacity": 0, "numdocksavailable": 0, "numbikesavailable": 0, "mechanical": 0, "ebike": 0, "is_renting": "NON", "is_returning": "NON", "duedate": "2024-06-14T15:02:46+00:00", "coordonnees_geo": {"lon": 2.2384113642761, "lat": 48.894046800875}, "nom_arrondissement_communes": "Puteaux", "code_insee_commune": null}, {"stationcode": "11046", "name": "Place de la R\u00e9publique - Voltaire", "is_installed": "OUI", "capacity": 19, "numdocksavailable": 3, "numbikesavailable": 15, "mechanical": 13, "ebike": 2, "is_renting": "OUI", "is_returning": "OUI", "duedate": "2024-06-17T12:57:32+00:00", "coordonnees_geo": {"lon": 2.3654810339212, "lat": 48.866830968942}, "nom_arrondissement_communes": "Paris", "code_insee_commune": null}, {"stationcode": "18041", "name": "Rochechouart - Martyrs", "is_installed": "OUI", "capacity": 20, "numdocksavailable": 13, "numbikesavailable": 7, "mechanical": 4, "ebike": 3, "is_renting": "OUI", "is_returning": "OUI", "duedate": "2024-06-17T12:56:24+00:00", "coordonnees_geo": {"lon": 2.3405495658517, "lat": 48.882193779572}, "nom_arrondissement_communes": "Paris", "code_insee_commune": null}, {"stationcode": "11014", "name": "Place de la Nation - Taillebourg", "is_installed": "OUI", "capacity": 47, "numdocksavailable": 40, "numbikesavailable": 5, "mechanical": 1, "ebike": 4, "is_renting": "OUI", "is_returning": "OUI", "duedate": "2024-06-17T12:57:49+00:00", "coordonnees_geo": {"lon": 2.3973043, "lat": 48.8488408}, "nom_arrondissement_communes": "Paris", "code_insee_commune": null}, {"stationcode": "3004", "name": "Place de la R\u00e9publique - Temple", "is_installed": "OUI", "capacity": 18, "numdocksavailable": 3, "numbikesavailable": 15, "mechanical": 9, "ebike": 6, "is_renting": "OUI", "is_returning": "OUI", "duedate": "2024-06-17T12:51:26+00:00", "coordonnees_geo": {"lon": 2.3635464370545, "lat": 48.867211201859}, "nom_arrondissement_communes": "Paris", "code_insee_commune": null}, {"stationcode": "35001", "name": "Jean Jaur\u00e8s - Ouvri\u00e8res Piv\u00e9reuses", "is_installed": "OUI", "capacity": 1, "numdocksavailable": 1, "numbikesavailable": 0, "mechanical": 0, "ebike": 0, "is_renting": "NON", "is_returning": "NON", "duedate": "2024-05-27T07:19:22+00:00", "coordonnees_geo": {"lon": 2.3995766043663, "lat": 48.910423437526}, "nom_arrondissement_communes": "Pantin", "code_insee_commune": null}, {"stationcode": "11037", "name": "Faubourg Du Temple - Republique", "is_installed": "OUI", "capacity": 38, "numdocksavailable": 7, "numbikesavailable": 30, "mechanical": 18, "ebike": 12, "is_renting": "OUI", "is_returning": "OUI", "duedate": "2024-06-17T12:58:14+00:00", "coordonnees_geo": {"lon": 2.3648982158072, "lat": 48.867872484749}, "nom_arrondissement_communes": "Paris", "code_insee_commune": null}, {"stationcode": "8039", "name": "Colis\u00e9e - Champs-Elys\u00e9es", "is_installed": "OUI", "capacity": 24, "numdocksavailable": 2, "numbikesavailable": 15, "mechanical": 6, "ebike": 9, "is_renting": "OUI", "is_returning": "OUI", "duedate": "2024-06-17T12:57:45+00:00", "coordonnees_geo": {"lon": 2.3076190799475, "lat": 48.870475399387}, "nom_arrondissement_communes": "Paris", "code_insee_commune": null}, {"stationcode": "27050", "name": "Stades Yves-du-Manoir", "is_installed": "NON", "capacity": 0, "numdocksavailable": 0, "numbikesavailable": 0, "mechanical": 0, "ebike": 0, "is_renting": "NON", "is_returning": "NON", "duedate": "2024-06-14T15:12:24+00:00", "coordonnees_geo": {"lon": 2.2421668844036, "lat": 48.928117896875}, "nom_arrondissement_communes": "Colombes", "code_insee_commune": null}, {"stationcode": "15060", "name": "Place de la Montagne du Goulet", "is_installed": "OUI", "capacity": 21, "numdocksavailable": 14, "numbikesavailable": 7, "mechanical": 6, "ebike": 1, "is_renting": "OUI", "is_returning": "OUI", "duedate": "2024-06-17T12:56:56+00:00", "coordonnees_geo": {"lon": 2.2773844, "lat": 48.8443415}, "nom_arrondissement_communes": "Paris", "code_insee_commune": null}, {"stationcode": "7111", "name": "Ecole Militaire - Place Joffre", "is_installed": "OUI", "capacity": 26, "numdocksavailable": 6, "numbikesavailable": 20, "mechanical": 15, "ebike": 5, "is_renting": "OUI", "is_returning": "OUI", "duedate": "2024-06-17T12:57:46+00:00", "coordonnees_geo": {"lon": 2.3017993569374, "lat": 48.852060203583}, "nom_arrondissement_communes": "Paris", "code_insee_commune": null}, {"stationcode": "15500", "name": "Arena Champs-de-Mars - Stade Tour Eiffel", "is_installed": "NON", "capacity": 0, "numdocksavailable": 0, "numbikesavailable": 0, "mechanical": 0, "ebike": 0, "is_renting": "NON", "is_returning": "NON", "duedate": "2024-06-14T11:56:48+00:00", "coordonnees_geo": {"lon": 2.2995226684905, "lat": 48.848575331508}, "nom_arrondissement_communes": "Paris", "code_insee_commune": null}, {"stationcode": "15105", "name": "F\u00e9d\u00e9ration - Suffren", "is_installed": "OUI", "capacity": 25, "numdocksavailable": 10, "numbikesavailable": 15, "mechanical": 12, "ebike": 3, "is_renting": "OUI", "is_returning": "OUI", "duedate": "2024-06-17T12:58:15+00:00", "coordonnees_geo": {"lon": 2.2978776320815, "lat": 48.852828153442}, "nom_arrondissement_communes": "Paris", "code_insee_commune": null}, {"stationcode": "8057", "name": "Hoche - Tilsitt", "is_installed": "OUI", "capacity": 33, "numdocksavailable": 24, "numbikesavailable": 9, "mechanical": 1, "ebike": 8, "is_renting": "OUI", "is_returning": "OUI", "duedate": "2024-06-17T12:49:51+00:00", "coordonnees_geo": {"lon": 2.2971323132515, "lat": 48.874836457837}, "nom_arrondissement_communes": "Paris", "code_insee_commune": null}]