[{"stationcode": "5105", "name": "Geoffroy-Saint-Hilaire - Saint-Marcel", "is_installed": "OUI", "capacity": 17, "numdocksavailable": 0, "numbikesavailable": 17, "mechanical": 14, "ebike": 3, "is_renting": "OUI", "is_returning": "OUI", "duedate": "2024-06-16T05:52:13+00:00", "coordonnees_geo": {"lon": 2.356877340669728, "lat": 48.83907826424974}, "nom_arrondissement_communes": "Paris", "code_insee_commune": null}, {"stationcode": "11018", "name": "Saint-Maur - R\u00e9publique", "is_installed": "OUI", "capacity": 38, "numdocksavailable": 18, "numbikesavailable": 19, "mechanical": 18, "ebike": 1, "is_renting": "OUI", "is_returning": "OUI", "duedate": "2024-06-16T05:54:22+00:00", "coordonnees_geo": {"lon": 2.3783174157143, "lat": 48.864185861455}, "nom_arrondissement_communes": "Paris", "code_insee_commune": null}, {"stationcode": "22007", "name": "Commandant Charcot - Bretteville", "is_installed": "OUI", "capacity": 36, "numdocksavailable": 22, "numbikesavailable": 13, "mechanical": 5, "ebike": 8, "is_renting": "OUI", "is_returning": "OUI", "duedate": "2024-06-16T05:52:29+00:00", "coordonnees_geo": {"lon": 2.2558460757136345, "lat": 48.87530570765423}, "nom_arrondissement_communes": "Neuilly-sur-Seine", "code_insee_commune": null}, {"stationcode": "12039", "name": "G\u00e9n\u00e9ral Michel Bizot - Claude Decaen", "is_installed": "OUI", "capacity": 38, "numdocksavailable": 11, "numbikesavailable": 27, "mechanical": 26, "ebike": 1, "is_renting": "OUI", "is_returning": "OUI", "duedate": "2024-06-16T05:54:11+00:00", "coordonnees_geo": {"lon": 2.400927788127704, "lat": 48.83481262982544}, "nom_arrondissement_communes": "Paris", "code_insee_commune": null}, {"stationcode": "13037", "name": "Ivry - Baudricourt", "is_installed": "OUI", "capacity": 20, "numdocksavailable": 15, "numbikesavailable": 5, "mechanical": 1, "ebike": 4, "is_renting": "OUI", "is_returning": "OUI", "duedate": "2024-06-16T05:53:32+00:00", "coordonnees_geo": {"lon": 2.363106073577468, "lat": 48.824695995415006}, "nom_arrondissement_communes": "Paris", "code_insee_commune": null}, {"stationcode": "5031", "name": "Lac\u00e9p\u00e8de - Linn\u00e9", "is_installed": "OUI", "capacity": 54, "numdocksavailable": 5, "numbikesavailable": 46, "mechanical": 36, "ebike": 10, "is_renting": "OUI", "is_returning": "OUI", "duedate": "2024-06-16T05:52:25+00:00", "coordonnees_geo": {"lon": 2.354651279747486, "lat": 48.8437035476636}, "nom_arrondissement_communes": "Paris", "code_insee_commune": null}, {"stationcode": "14025", "name": "Jacquier - Didot", "is_installed": "OUI", "capacity": 30, "numdocksavailable": 24, "numbikesavailable": 2, "mechanical": 0, "ebike": 2, "is_renting": "OUI", "is_returning": "OUI", "duedate": "2024-06-16T05:53:28+00:00", "coordonnees_geo": {"lon": 2.318179272115231, "lat": 48.82953336292279}, "nom_arrondissement_communes": "Paris", "code_insee_commune": null}, {"stationcode": "6009", "name": "Guynemer - Jardin du Luxembourg", "is_installed": "OUI", "capacity": 36, "numdocksavailable": 10, "numbikesavailable": 24, "mechanical": 21, "ebike": 3, "is_renting": "OUI", "is_returning": "OUI", "duedate": "2024-06-16T05:49:34+00:00", "coordonnees_geo": {"lon": 2.3325478, "lat": 48.8466127}, "nom_arrondissement_communes": "Paris", "code_insee_commune": null}, {"stationcode": "30005", "name": "Convention - Campus de Bobigny", "is_installed": "OUI", "capacity": 32, "numdocksavailable": 16, "numbikesavailable": 15, "mechanical": 11, "ebike": 4, "is_renting": "OUI", "is_returning": "OUI", "duedate": "2024-06-16T05:49:06+00:00", "coordonnees_geo": {"lon": 2.4172238067445, "lat": 48.914920058264}, "nom_arrondissement_communes": "Bobigny", "code_insee_commune": null}, {"stationcode": "17050", "name": "Batignolles - Abel Truchet", "is_installed": "OUI", "capacity": 28, "numdocksavailable": 19, "numbikesavailable": 8, "mechanical": 3, "ebike": 5, "is_renting": "OUI", "is_returning": "OUI", "duedate": "2024-06-16T05:49:37+00:00", "coordonnees_geo": {"lon": 2.3238347490884, "lat": 48.883103904582}, "nom_arrondissement_communes": "Paris", "code_insee_commune": null}, {"stationcode": "30007", "name": "Pablo Picasso - Maurice Thorez", "is_installed": "NON", "capacity": 0, "numdocksavailable": 0, "numbikesavailable": 0, "mechanical": 0, "ebike": 0, "is_renting": "NON", "is_returning": "NON", "duedate": "2024-06-16T05:53:25+00:00", "coordonnees_geo": {"lon": 2.4489325365198, "lat": 48.906887812943}, "nom_arrondissement_communes": "Bobigny", "code_insee_commune": null}, {"stationcode": "8044", "name": "Alfred de Vigny - Place du G\u00e9n\u00e9ral Brocard", "is_installed": "OUI", "capacity": 33, "numdocksavailable": 31, "numbikesavailable": 2, "mechanical": 0, "ebike": 2, "is_renting": "OUI", "is_returning": "OUI", "duedate": "2024-06-16T05:45:21+00:00", "coordonnees_geo": {"lon": 2.305254448220567, "lat": 48.87836138361425}, "nom_arrondissement_communes": "Paris", "code_insee_commune": null}, {"stationcode": "1201", "name": "Perrault - Place du Louvre", "is_installed": "OUI", "capacity": 28, "numdocksavailable": 15, "numbikesavailable": 10, "mechanical": 10, "ebike": 0, "is_renting": "OUI", "is_returning": "OUI", "duedate": "2024-06-16T05:51:35+00:00", "coordonnees_geo": {"lon": 2.3412468419093, "lat": 48.860273568996}, "nom_arrondissement_communes": "Paris", "code_insee_commune": null}, {"stationcode": "11040", "name": "Temple - Jean-Pierre Timbaud", "is_installed": "OUI", "capacity": 36, "numdocksavailable": 34, "numbikesavailable": 2, "mechanical": 0, "ebike": 2, "is_renting": "OUI", "is_returning": "OUI", "duedate": "2024-06-16T05:54:12+00:00", "coordonnees_geo": {"lon": 2.3660597205162, "lat": 48.86446597201}, "nom_arrondissement_communes": "Paris", "code_insee_commune": null}, {"stationcode": "10028", "name": "Gare du Nord - Dunkerque", "is_installed": "OUI", "capacity": 29, "numdocksavailable": 18, "numbikesavailable": 11, "mechanical": 3, "ebike": 8, "is_renting": "OUI", "is_returning": "OUI", "duedate": "2024-06-16T04:53:57+00:00", "coordonnees_geo": {"lon": 2.3527636751533, "lat": 48.880423508429}, "nom_arrondissement_communes": "Paris", "code_insee_commune": null}, {"stationcode": "8003", "name": "Galil\u00e9e - Vernet", "is_installed": "OUI", "capacity": 17, "numdocksavailable": 15, "numbikesavailable": 2, "mechanical": 1, "ebike": 1, "is_renting": "OUI", "is_returning": "OUI", "duedate": "2024-06-16T04:44:35+00:00", "coordonnees_geo": {"lon": 2.2985444962978, "lat": 48.871715878697}, "nom_arrondissement_communes": "Paris", "code_insee_commune": null}, {"stationcode": "16140", "name": "Hippodrome de Longchamp", "is_installed": "OUI", "capacity": 30, "numdocksavailable": 27, "numbikesavailable": 1, "mechanical": 0, "ebike": 1, "is_renting": "OUI", "is_returning": "OUI", "duedate": "2024-06-16T04:50:16+00:00", "coordonnees_geo": {"lon": 2.239905372262, "lat": 48.86413226532}, "nom_arrondissement_communes": "Paris", "code_insee_commune": null}, {"stationcode": "7007", "name": "Mus\u00e9e d'Orsay", "is_installed": "OUI", "capacity": 65, "numdocksavailable": 57, "numbikesavailable": 7, "mechanical": 4, "ebike": 3, "is_renting": "OUI", "is_returning": "OUI", "duedate": "2024-06-16T04:53:56+00:00", "coordonnees_geo": {"lon": 2.325860448181629, "lat": 48.85972615790874}, "nom_arrondissement_communes": "Paris", "code_insee_commune": null}, {"stationcode": "3201", "name": "Payenne - Square George Ca\u00efn", "is_installed": "OUI", "capacity": 24, "numdocksavailable": 16, "numbikesavailable": 7, "mechanical": 5, "ebike": 2, "is_renting": "OUI", "is_returning": "OUI", "duedate": "2024-06-16T04:48:44+00:00", "coordonnees_geo": {"lon": 2.3622643, "lat": 48.8578329}, "nom_arrondissement_communes": "Paris", "code_insee_commune": null}, {"stationcode": "21508", "name": "Georges Pompidou - Verdun", "is_installed": "OUI", "capacity": 26, "numdocksavailable": 7, "numbikesavailable": 19, "mechanical": 9, "ebike": 10, "is_renting": "OUI", "is_returning": "OUI", "duedate": "2024-06-16T04:50:50+00:00", "coordonnees_geo": {"lon": 2.232443, "lat": 48.875481}, "nom_arrondissement_communes": "Suresnes", "code_insee_commune": null}, {"stationcode": "15032", "name": "F\u00e9lix Faure - Lourmel", "is_installed": "OUI", "capacity": 58, "numdocksavailable": 31, "numbikesavailable": 26, "mechanical": 20, "ebike": 6, "is_renting": "OUI", "is_returning": "OUI", "duedate": "2024-06-16T04:54:29+00:00", "coordonnees_geo": {"lon": 2.2818081825971603, "lat": 48.83868901709515}, "nom_arrondissement_communes": "Paris", "code_insee_commune": null}, {"stationcode": "20037", "name": "Gambetta - Saint Fargeau", "is_installed": "OUI", "capacity": 24, "numdocksavailable": 18, "numbikesavailable": 6, "mechanical": 0, "ebike": 6, "is_renting": "OUI", "is_returning": "OUI", "duedate": "2024-06-16T04:52:05+00:00", "coordonnees_geo": {"lon": 2.4039056897163396, "lat": 48.871244610447015}, "nom_arrondissement_communes": "Paris", "code_insee_commune": null}, {"stationcode": "19045", "name": "Macdonald - C\u00e9saria Evora", "is_installed": "OUI", "capacity": 67, "numdocksavailable": 58, "numbikesavailable": 6, "mechanical": 3, "ebike": 3, "is_renting": "OUI", "is_returning": "OUI", "duedate": "2024-06-16T04:54:27+00:00", "coordonnees_geo": {"lon": 2.37933, "lat": 48.89883}, "nom_arrondissement_communes": "Paris", "code_insee_commune": null}, {"stationcode": "22302", "name": "Gare RER - G\u00e9n\u00e9ral de Gaulle", "is_installed": "OUI", "capacity": 41, "numdocksavailable": 21, "numbikesavailable": 20, "mechanical": 5, "ebike": 15, "is_renting": "OUI", "is_returning": "OUI", "duedate": "2024-06-16T04:49:13+00:00", "coordonnees_geo": {"lon": 2.3064726536317, "lat": 48.933548439566}, "nom_arrondissement_communes": "Gennevilliers", "code_insee_commune": null}, {"stationcode": "13053", "name": "Chevaleret - Tolbiac", "is_installed": "OUI", "capacity": 21, "numdocksavailable": 15, "numbikesavailable": 4, "mechanical": 4, "ebike": 0, "is_renting": "OUI", "is_returning": "OUI", "duedate": "2024-06-16T04:52:00+00:00", "coordonnees_geo": {"lon": 2.375934, "lat": 48.82941}, "nom_arrondissement_communes": "Paris", "code_insee_commune": null}, {"stationcode": "41212", "name": "Nungesser - Sant\u00e9", "is_installed": "OUI", "capacity": 22, "numdocksavailable": 11, "numbikesavailable": 11, "mechanical": 3, "ebike": 8, "is_renting": "OUI", "is_returning": "OUI", "duedate": "2024-06-16T04:48:10+00:00", "coordonnees_geo": {"lon": 2.448967, "lat": 48.852335}, "nom_arrondissement_communes": "Fontenay-sous-Bois", "code_insee_commune": null}, {"stationcode": "41304", "name": "Port - Maurice Chevalier", "is_installed": "OUI", "capacity": 30, "numdocksavailable": 7, "numbikesavailable": 22, "mechanical": 18, "ebike": 4, "is_renting": "OUI", "is_returning": "OUI", "duedate": "2024-06-16T04:51:45+00:00", "coordonnees_geo": {"lon": 2.490257616467, "lat": 48.832474421632}, "nom_arrondissement_communes": "Nogent-sur-Marne", "code_insee_commune": null}, {"stationcode": "10001_relais", "name": "Ren\u00e9 Boulanger - Lancry", "is_installed": "NON", "capacity": 0, "numdocksavailable": 0, "numbikesavailable": 0, "mechanical": 0, "ebike": 0, "is_renting": "NON", "is_returning": "NON", "duedate": "2024-06-16T04:53:35+00:00", "coordonnees_geo": {"lon": 2.3599605, "lat": 48.8687079}, "nom_arrondissement_communes": "Paris", "code_insee_commune": null}, {"stationcode": "21327", "name": "Jean Bouin - Gouverneur G\u00e9n\u00e9ral Ebou\u00e9", "is_installed": "OUI", "capacity": 31, "numdocksavailable": 23, "numbikesavailable": 7, "mechanical": 5, "ebike": 2, "is_renting": "OUI", "is_returning": "OUI", "duedate": "2024-06-16T04:54:31+00:00", "coordonnees_geo": {"lon": 2.2651904328524, "lat": 48.824792734266}, "nom_arrondissement_communes": "Issy-les-Moulineaux", "code_insee_commune": null}, {"stationcode": "22208", "name": "Stalingrad - Barbara", "is_installed": "OUI", "capacity": 20, "numdocksavailable": 16, "numbikesavailable": 4, "mechanical": 0, "ebike": 4, "is_renting": "OUI", "is_returning": "OUI", "duedate": "2024-06-16T04:54:20+00:00", "coordonnees_geo": {"lon": 2.3175904558822, "lat": 48.809223658808}, "nom_arrondissement_communes": "Bagneux", "code_insee_commune": null}, {"stationcode": "35021", "name": "Cartier Bresson - Denis Papin", "is_installed": "OUI", "capacity": 32, "numdocksavailable": 30, "numbikesavailable": 2, "mechanical": 2, "ebike": 0, "is_renting": "OUI", "is_returning": "OUI", "duedate": "2024-06-16T04:53:51+00:00", "coordonnees_geo": {"lon": 2.397814, "lat": 48.902616}, "nom_arrondissement_communes": "Pantin", "code_insee_commune": null}, {"stationcode": "18045", "name": "Pierre Ginier - Clichy", "is_installed": "OUI", "capacity": 16, "numdocksavailable": 13, "numbikesavailable": 2, "mechanical": 2, "ebike": 0, "is_renting": "OUI", "is_returning": "OUI", "duedate": "2024-06-16T04:53:15+00:00", "coordonnees_geo": {"lon": 2.326228, "lat": 48.8867667}, "nom_arrondissement_communes": "Paris", "code_insee_commune": null}, {"stationcode": "14110", "name": "Abb\u00e9 Carton - Plantes", "is_installed": "OUI", "capacity": 25, "numdocksavailable": 16, "numbikesavailable": 9, "mechanical": 1, "ebike": 8, "is_renting": "OUI", "is_returning": "OUI", "duedate": "2024-06-16T04:52:24+00:00", "coordonnees_geo": {"lon": 2.3209181427956, "lat": 48.827673823166}, "nom_arrondissement_communes": "Paris", "code_insee_commune": null}, {"stationcode": "18018", "name": "Carpeaux - Place Jacques Froment", "is_installed": "OUI", "capacity": 19, "numdocksavailable": 10, "numbikesavailable": 9, "mechanical": 1, "ebike": 8, "is_renting": "OUI", "is_returning": "OUI", "duedate": "2024-06-16T04:49:59+00:00", "coordonnees_geo": {"lon": 2.3309428, "lat": 48.8906542}, "nom_arrondissement_communes": "Paris", "code_insee_commune": null}, {"stationcode": "10025", "name": "Jemmapes - Ecluses Saint-Martin", "is_installed": "OUI", "capacity": 15, "numdocksavailable": 4, "numbikesavailable": 11, "mechanical": 8, "ebike": 3, "is_renting": "OUI", "is_returning": "OUI", "duedate": "2024-06-16T04:53:55+00:00", "coordonnees_geo": {"lon": 2.3660067468881607, "lat": 48.87748519186726}, "nom_arrondissement_communes": "Paris", "code_insee_commune": null}, {"stationcode": "32305", "name": "Saint-Germain - Verdun", "is_installed": "OUI", "capacity": 30, "numdocksavailable": 26, "numbikesavailable": 4, "mechanical": 1, "ebike": 3, "is_renting": "OUI", "is_returning": "OUI", "duedate": "2024-06-16T04:51:21+00:00", "coordonnees_geo": {"lon": 2.4331868384644, "lat": 48.882877330093}, "nom_arrondissement_communes": "Romainville", "code_insee_commune": null}, {"stationcode": "22305", "name": "Jean Jaur\u00e8s - Place du Dr Roux", "is_installed": "OUI", "capacity": 35, "numdocksavailable": 12, "numbikesavailable": 22, "mechanical": 7, "ebike": 15, "is_renting": "OUI", "is_returning": "OUI", "duedate": "2024-06-16T04:51:15+00:00", "coordonnees_geo": {"lon": 2.2947337017374, "lat": 48.927567032796}, "nom_arrondissement_communes": "Gennevilliers", "code_insee_commune": null}, {"stationcode": "22602", "name": "Place Henri Dunant - Gare RER", "is_installed": "OUI", "capacity": 31, "numdocksavailable": 17, "numbikesavailable": 12, "mechanical": 3, "ebike": 9, "is_renting": "OUI", "is_returning": "OUI", "duedate": "2024-06-16T04:52:25+00:00", "coordonnees_geo": {"lon": 2.2909234046643, "lat": 48.788093281931}, "nom_arrondissement_communes": "Fontenay-aux-Roses", "code_insee_commune": null}, {"stationcode": "11201", "name": "Faubourg St-Antoine - Place de la Nation", "is_installed": "OUI", "capacity": 16, "numdocksavailable": 12, "numbikesavailable": 3, "mechanical": 1, "ebike": 2, "is_renting": "OUI", "is_returning": "OUI", "duedate": "2024-06-16T04:51:03+00:00", "coordonnees_geo": {"lon": 2.393606, "lat": 48.8487726}, "nom_arrondissement_communes": "Paris", "code_insee_commune": null}, {"stationcode": "10038", "name": "Place du Colonel Fabien", "is_installed": "OUI", "capacity": 27, "numdocksavailable": 18, "numbikesavailable": 8, "mechanical": 4, "ebike": 4, "is_renting": "OUI", "is_returning": "OUI", "duedate": "2024-06-16T04:53:44+00:00", "coordonnees_geo": {"lon": 2.3698791861534, "lat": 48.87756832086}, "nom_arrondissement_communes": "Paris", "code_insee_commune": null}, {"stationcode": "23205", "name": "Parc des Pierrettes", "is_installed": "OUI", "capacity": 23, "numdocksavailable": 16, "numbikesavailable": 7, "mechanical": 3, "ebike": 4, "is_renting": "OUI", "is_returning": "OUI", "duedate": "2024-06-16T04:48:02+00:00", "coordonnees_geo": {"lon": 2.2909969, "lat": 48.7973062}, "nom_arrondissement_communes": "Ch\u00e2tillon", "code_insee_commune": null}, {"stationcode": "11001", "name": "Richard Lenoir - Place de la Bastille", "is_installed": "OUI", "capacity": 53, "numdocksavailable": 43, "numbikesavailable": 3, "mechanical": 1, "ebike": 2, "is_renting": "OUI", "is_returning": "OUI", "duedate": "2024-06-16T04:54:34+00:00", "coordonnees_geo": {"lon": 2.3697222, "lat": 48.8538327}, "nom_arrondissement_communes": "Paris", "code_insee_commune": null}, {"stationcode": "12165", "name": "Champs de Manoeuvre - Cartoucherie", "is_installed": "OUI", "capacity": 35, "numdocksavailable": 14, "numbikesavailable": 19, "mechanical": 16, "ebike": 3, "is_renting": "OUI", "is_returning": "OUI", "duedate": "2024-06-16T04:54:22+00:00", "coordonnees_geo": {"lon": 2.447974, "lat": 48.835261}, "nom_arrondissement_communes": "Paris", "code_insee_commune": null}, {"stationcode": "22018", "name": "Charles de Gaulle - Les Sablons", "is_installed": "OUI", "capacity": 35, "numdocksavailable": 18, "numbikesavailable": 16, "mechanical": 11, "ebike": 5, "is_renting": "OUI", "is_returning": "OUI", "duedate": "2024-06-16T04:50:27+00:00", "coordonnees_geo": {"lon": 2.2715748726513, "lat": 48.880987514929}, "nom_arrondissement_communes": "Neuilly-sur-Seine", "code_insee_commune": null}, {"stationcode": "32051", "name": "Centre Aquatique Olympique - Stade de France", "is_installed": "NON", "capacity": 200, "numdocksavailable": 200, "numbikesavailable": 0, "mechanical": 0, "ebike": 0, "is_renting": "NON", "is_returning": "NON", "duedate": "2019-06-19T12:26:12+00:00", "coordonnees_geo": {"lon": 2.3577524078641, "lat": 48.915153832393}, "nom_arrondissement_communes": "Saint-Denis", "code_insee_commune": null}, {"stationcode": "23203", "name": "Division Leclerc - Kl\u00e9ber", "is_installed": "OUI", "capacity": 25, "numdocksavailable": 8, "numbikesavailable": 17, "mechanical": 10, "ebike": 7, "is_renting": "OUI", "is_returning": "OUI", "duedate": "2024-06-16T04:46:37+00:00", "coordonnees_geo": {"lon": 2.2833752789972, "lat": 48.798666226364}, "nom_arrondissement_communes": "Ch\u00e2tillon", "code_insee_commune": null}, {"stationcode": "34005", "name": "Adrien Lesesne - Docteur Bauer", "is_installed": "OUI", "capacity": 30, "numdocksavailable": 17, "numbikesavailable": 13, "mechanical": 4, "ebike": 9, "is_renting": "OUI", "is_returning": "OUI", "duedate": "2024-06-16T04:50:23+00:00", "coordonnees_geo": {"lon": 2.348248063431511, "lat": 48.90263867304635}, "nom_arrondissement_communes": "Saint-Ouen-sur-Seine", "code_insee_commune": null}, {"stationcode": "17127", "name": "Porte de Clichy - Place des Nations Unies", "is_installed": "OUI", "capacity": 40, "numdocksavailable": 16, "numbikesavailable": 22, "mechanical": 9, "ebike": 13, "is_renting": "OUI", "is_returning": "OUI", "duedate": "2024-06-16T04:52:27+00:00", "coordonnees_geo": {"lon": 2.310542999196392, "lat": 48.896737263309504}, "nom_arrondissement_communes": "Paris", "code_insee_commune": null}, {"stationcode": "34012", "name": "Bateliers - Quai de Seine", "is_installed": "OUI", "capacity": 26, "numdocksavailable": 1, "numbikesavailable": 23, "mechanical": 19, "ebike": 4, "is_renting": "OUI", "is_returning": "OUI", "duedate": "2024-06-16T04:49:46+00:00", "coordonnees_geo": {"lon": 2.3239533298594, "lat": 48.915817585516}, "nom_arrondissement_communes": "Saint-Ouen-sur-Seine", "code_insee_commune": null}, {"stationcode": "23204", "name": "Roland Garros - Jean Bouin", "is_installed": "OUI", "capacity": 28, "numdocksavailable": 18, "numbikesavailable": 10, "mechanical": 0, "ebike": 10, "is_renting": "OUI", "is_returning": "OUI", "duedate": "2024-06-16T04:54:14+00:00", "coordonnees_geo": {"lon": 2.2853198638301, "lat": 48.809460857173}, "nom_arrondissement_communes": "Ch\u00e2tillon", "code_insee_commune": null}, {"stationcode": "31301", "name": "Gare RER", "is_installed": "OUI", "capacity": 30, "numdocksavailable": 2, "numbikesavailable": 25, "mechanical": 7, "ebike": 18, "is_renting": "OUI", "is_returning": "OUI", "duedate": "2024-06-16T04:50:45+00:00", "coordonnees_geo": {"lon": 2.4581568985227, "lat": 48.896280181078}, "nom_arrondissement_communes": "Noisy-le-Sec", "code_insee_commune": null}, {"stationcode": "21514", "name": "Place de la Paix - Abb\u00e9 Saint-Pierre", "is_installed": "OUI", "capacity": 24, "numdocksavailable": 22, "numbikesavailable": 1, "mechanical": 0, "ebike": 1, "is_renting": "OUI", "is_returning": "OUI", "duedate": "2024-06-16T04:46:23+00:00", "coordonnees_geo": {"lon": 2.2047570338469806, "lat": 48.86462724459225}, "nom_arrondissement_communes": "Suresnes", "code_insee_commune": null}, {"stationcode": "17010", "name": "Jonqui\u00e8re - Docteur Paul Brousse", "is_installed": "OUI", "capacity": 40, "numdocksavailable": 15, "numbikesavailable": 24, "mechanical": 11, "ebike": 13, "is_renting": "OUI", "is_returning": "OUI", "duedate": "2024-06-16T04:49:23+00:00", "coordonnees_geo": {"lon": 2.318705212173216, "lat": 48.894799816683985}, "nom_arrondissement_communes": "Paris", "code_insee_commune": null}, {"stationcode": "18023", "name": "Ordener - Poissonniers", "is_installed": "OUI", "capacity": 35, "numdocksavailable": 24, "numbikesavailable": 11, "mechanical": 6, "ebike": 5, "is_renting": "OUI", "is_returning": "OUI", "duedate": "2024-06-16T04:53:38+00:00", "coordonnees_geo": {"lon": 2.351288666219873, "lat": 48.891213890844654}, "nom_arrondissement_communes": "Paris", "code_insee_commune": null}, {"stationcode": "18024", "name": "Clignancourt - Ordener", "is_installed": "OUI", "capacity": 35, "numdocksavailable": 26, "numbikesavailable": 7, "mechanical": 1, "ebike": 6, "is_renting": "OUI", "is_returning": "OUI", "duedate": "2024-06-16T04:54:09+00:00", "coordonnees_geo": {"lon": 2.348636478060487, "lat": 48.891457726153774}, "nom_arrondissement_communes": "Paris", "code_insee_commune": null}, {"stationcode": "18500", "name": "Arena Porte de la Chapelle", "is_installed": "NON", "capacity": 0, "numdocksavailable": 0, "numbikesavailable": 0, "mechanical": 0, "ebike": 0, "is_renting": "NON", "is_returning": "NON", "duedate": "2024-06-14T14:41:33+00:00", "coordonnees_geo": {"lon": 2.3592036703116, "lat": 48.898245541974}, "nom_arrondissement_communes": "Paris", "code_insee_commune": null}, {"stationcode": "7500", "name": "Invalides", "is_installed": "NON", "capacity": 0, "numdocksavailable": 0, "numbikesavailable": 0, "mechanical": 0, "ebike": 0, "is_renting": "NON", "is_returning": "NON", "duedate": "2024-06-14T13:17:18+00:00", "coordonnees_geo": {"lon": 2.3101201982988, "lat": 48.862460891184}, "nom_arrondissement_communes": "Paris", "code_insee_commune": null}, {"stationcode": "19018", "name": "Cit\u00e9 de la Musique", "is_installed": "OUI", "capacity": 60, "numdocksavailable": 54, "numbikesavailable": 3, "mechanical": 0, "ebike": 3, "is_renting": "OUI", "is_returning": "OUI", "duedate": "2024-06-16T04:44:44+00:00", "coordonnees_geo": {"lon": 2.3925811931922, "lat": 48.888796556487}, "nom_arrondissement_communes": "Paris", "code_insee_commune": null}, {"stationcode": "15501", "name": "Arena Paris Sud", "is_installed": "NON", "capacity": 0, "numdocksavailable": 0, "numbikesavailable": 0, "mechanical": 0, "ebike": 0, "is_renting": "NON", "is_returning": "NON", "duedate": "2024-06-14T13:43:35+00:00", "coordonnees_geo": {"lon": 2.2924954906579, "lat": 48.828570063199}, "nom_arrondissement_communes": "Paris", "code_insee_commune": null}, {"stationcode": "7201", "name": "Place Fontenoy - Saxe", "is_installed": "NON", "capacity": 0, "numdocksavailable": 0, "numbikesavailable": 0, "mechanical": 0, "ebike": 0, "is_renting": "NON", "is_returning": "NON", "duedate": "2024-04-26T16:47:44+00:00", "coordonnees_geo": {"lon": 2.3069813815839, "lat": 48.850270554523}, "nom_arrondissement_communes": "Paris", "code_insee_commune": null}, {"stationcode": "21501", "name": "Pont de Suresnes", "is_installed": "OUI", "capacity": 24, "numdocksavailable": 24, "numbikesavailable": 0, "mechanical": 0, "ebike": 0, "is_renting": "NON", "is_returning": "NON", "duedate": "2018-12-21T14:18:50+00:00", "coordonnees_geo": {"lon": 2.2258946679617, "lat": 48.867415092322}, "nom_arrondissement_communes": "Suresnes", "code_insee_commune": null}, {"stationcode": "13035", "name": "Choisy - Tolbiac", "is_installed": "OUI", "capacity": 0, "numdocksavailable": 0, "numbikesavailable": 0, "mechanical": 0, "ebike": 0, "is_renting": "NON", "is_returning": "NON", "duedate": "2023-11-29T12:09:17+00:00", "coordonnees_geo": {"lon": 2.3602393269539, "lat": 48.82591155587}, "nom_arrondissement_communes": "Paris", "code_insee_commune": null}, {"stationcode": "18031", "name": "Place Albert Kahn", "is_installed": "OUI", "capacity": 0, "numdocksavailable": 0, "numbikesavailable": 0, "mechanical": 0, "ebike": 0, "is_renting": "NON", "is_returning": "NON", "duedate": "2023-07-03T08:59:24+00:00", "coordonnees_geo": {"lon": 2.3455855841349, "lat": 48.89579697978}, "nom_arrondissement_communes": "Paris", "code_insee_commune": null}, {"stationcode": "19204", "name": "Rampal - Belleville", "is_installed": "NON", "capacity": 0, "numdocksavailable": 0, "numbikesavailable": 0, "mechanical": 0, "ebike": 0, "is_renting": "NON", "is_returning": "NON", "duedate": "2023-09-19T08:41:41+00:00", "coordonnees_geo": {"lon": 2.3798409114805, "lat": 48.873114661405}, "nom_arrondissement_communes": "Paris", "code_insee_commune": null}, {"stationcode": "8038", "name": "Fran\u00e7ois 1er - Montaigne", "is_installed": "OUI", "capacity": 53, "numdocksavailable": 40, "numbikesavailable": 13, "mechanical": 12, "ebike": 1, "is_renting": "OUI", "is_returning": "OUI", "duedate": "2024-06-16T04:51:56+00:00", "coordonnees_geo": {"lon": 2.3066755757207, "lat": 48.866887649978}, "nom_arrondissement_communes": "Paris", "code_insee_commune": null}, {"stationcode": "32050", "name": "Stade de France", "is_installed": "NON", "capacity": 0, "numdocksavailable": 0, "numbikesavailable": 0, "mechanical": 0, "ebike": 0, "is_renting": "NON", "is_returning": "NON", "duedate": "2024-06-14T14:50:30+00:00", "coordonnees_geo": {"lon": 2.3653386785198, "lat": 48.922987525712}, "nom_arrondissement_communes": "Saint-Denis", "code_insee_commune": null}, {"stationcode": "10114", "name": "Granges aux Belles - H\u00f4pital Saint-Louis", "is_installed": "OUI", "capacity": 60, "numdocksavailable": 27, "numbikesavailable": 33, "mechanical": 10, "ebike": 23, "is_renting": "OUI", "is_returning": "OUI", "duedate": "2024-06-16T04:52:47+00:00", "coordonnees_geo": {"lon": 2.366669436985, "lat": 48.874794994841}, "nom_arrondissement_communes": "Paris", "code_insee_commune": null}, {"stationcode": "47007", "name": "Libert\u00e9 - Vert-de-Maisons", "is_installed": "OUI", "capacity": 20, "numdocksavailable": 1, "numbikesavailable": 19, "mechanical": 12, "ebike": 7, "is_renting": "OUI", "is_returning": "OUI", "duedate": "2024-06-16T04:53:34+00:00", "coordonnees_geo": {"lon": 2.4328628182411, "lat": 48.790147809608}, "nom_arrondissement_communes": "Maisons-Alfort", "code_insee_commune": null}, {"stationcode": "12010", "name": "Daumesnil - Picpus", "is_installed": "OUI", "capacity": 21, "numdocksavailable": 9, "numbikesavailable": 15, "mechanical": 12, "ebike": 3, "is_renting": "OUI", "is_returning": "OUI", "duedate": "2024-06-16T04:47:37+00:00", "coordonnees_geo": {"lon": 2.401765, "lat": 48.8374688}, "nom_arrondissement_communes": "Paris", "code_insee_commune": null}, {"stationcode": "28050", "name": "Paris La D\u00e9fense Arena", "is_installed": "NON", "capacity": 0, "numdocksavailable": 0, "numbikesavailable": 0, "mechanical": 0, "ebike": 0, "is_renting": "NON", "is_returning": "NON", "duedate": "2024-06-14T15:02:46+00:00", "coordonnees_geo": {"lon": 2.2384113642761, "lat": 48.894046800875}, "nom_arrondissement_communes": "Puteaux", "code_insee_commune": null}, {"stationcode": "11046", "name": "Place de la R\u00e9publique - Voltaire", "is_installed": "OUI", "capacity": 19, "numdocksavailable": 19, "numbikesavailable": 0, "mechanical": 0, "ebike": 0, "is_renting": "OUI", "is_returning": "OUI", "duedate": "2024-06-16T04:54:03+00:00", "coordonnees_geo": {"lon": 2.3654810339212, "lat": 48.866830968942}, "nom_arrondissement_communes": "Paris", "code_insee_commune": null}, {"stationcode": "12105", "name": "Bercy - Villot", "is_installed": "OUI", "capacity": 33, "numdocksavailable": 8, "numbikesavailable": 27, "mechanical": 26, "ebike": 1, "is_renting": "OUI", "is_returning": "OUI", "duedate": "2024-06-16T04:51:08+00:00", "coordonnees_geo": {"lon": 2.3767850184816, "lat": 48.841795009027}, "nom_arrondissement_communes": "Paris", "code_insee_commune": null}, {"stationcode": "11014", "name": "Place de la Nation - Taillebourg", "is_installed": "OUI", "capacity": 47, "numdocksavailable": 40, "numbikesavailable": 7, "mechanical": 4, "ebike": 3, "is_renting": "OUI", "is_returning": "OUI", "duedate": "2024-06-16T04:50:59+00:00", "coordonnees_geo": {"lon": 2.3973043, "lat": 48.8488408}, "nom_arrondissement_communes": "Paris", "code_insee_commune": null}, {"stationcode": "3004", "name": "Place de la R\u00e9publique - Temple", "is_installed": "OUI", "capacity": 18, "numdocksavailable": 17, "numbikesavailable": 1, "mechanical": 0, "ebike": 1, "is_renting": "OUI", "is_returning": "OUI", "duedate": "2024-06-16T04:53:01+00:00", "coordonnees_geo": {"lon": 2.3635464370545, "lat": 48.867211201859}, "nom_arrondissement_communes": "Paris", "code_insee_commune": null}, {"stationcode": "35001", "name": "Jean Jaur\u00e8s - Ouvri\u00e8res Piv\u00e9reuses", "is_installed": "OUI", "capacity": 1, "numdocksavailable": 1, "numbikesavailable": 0, "mechanical": 0, "ebike": 0, "is_renting": "NON", "is_returning": "NON", "duedate": "2024-05-27T07:19:22+00:00", "coordonnees_geo": {"lon": 2.3995766043663, "lat": 48.910423437526}, "nom_arrondissement_communes": "Pantin", "code_insee_commune": null}, {"stationcode": "11020", "name": "Belfort - Voltaire", "is_installed": "OUI", "capacity": 39, "numdocksavailable": 24, "numbikesavailable": 11, "mechanical": 10, "ebike": 1, "is_renting": "OUI", "is_returning": "OUI", "duedate": "2024-06-16T04:53:29+00:00", "coordonnees_geo": {"lon": 2.3829901, "lat": 48.8563358}, "nom_arrondissement_communes": "Paris", "code_insee_commune": null}, {"stationcode": "11037", "name": "Faubourg Du Temple - Republique", "is_installed": "OUI", "capacity": 38, "numdocksavailable": 25, "numbikesavailable": 11, "mechanical": 6, "ebike": 5, "is_renting": "OUI", "is_returning": "OUI", "duedate": "2024-06-16T04:53:38+00:00", "coordonnees_geo": {"lon": 2.3648982158072, "lat": 48.867872484749}, "nom_arrondissement_communes": "Paris", "code_insee_commune": null}, {"stationcode": "11102", "name": "Alexandre Dumas - Voltaire", "is_installed": "OUI", "capacity": 59, "numdocksavailable": 38, "numbikesavailable": 19, "mechanical": 13, "ebike": 6, "is_renting": "OUI", "is_returning": "OUI", "duedate": "2024-06-16T04:54:06+00:00", "coordonnees_geo": {"lon": 2.3891476408096, "lat": 48.852888670365}, "nom_arrondissement_communes": "Paris", "code_insee_commune": null}, {"stationcode": "21213", "name": "Vanne - G\u00e9n\u00e9ral de Gaulle", "is_installed": "OUI", "capacity": 25, "numdocksavailable": 18, "numbikesavailable": 6, "mechanical": 2, "ebike": 4, "is_renting": "OUI", "is_returning": "OUI", "duedate": "2024-06-16T04:52:28+00:00", "coordonnees_geo": {"lon": 2.328318, "lat": 48.815007}, "nom_arrondissement_communes": "Montrouge", "code_insee_commune": null}, {"stationcode": "8039", "name": "Colis\u00e9e - Champs-Elys\u00e9es", "is_installed": "OUI", "capacity": 24, "numdocksavailable": 16, "numbikesavailable": 1, "mechanical": 0, "ebike": 1, "is_renting": "OUI", "is_returning": "OUI", "duedate": "2024-06-16T04:52:47+00:00", "coordonnees_geo": {"lon": 2.3076190799475, "lat": 48.870475399387}, "nom_arrondissement_communes": "Paris", "code_insee_commune": null}, {"stationcode": "18044", "name": "Clichy - Douai", "is_installed": "OUI", "capacity": 32, "numdocksavailable": 26, "numbikesavailable": 4, "mechanical": 3, "ebike": 1, "is_renting": "OUI", "is_returning": "OUI", "duedate": "2024-06-16T04:51:41+00:00", "coordonnees_geo": {"lon": 2.328063700029, "lat": 48.883687771522}, "nom_arrondissement_communes": "Paris", "code_insee_commune": null}, {"stationcode": "11009", "name": "Boulets - Voltaire", "is_installed": "OUI", "capacity": 24, "numdocksavailable": 9, "numbikesavailable": 13, "mechanical": 10, "ebike": 3, "is_renting": "OUI", "is_returning": "OUI", "duedate": "2024-06-16T04:53:16+00:00", "coordonnees_geo": {"lon": 2.3890301585197, "lat": 48.85218705621}, "nom_arrondissement_communes": "Paris", "code_insee_commune": null}, {"stationcode": "27050", "name": "Stades Yves-du-Manoir", "is_installed": "NON", "capacity": 0, "numdocksavailable": 0, "numbikesavailable": 0, "mechanical": 0, "ebike": 0, "is_renting": "NON", "is_returning": "NON", "duedate": "2024-06-14T15:12:24+00:00", "coordonnees_geo": {"lon": 2.2421668844036, "lat": 48.928117896875}, "nom_arrondissement_communes": "Colombes", "code_insee_commune": null}, {"stationcode": "11012", "name": "Montreuil - Voltaire", "is_installed": "OUI", "capacity": 34, "numdocksavailable": 22, "numbikesavailable": 11, "mechanical": 7, "ebike": 4, "is_renting": "OUI", "is_returning": "OUI", "duedate": "2024-06-16T04:48:17+00:00", "coordonnees_geo": {"lon": 2.3930755582745, "lat": 48.850507011842}, "nom_arrondissement_communes": "Paris", "code_insee_commune": null}, {"stationcode": "7111", "name": "Ecole Militaire - Place Joffre", "is_installed": "OUI", "capacity": 26, "numdocksavailable": 8, "numbikesavailable": 18, "mechanical": 17, "ebike": 1, "is_renting": "OUI", "is_returning": "OUI", "duedate": "2024-06-16T04:53:50+00:00", "coordonnees_geo": {"lon": 2.3017993569374, "lat": 48.852060203583}, "nom_arrondissement_communes": "Paris", "code_insee_commune": null}, {"stationcode": "15500", "name": "Arena Champs-de-Mars - Stade Tour Eiffel", "is_installed": "NON", "capacity": 0, "numdocksavailable": 0, "numbikesavailable": 0, "mechanical": 0, "ebike": 0, "is_renting": "NON", "is_returning": "NON", "duedate": "2024-06-14T11:56:48+00:00", "coordonnees_geo": {"lon": 2.2995226684905, "lat": 48.848575331508}, "nom_arrondissement_communes": "Paris", "code_insee_commune": null}, {"stationcode": "12157", "name": "Fabre d'Eglantine - Place de la Nation", "is_installed": "OUI", "capacity": 68, "numdocksavailable": 23, "numbikesavailable": 45, "mechanical": 39, "ebike": 6, "is_renting": "OUI", "is_returning": "OUI", "duedate": "2024-06-16T04:52:00+00:00", "coordonnees_geo": {"lon": 2.3956204, "lat": 48.8471116}, "nom_arrondissement_communes": "Paris", "code_insee_commune": null}, {"stationcode": "7109", "name": "Place Joffre - Fr\u00e9d\u00e9ric le Play", "is_installed": "OUI", "capacity": 38, "numdocksavailable": 12, "numbikesavailable": 26, "mechanical": 14, "ebike": 12, "is_renting": "OUI", "is_returning": "OUI", "duedate": "2024-06-16T04:52:24+00:00", "coordonnees_geo": {"lon": 2.3044242337346, "lat": 48.853754486938}, "nom_arrondissement_communes": "Paris", "code_insee_commune": null}, {"stationcode": "16103", "name": "Traktir - Foch", "is_installed": "OUI", "capacity": 22, "numdocksavailable": 20, "numbikesavailable": 1, "mechanical": 1, "ebike": 0, "is_renting": "OUI", "is_returning": "OUI", "duedate": "2024-06-16T04:51:00+00:00", "coordonnees_geo": {"lon": 2.2915497802487, "lat": 48.872755334614}, "nom_arrondissement_communes": "Paris", "code_insee_commune": null}, {"stationcode": "8004", "name": "Malesherbes - Place de la Madeleine", "is_installed": "OUI", "capacity": 67, "numdocksavailable": 31, "numbikesavailable": 35, "mechanical": 34, "ebike": 1, "is_renting": "OUI", "is_returning": "OUI", "duedate": "2024-06-16T04:53:09+00:00", "coordonnees_geo": {"lon": 2.323243509808, "lat": 48.870406028483}, "nom_arrondissement_communes": "Paris", "code_insee_commune": null}, {"stationcode": "12107", "name": "Diderot - Pierre Bourdan", "is_installed": "OUI", "capacity": 21, "numdocksavailable": 16, "numbikesavailable": 5, "mechanical": 5, "ebike": 0, "is_renting": "OUI", "is_returning": "OUI", "duedate": "2024-06-16T04:53:53+00:00", "coordonnees_geo": {"lon": 2.3902582749724, "lat": 48.847648620797}, "nom_arrondissement_communes": "Paris", "code_insee_commune": null}, {"stationcode": "23011", "name": "Bineau - Louise Michel", "is_installed": "OUI", "capacity": 26, "numdocksavailable": 13, "numbikesavailable": 12, "mechanical": 6, "ebike": 6, "is_renting": "OUI", "is_returning": "OUI", "duedate": "2024-06-16T04:47:13+00:00", "coordonnees_geo": {"lon": 2.2843274474144, "lat": 48.88666162207}, "nom_arrondissement_communes": "Levallois-Perret", "code_insee_commune": null}, {"stationcode": "4010", "name": "Saint-Antoine S\u00e9vign\u00e9", "is_installed": "OUI", "capacity": 26, "numdocksavailable": 18, "numbikesavailable": 9, "mechanical": 8, "ebike": 1, "is_renting": "OUI", "is_returning": "OUI", "duedate": "2024-06-16T04:52:39+00:00", "coordonnees_geo": {"lon": 2.3612322, "lat": 48.8550222}, "nom_arrondissement_communes": "Paris", "code_insee_commune": null}, {"stationcode": "4104", "name": "Sebastopol - Rambuteau", "is_installed": "OUI", "capacity": 16, "numdocksavailable": 13, "numbikesavailable": 2, "mechanical": 2, "ebike": 0, "is_renting": "OUI", "is_returning": "OUI", "duedate": "2024-06-16T04:53:53+00:00", "coordonnees_geo": {"lon": 2.3501381278038, "lat": 48.86181809267}, "nom_arrondissement_communes": "Paris", "code_insee_commune": null}, {"stationcode": "15122", "name": "Place Charles Vallin", "is_installed": "OUI", "capacity": 26, "numdocksavailable": 6, "numbikesavailable": 18, "mechanical": 10, "ebike": 8, "is_renting": "OUI", "is_returning": "OUI", "duedate": "2024-06-16T04:53:55+00:00", "coordonnees_geo": {"lon": 2.3025986552238, "lat": 48.835523812041}, "nom_arrondissement_communes": "Paris", "code_insee_commune": null}, {"stationcode": "27004", "name": "Gare de la Garenne-Colombes", "is_installed": "OUI", "capacity": 0, "numdocksavailable": 0, "numbikesavailable": 0, "mechanical": 0, "ebike": 0, "is_renting": "NON", "is_returning": "NON", "duedate": "2018-12-21T14:48:55+00:00", "coordonnees_geo": {"lon": 2.239145, "lat": 48.909752}, "nom_arrondissement_communes": "Colombes", "code_insee_commune": null}, {"stationcode": "1022", "name": "Danielle Casanova - Place Vend\u00f4me", "is_installed": "OUI", "capacity": 37, "numdocksavailable": 26, "numbikesavailable": 9, "mechanical": 7, "ebike": 2, "is_renting": "OUI", "is_returning": "OUI", "duedate": "2024-06-16T04:53:42+00:00", "coordonnees_geo": {"lon": 2.3304839059711, "lat": 48.868266498223}, "nom_arrondissement_communes": "Paris", "code_insee_commune": null}, {"stationcode": "13123", "name": "BNF - Biblioth\u00e8que Nationale de France", "is_installed": "OUI", "capacity": 42, "numdocksavailable": 21, "numbikesavailable": 35, "mechanical": 34, "ebike": 1, "is_renting": "OUI", "is_returning": "OUI", "duedate": "2024-06-16T04:51:14+00:00", "coordonnees_geo": {"lon": 2.3760157451034, "lat": 48.8350268238}, "nom_arrondissement_communes": "Paris", "code_insee_commune": null}, {"stationcode": "21404", "name": "Jean Jaur\u00e8s - Gare de Clamart", "is_installed": "OUI", "capacity": 20, "numdocksavailable": 7, "numbikesavailable": 12, "mechanical": 2, "ebike": 10, "is_renting": "OUI", "is_returning": "OUI", "duedate": "2024-06-16T04:53:49+00:00", "coordonnees_geo": {"lon": 2.2716768079163, "lat": 48.81321981219}, "nom_arrondissement_communes": "Clamart", "code_insee_commune": null}, {"stationcode": "16107", "name": "Benjamin Godard - Victor Hugo", "is_installed": "OUI", "capacity": 35, "numdocksavailable": 33, "numbikesavailable": 1, "mechanical": 1, "ebike": 0, "is_renting": "OUI", "is_returning": "OUI", "duedate": "2024-06-16T14:55:09+00:00", "coordonnees_geo": {"lon": 2.275725, "lat": 48.865983}, "nom_arrondissement_communes": "Paris", "code_insee_commune": null}]