[{"stationcode": "20012", "name": "Buzenval - Vignoles", "is_installed": "OUI", "capacity": 17, "numdocksavailable": 1, "numbikesavailable": 13, "mechanical": 4, "ebike": 9, "is_renting": "OUI", "is_returning": "OUI", "duedate": "2024-06-13T21:53:51+00:00", "coordonnees_geo": {"lon": 2.400004081428051, "lat": 48.85385817168762}, "nom_arrondissement_communes": "Paris", "code_insee_commune": null}, {"stationcode": "35013", "name": "Guillaume Tell - Parc Henri Barbusse", "is_installed": "OUI", "capacity": 20, "numdocksavailable": 12, "numbikesavailable": 7, "mechanical": 3, "ebike": 4, "is_renting": "OUI", "is_returning": "OUI", "duedate": "2024-06-13T21:46:27+00:00", "coordonnees_geo": {"lon": 2.4198862910270695, "lat": 48.88958925894009}, "nom_arrondissement_communes": "Pantin", "code_insee_commune": null}, {"stationcode": "20020", "name": "Pyr\u00e9n\u00e9es - Charles Renouvier", "is_installed": "OUI", "capacity": 29, "numdocksavailable": 19, "numbikesavailable": 9, "mechanical": 0, "ebike": 9, "is_renting": "OUI", "is_returning": "OUI", "duedate": "2024-06-13T21:48:29+00:00", "coordonnees_geo": {"lon": 2.400421852042113, "lat": 48.86095933229224}, "nom_arrondissement_communes": "Paris", "code_insee_commune": null}, {"stationcode": "12008", "name": "Hector Malot - Daumesnil", "is_installed": "OUI", "capacity": 54, "numdocksavailable": 2, "numbikesavailable": 51, "mechanical": 50, "ebike": 1, "is_renting": "OUI", "is_returning": "OUI", "duedate": "2024-06-13T21:54:27+00:00", "coordonnees_geo": {"lon": 2.3770876228809357, "lat": 48.84693552991762}, "nom_arrondissement_communes": "Paris", "code_insee_commune": null}, {"stationcode": "13120", "name": "Pierre Joseph Desault", "is_installed": "OUI", "capacity": 19, "numdocksavailable": 2, "numbikesavailable": 17, "mechanical": 9, "ebike": 8, "is_renting": "OUI", "is_returning": "OUI", "duedate": "2024-06-13T21:54:23+00:00", "coordonnees_geo": {"lon": 2.378775402903557, "lat": 48.82110230800372}, "nom_arrondissement_communes": "Paris", "code_insee_commune": null}, {"stationcode": "15024", "name": "Suffren - La Motte-Piquet", "is_installed": "OUI", "capacity": 23, "numdocksavailable": 11, "numbikesavailable": 12, "mechanical": 10, "ebike": 2, "is_renting": "OUI", "is_returning": "OUI", "duedate": "2024-06-13T21:54:09+00:00", "coordonnees_geo": {"lon": 2.3012199997902, "lat": 48.850881230919}, "nom_arrondissement_communes": "Paris", "code_insee_commune": null}, {"stationcode": "12119", "name": "Dom-P\u00e9rignon - Gravelle", "is_installed": "OUI", "capacity": 50, "numdocksavailable": 34, "numbikesavailable": 14, "mechanical": 3, "ebike": 11, "is_renting": "OUI", "is_returning": "OUI", "duedate": "2024-06-13T21:51:58+00:00", "coordonnees_geo": {"lon": 2.409880310297, "lat": 48.825481574435}, "nom_arrondissement_communes": "Paris", "code_insee_commune": null}, {"stationcode": "43007", "name": "H\u00f4tel de Ville de Vincennes", "is_installed": "OUI", "capacity": 27, "numdocksavailable": 25, "numbikesavailable": 1, "mechanical": 0, "ebike": 1, "is_renting": "OUI", "is_returning": "OUI", "duedate": "2024-06-13T21:50:45+00:00", "coordonnees_geo": {"lon": 2.4398955702781677, "lat": 48.84827609706963}, "nom_arrondissement_communes": "Vincennes", "code_insee_commune": null}, {"stationcode": "15050", "name": "Dominique Pado - Croix Nivert", "is_installed": "OUI", "capacity": 22, "numdocksavailable": 0, "numbikesavailable": 20, "mechanical": 17, "ebike": 3, "is_renting": "OUI", "is_returning": "OUI", "duedate": "2024-06-13T21:50:44+00:00", "coordonnees_geo": {"lon": 2.2897250577807426, "lat": 48.83648798164934}, "nom_arrondissement_communes": "Paris", "code_insee_commune": null}, {"stationcode": "14009", "name": "Tombe Issoire - Ren\u00e9 Coty", "is_installed": "OUI", "capacity": 36, "numdocksavailable": 13, "numbikesavailable": 22, "mechanical": 9, "ebike": 13, "is_renting": "OUI", "is_returning": "OUI", "duedate": "2024-06-13T21:53:09+00:00", "coordonnees_geo": {"lon": 2.3343613743782, "lat": 48.830512876709}, "nom_arrondissement_communes": "Paris", "code_insee_commune": null}, {"stationcode": "17117", "name": "Pereire - Saussure", "is_installed": "OUI", "capacity": 32, "numdocksavailable": 26, "numbikesavailable": 6, "mechanical": 5, "ebike": 1, "is_renting": "OUI", "is_returning": "OUI", "duedate": "2024-06-13T21:53:17+00:00", "coordonnees_geo": {"lon": 2.3101296275854, "lat": 48.888229075478}, "nom_arrondissement_communes": "Paris", "code_insee_commune": null}, {"stationcode": "15045", "name": "Porte de la Plaine", "is_installed": "OUI", "capacity": 35, "numdocksavailable": 32, "numbikesavailable": 3, "mechanical": 2, "ebike": 1, "is_renting": "OUI", "is_returning": "OUI", "duedate": "2024-06-13T21:45:52+00:00", "coordonnees_geo": {"lon": 2.2924277186393742, "lat": 48.82805169605981}, "nom_arrondissement_communes": "Paris", "code_insee_commune": null}, {"stationcode": "25004", "name": "Marcel Pourtout - \u00c9douard Manet", "is_installed": "OUI", "capacity": 24, "numdocksavailable": 10, "numbikesavailable": 14, "mechanical": 13, "ebike": 1, "is_renting": "OUI", "is_returning": "OUI", "duedate": "2024-06-13T21:47:26+00:00", "coordonnees_geo": {"lon": 2.1655967831611638, "lat": 48.87555620763429}, "nom_arrondissement_communes": "Rueil-Malmaison", "code_insee_commune": null}, {"stationcode": "12022", "name": "Sahel - G\u00e9n\u00e9ral Michel Bizot", "is_installed": "OUI", "capacity": 33, "numdocksavailable": 9, "numbikesavailable": 23, "mechanical": 16, "ebike": 7, "is_renting": "OUI", "is_returning": "OUI", "duedate": "2024-06-13T21:53:44+00:00", "coordonnees_geo": {"lon": 2.4044444784522057, "lat": 48.840872964793355}, "nom_arrondissement_communes": "Paris", "code_insee_commune": null}, {"stationcode": "14005", "name": "Ren\u00e9 Coty - Place Denfert-Rochereau", "is_installed": "OUI", "capacity": 36, "numdocksavailable": 34, "numbikesavailable": 1, "mechanical": 0, "ebike": 1, "is_renting": "OUI", "is_returning": "OUI", "duedate": "2024-06-13T21:49:40+00:00", "coordonnees_geo": {"lon": 2.3329411447048, "lat": 48.833056477316}, "nom_arrondissement_communes": "Paris", "code_insee_commune": null}, {"stationcode": "21023", "name": "Ancienne Mairie - Andr\u00e9 Morizet", "is_installed": "OUI", "capacity": 25, "numdocksavailable": 4, "numbikesavailable": 21, "mechanical": 14, "ebike": 7, "is_renting": "OUI", "is_returning": "OUI", "duedate": "2024-06-13T21:52:22+00:00", "coordonnees_geo": {"lon": 2.234077, "lat": 48.838311}, "nom_arrondissement_communes": "Boulogne-Billancourt", "code_insee_commune": null}, {"stationcode": "42205", "name": "Place Aristide Briand", "is_installed": "OUI", "capacity": 35, "numdocksavailable": 7, "numbikesavailable": 28, "mechanical": 12, "ebike": 16, "is_renting": "OUI", "is_returning": "OUI", "duedate": "2024-06-13T21:52:18+00:00", "coordonnees_geo": {"lon": 2.413003742694855, "lat": 48.82189236575831}, "nom_arrondissement_communes": "Charenton-le-Pont", "code_insee_commune": null}, {"stationcode": "43004", "name": "Montreuil - R\u00e9publique", "is_installed": "OUI", "capacity": 25, "numdocksavailable": 17, "numbikesavailable": 8, "mechanical": 7, "ebike": 1, "is_renting": "OUI", "is_returning": "OUI", "duedate": "2024-06-13T21:50:57+00:00", "coordonnees_geo": {"lon": 2.4345204234123234, "lat": 48.85026349463687}, "nom_arrondissement_communes": "Vincennes", "code_insee_commune": null}, {"stationcode": "31701", "name": "Mairie de Bagnolet", "is_installed": "OUI", "capacity": 28, "numdocksavailable": 14, "numbikesavailable": 13, "mechanical": 2, "ebike": 11, "is_renting": "OUI", "is_returning": "OUI", "duedate": "2024-06-13T21:50:34+00:00", "coordonnees_geo": {"lon": 2.4179587885737, "lat": 48.868421318555}, "nom_arrondissement_communes": "Bagnolet", "code_insee_commune": null}, {"stationcode": "20014", "name": "Charonne - Alexandre Dumas", "is_installed": "OUI", "capacity": 35, "numdocksavailable": 11, "numbikesavailable": 23, "mechanical": 15, "ebike": 8, "is_renting": "OUI", "is_returning": "OUI", "duedate": "2024-06-13T21:52:44+00:00", "coordonnees_geo": {"lon": 2.3948693275452, "lat": 48.856077415056}, "nom_arrondissement_communes": "Paris", "code_insee_commune": null}, {"stationcode": "8007", "name": "Rome - Provence", "is_installed": "OUI", "capacity": 30, "numdocksavailable": 28, "numbikesavailable": 2, "mechanical": 1, "ebike": 1, "is_renting": "OUI", "is_returning": "OUI", "duedate": "2024-06-13T21:50:46+00:00", "coordonnees_geo": {"lon": 2.325570111724113, "lat": 48.874230055580306}, "nom_arrondissement_communes": "Paris", "code_insee_commune": null}, {"stationcode": "18101", "name": "Championnet.", "is_installed": "OUI", "capacity": 22, "numdocksavailable": 10, "numbikesavailable": 10, "mechanical": 6, "ebike": 4, "is_renting": "OUI", "is_returning": "OUI", "duedate": "2024-06-13T21:53:16+00:00", "coordonnees_geo": {"lon": 2.3498166, "lat": 48.8953643}, "nom_arrondissement_communes": "Paris", "code_insee_commune": null}, {"stationcode": "11016", "name": "Philippe-Auguste", "is_installed": "OUI", "capacity": 48, "numdocksavailable": 33, "numbikesavailable": 15, "mechanical": 6, "ebike": 9, "is_renting": "OUI", "is_returning": "OUI", "duedate": "2024-06-13T21:47:17+00:00", "coordonnees_geo": {"lon": 2.3932945355773, "lat": 48.851853488265}, "nom_arrondissement_communes": "Paris", "code_insee_commune": null}, {"stationcode": "12122", "name": "Bois de Vincennes - Polygone", "is_installed": "OUI", "capacity": 51, "numdocksavailable": 49, "numbikesavailable": 1, "mechanical": 0, "ebike": 1, "is_renting": "OUI", "is_returning": "OUI", "duedate": "2024-06-13T21:44:57+00:00", "coordonnees_geo": {"lon": 2.431421081436563, "lat": 48.83544491617421}, "nom_arrondissement_communes": "Paris", "code_insee_commune": null}, {"stationcode": "16023", "name": "Passy - Place du Costa Rica", "is_installed": "OUI", "capacity": 33, "numdocksavailable": 23, "numbikesavailable": 8, "mechanical": 1, "ebike": 7, "is_renting": "OUI", "is_returning": "OUI", "duedate": "2024-06-13T21:48:40+00:00", "coordonnees_geo": {"lon": 2.2839655, "lat": 48.8584893}, "nom_arrondissement_communes": "Paris", "code_insee_commune": null}, {"stationcode": "6004", "name": "Regard - Rennes", "is_installed": "OUI", "capacity": 46, "numdocksavailable": 43, "numbikesavailable": 3, "mechanical": 1, "ebike": 2, "is_renting": "OUI", "is_returning": "OUI", "duedate": "2024-06-13T21:47:47+00:00", "coordonnees_geo": {"lon": 2.3268555477262, "lat": 48.847385404956}, "nom_arrondissement_communes": "Paris", "code_insee_commune": null}, {"stationcode": "11029", "name": "M\u00e9nilmontant - Oberkampf", "is_installed": "OUI", "capacity": 40, "numdocksavailable": 14, "numbikesavailable": 25, "mechanical": 17, "ebike": 8, "is_renting": "OUI", "is_returning": "OUI", "duedate": "2024-06-13T21:51:48+00:00", "coordonnees_geo": {"lon": 2.3830134404158, "lat": 48.866617658681}, "nom_arrondissement_communes": "Paris", "code_insee_commune": null}, {"stationcode": "19014", "name": "Lorraine - Jean Jaur\u00e8s", "is_installed": "OUI", "capacity": 19, "numdocksavailable": 0, "numbikesavailable": 18, "mechanical": 8, "ebike": 10, "is_renting": "OUI", "is_returning": "OUI", "duedate": "2024-06-13T21:54:14+00:00", "coordonnees_geo": {"lon": 2.3825772, "lat": 48.8863865}, "nom_arrondissement_communes": "Paris", "code_insee_commune": null}, {"stationcode": "22014", "name": "Victor Hugo - Bineau", "is_installed": "OUI", "capacity": 25, "numdocksavailable": 20, "numbikesavailable": 5, "mechanical": 3, "ebike": 2, "is_renting": "OUI", "is_returning": "OUI", "duedate": "2024-06-13T21:53:42+00:00", "coordonnees_geo": {"lon": 2.2783890366554265, "lat": 48.88758225888669}, "nom_arrondissement_communes": "Neuilly-sur-Seine", "code_insee_commune": null}, {"stationcode": "21027", "name": "Fief - R\u00e9publique", "is_installed": "OUI", "capacity": 25, "numdocksavailable": 14, "numbikesavailable": 11, "mechanical": 11, "ebike": 0, "is_renting": "OUI", "is_returning": "OUI", "duedate": "2024-06-13T21:51:04+00:00", "coordonnees_geo": {"lon": 2.255771979689598, "lat": 48.83170888166024}, "nom_arrondissement_communes": "Boulogne-Billancourt", "code_insee_commune": null}, {"stationcode": "12040", "name": "Porte de Charenton", "is_installed": "OUI", "capacity": 67, "numdocksavailable": 59, "numbikesavailable": 7, "mechanical": 3, "ebike": 4, "is_renting": "OUI", "is_returning": "OUI", "duedate": "2024-06-13T21:51:18+00:00", "coordonnees_geo": {"lon": 2.3989107459783554, "lat": 48.83124010585643}, "nom_arrondissement_communes": "Paris", "code_insee_commune": null}, {"stationcode": "15113", "name": "Arsonval - Falgui\u00e8re", "is_installed": "OUI", "capacity": 25, "numdocksavailable": 19, "numbikesavailable": 6, "mechanical": 3, "ebike": 3, "is_renting": "OUI", "is_returning": "OUI", "duedate": "2024-06-13T21:52:32+00:00", "coordonnees_geo": {"lon": 2.313117867297474, "lat": 48.84040040365445}, "nom_arrondissement_communes": "Paris", "code_insee_commune": null}, {"stationcode": "13023", "name": "Bobillot - Moulin des Pr\u00e9s", "is_installed": "OUI", "capacity": 28, "numdocksavailable": 25, "numbikesavailable": 3, "mechanical": 2, "ebike": 1, "is_renting": "OUI", "is_returning": "OUI", "duedate": "2024-06-13T21:51:05+00:00", "coordonnees_geo": {"lon": 2.353020646317, "lat": 48.828657346203}, "nom_arrondissement_communes": "Paris", "code_insee_commune": null}, {"stationcode": "16022", "name": "Jean Bologne - Passy", "is_installed": "OUI", "capacity": 19, "numdocksavailable": 19, "numbikesavailable": 0, "mechanical": 0, "ebike": 0, "is_renting": "OUI", "is_returning": "OUI", "duedate": "2024-06-13T21:47:10+00:00", "coordonnees_geo": {"lon": 2.280027395306772, "lat": 48.857566889784465}, "nom_arrondissement_communes": "Paris", "code_insee_commune": null}, {"stationcode": "20011", "name": "Pyr\u00e9n\u00e9es - Dagorno", "is_installed": "OUI", "capacity": 20, "numdocksavailable": 9, "numbikesavailable": 10, "mechanical": 5, "ebike": 5, "is_renting": "OUI", "is_returning": "OUI", "duedate": "2024-06-13T21:53:04+00:00", "coordonnees_geo": {"lon": 2.4051643162965775, "lat": 48.855425770695085}, "nom_arrondissement_communes": "Paris", "code_insee_commune": null}, {"stationcode": "6020", "name": "Place Saint-Andr\u00e9 des Arts", "is_installed": "OUI", "capacity": 37, "numdocksavailable": 3, "numbikesavailable": 33, "mechanical": 31, "ebike": 2, "is_renting": "OUI", "is_returning": "OUI", "duedate": "2024-06-13T21:51:17+00:00", "coordonnees_geo": {"lon": 2.3426544293761, "lat": 48.852886173881}, "nom_arrondissement_communes": "Paris", "code_insee_commune": null}, {"stationcode": "5105", "name": "Geoffroy-Saint-Hilaire - Saint-Marcel", "is_installed": "OUI", "capacity": 17, "numdocksavailable": 0, "numbikesavailable": 17, "mechanical": 8, "ebike": 9, "is_renting": "OUI", "is_returning": "OUI", "duedate": "2024-06-13T21:54:23+00:00", "coordonnees_geo": {"lon": 2.356877340669728, "lat": 48.83907826424974}, "nom_arrondissement_communes": "Paris", "code_insee_commune": null}, {"stationcode": "13013", "name": "Saint-Marcel - H\u00f4pital", "is_installed": "OUI", "capacity": 21, "numdocksavailable": 7, "numbikesavailable": 12, "mechanical": 7, "ebike": 5, "is_renting": "OUI", "is_returning": "OUI", "duedate": "2024-06-13T21:53:36+00:00", "coordonnees_geo": {"lon": 2.360989417022932, "lat": 48.83950442458303}, "nom_arrondissement_communes": "Paris", "code_insee_commune": null}, {"stationcode": "21107", "name": "Bertrand Sincholle - Henri Barbusse", "is_installed": "OUI", "capacity": 23, "numdocksavailable": 0, "numbikesavailable": 20, "mechanical": 10, "ebike": 10, "is_renting": "OUI", "is_returning": "OUI", "duedate": "2024-06-13T21:50:53+00:00", "coordonnees_geo": {"lon": 2.3042294383049016, "lat": 48.89925982394349}, "nom_arrondissement_communes": "Clichy", "code_insee_commune": null}, {"stationcode": "22007", "name": "Commandant Charcot - Bretteville", "is_installed": "OUI", "capacity": 36, "numdocksavailable": 27, "numbikesavailable": 9, "mechanical": 4, "ebike": 5, "is_renting": "OUI", "is_returning": "OUI", "duedate": "2024-06-13T21:51:58+00:00", "coordonnees_geo": {"lon": 2.2558460757136345, "lat": 48.87530570765423}, "nom_arrondissement_communes": "Neuilly-sur-Seine", "code_insee_commune": null}, {"stationcode": "5031", "name": "Lac\u00e9p\u00e8de - Linn\u00e9", "is_installed": "OUI", "capacity": 54, "numdocksavailable": 20, "numbikesavailable": 33, "mechanical": 30, "ebike": 3, "is_renting": "OUI", "is_returning": "OUI", "duedate": "2024-06-13T21:53:03+00:00", "coordonnees_geo": {"lon": 2.354651279747486, "lat": 48.8437035476636}, "nom_arrondissement_communes": "Paris", "code_insee_commune": null}, {"stationcode": "21511", "name": "Marcel Monge - Marcel Dassault", "is_installed": "OUI", "capacity": 46, "numdocksavailable": 42, "numbikesavailable": 4, "mechanical": 0, "ebike": 4, "is_renting": "OUI", "is_returning": "OUI", "duedate": "2024-06-13T21:48:28+00:00", "coordonnees_geo": {"lon": 2.2246733296048142, "lat": 48.86096384533371}, "nom_arrondissement_communes": "Suresnes", "code_insee_commune": null}, {"stationcode": "42027", "name": "Verdun - Pierre et Marie Curie", "is_installed": "OUI", "capacity": 26, "numdocksavailable": 9, "numbikesavailable": 16, "mechanical": 8, "ebike": 8, "is_renting": "OUI", "is_returning": "OUI", "duedate": "2024-06-13T21:52:58+00:00", "coordonnees_geo": {"lon": 2.3707106709480286, "lat": 48.812822398263286}, "nom_arrondissement_communes": "Ivry-sur-Seine", "code_insee_commune": null}, {"stationcode": "16104", "name": "Paul Valery - Victor Hugo", "is_installed": "OUI", "capacity": 35, "numdocksavailable": 32, "numbikesavailable": 3, "mechanical": 3, "ebike": 0, "is_renting": "OUI", "is_returning": "OUI", "duedate": "2024-06-13T21:50:30+00:00", "coordonnees_geo": {"lon": 2.2887128591537476, "lat": 48.87137406080164}, "nom_arrondissement_communes": "Paris", "code_insee_commune": null}, {"stationcode": "20033", "name": "Etienne Dolet - Place Maurice Chevalier", "is_installed": "OUI", "capacity": 33, "numdocksavailable": 20, "numbikesavailable": 13, "mechanical": 10, "ebike": 3, "is_renting": "OUI", "is_returning": "OUI", "duedate": "2024-06-13T21:54:13+00:00", "coordonnees_geo": {"lon": 2.3851405311143026, "lat": 48.86798303359366}, "nom_arrondissement_communes": "Paris", "code_insee_commune": null}, {"stationcode": "30005", "name": "Convention - Campus de Bobigny", "is_installed": "OUI", "capacity": 32, "numdocksavailable": 5, "numbikesavailable": 25, "mechanical": 19, "ebike": 6, "is_renting": "OUI", "is_returning": "OUI", "duedate": "2024-06-13T21:53:37+00:00", "coordonnees_geo": {"lon": 2.4172238067445, "lat": 48.914920058264}, "nom_arrondissement_communes": "Bobigny", "code_insee_commune": null}, {"stationcode": "21510", "name": "Fontaine du Tertre - Calvaire", "is_installed": "OUI", "capacity": 24, "numdocksavailable": 24, "numbikesavailable": 0, "mechanical": 0, "ebike": 0, "is_renting": "OUI", "is_returning": "OUI", "duedate": "2024-06-13T21:48:35+00:00", "coordonnees_geo": {"lon": 2.2187778, "lat": 48.8702539}, "nom_arrondissement_communes": "Suresnes", "code_insee_commune": null}, {"stationcode": "51007", "name": "R\u00e9sistance - Romain Rolland", "is_installed": "OUI", "capacity": 28, "numdocksavailable": 12, "numbikesavailable": 16, "mechanical": 9, "ebike": 7, "is_renting": "OUI", "is_returning": "OUI", "duedate": "2024-06-13T21:50:18+00:00", "coordonnees_geo": {"lon": 2.2310190077797, "lat": 48.950873482371}, "nom_arrondissement_communes": "Argenteuil", "code_insee_commune": null}, {"stationcode": "21033", "name": "S\u00e8vres - Mar\u00e9chal Juin", "is_installed": "OUI", "capacity": 18, "numdocksavailable": 5, "numbikesavailable": 11, "mechanical": 11, "ebike": 0, "is_renting": "OUI", "is_returning": "OUI", "duedate": "2024-06-13T21:53:02+00:00", "coordonnees_geo": {"lon": 2.2292812, "lat": 48.8324305}, "nom_arrondissement_communes": "Boulogne-Billancourt", "code_insee_commune": null}, {"stationcode": "44010", "name": "8 Mai 1945 - 10 Juillet 1940", "is_installed": "OUI", "capacity": 30, "numdocksavailable": 30, "numbikesavailable": 0, "mechanical": 0, "ebike": 0, "is_renting": "NON", "is_returning": "NON", "duedate": "2023-11-05T08:56:42+00:00", "coordonnees_geo": {"lon": 2.3979035764933, "lat": 48.784567029674}, "nom_arrondissement_communes": "Vitry-sur-Seine", "code_insee_commune": null}, {"stationcode": "21112", "name": "Claude Debussy - Marc Bloch", "is_installed": "OUI", "capacity": 56, "numdocksavailable": 10, "numbikesavailable": 46, "mechanical": 39, "ebike": 7, "is_renting": "OUI", "is_returning": "OUI", "duedate": "2024-06-13T21:53:56+00:00", "coordonnees_geo": {"lon": 2.3117771744728, "lat": 48.910388180512}, "nom_arrondissement_communes": "Clichy", "code_insee_commune": null}, {"stationcode": "10028", "name": "Gare du Nord - Dunkerque", "is_installed": "OUI", "capacity": 29, "numdocksavailable": 21, "numbikesavailable": 8, "mechanical": 5, "ebike": 3, "is_renting": "OUI", "is_returning": "OUI", "duedate": "2024-06-13T21:54:19+00:00", "coordonnees_geo": {"lon": 2.3527636751533, "lat": 48.880423508429}, "nom_arrondissement_communes": "Paris", "code_insee_commune": null}, {"stationcode": "10001", "name": "Ren\u00e9 Boulanger - Lancry", "is_installed": "OUI", "capacity": 62, "numdocksavailable": 32, "numbikesavailable": 28, "mechanical": 26, "ebike": 2, "is_renting": "OUI", "is_returning": "OUI", "duedate": "2024-06-13T21:52:53+00:00", "coordonnees_geo": {"lon": 2.3600032, "lat": 48.8685433}, "nom_arrondissement_communes": "Paris", "code_insee_commune": null}, {"stationcode": "41101", "name": "Paul Doumer - Stalingrad", "is_installed": "OUI", "capacity": 24, "numdocksavailable": 11, "numbikesavailable": 12, "mechanical": 1, "ebike": 11, "is_renting": "OUI", "is_returning": "OUI", "duedate": "2024-06-13T21:46:09+00:00", "coordonnees_geo": {"lon": 2.3368880152702, "lat": 48.806518992199}, "nom_arrondissement_communes": "Arcueil", "code_insee_commune": null}, {"stationcode": "8003", "name": "Galil\u00e9e - Vernet", "is_installed": "OUI", "capacity": 17, "numdocksavailable": 17, "numbikesavailable": 0, "mechanical": 0, "ebike": 0, "is_renting": "OUI", "is_returning": "OUI", "duedate": "2024-06-13T21:54:22+00:00", "coordonnees_geo": {"lon": 2.2985444962978, "lat": 48.871715878697}, "nom_arrondissement_communes": "Paris", "code_insee_commune": null}, {"stationcode": "7007", "name": "Mus\u00e9e d'Orsay", "is_installed": "OUI", "capacity": 65, "numdocksavailable": 48, "numbikesavailable": 17, "mechanical": 16, "ebike": 1, "is_renting": "OUI", "is_returning": "OUI", "duedate": "2024-06-13T21:54:03+00:00", "coordonnees_geo": {"lon": 2.325860448181629, "lat": 48.85972615790874}, "nom_arrondissement_communes": "Paris", "code_insee_commune": null}, {"stationcode": "20035", "name": "Pyr\u00e9n\u00e9es - M\u00e9nilmontant", "is_installed": "OUI", "capacity": 26, "numdocksavailable": 24, "numbikesavailable": 2, "mechanical": 1, "ebike": 1, "is_renting": "OUI", "is_returning": "OUI", "duedate": "2024-06-13T21:46:45+00:00", "coordonnees_geo": {"lon": 2.395084574818611, "lat": 48.8693268535238}, "nom_arrondissement_communes": "Paris", "code_insee_commune": null}, {"stationcode": "20037", "name": "Gambetta - Saint Fargeau", "is_installed": "OUI", "capacity": 24, "numdocksavailable": 1, "numbikesavailable": 23, "mechanical": 0, "ebike": 23, "is_renting": "OUI", "is_returning": "OUI", "duedate": "2024-06-13T21:51:41+00:00", "coordonnees_geo": {"lon": 2.4039056897163396, "lat": 48.871244610447015}, "nom_arrondissement_communes": "Paris", "code_insee_commune": null}, {"stationcode": "19045", "name": "Macdonald - C\u00e9saria Evora", "is_installed": "OUI", "capacity": 67, "numdocksavailable": 60, "numbikesavailable": 6, "mechanical": 5, "ebike": 1, "is_renting": "OUI", "is_returning": "OUI", "duedate": "2024-06-13T21:46:25+00:00", "coordonnees_geo": {"lon": 2.37933, "lat": 48.89883}, "nom_arrondissement_communes": "Paris", "code_insee_commune": null}, {"stationcode": "23106", "name": "Pav\u00e9 des Gardes - Charles Vaillant", "is_installed": "OUI", "capacity": 20, "numdocksavailable": 19, "numbikesavailable": 1, "mechanical": 0, "ebike": 1, "is_renting": "OUI", "is_returning": "OUI", "duedate": "2024-06-13T21:49:07+00:00", "coordonnees_geo": {"lon": 2.2111820107205, "lat": 48.81168551728}, "nom_arrondissement_communes": "S\u00e8vres", "code_insee_commune": null}, {"stationcode": "22302", "name": "Gare RER - G\u00e9n\u00e9ral de Gaulle", "is_installed": "OUI", "capacity": 41, "numdocksavailable": 36, "numbikesavailable": 3, "mechanical": 2, "ebike": 1, "is_renting": "OUI", "is_returning": "OUI", "duedate": "2024-06-13T21:51:51+00:00", "coordonnees_geo": {"lon": 2.3064726536317, "lat": 48.933548439566}, "nom_arrondissement_communes": "Gennevilliers", "code_insee_commune": null}, {"stationcode": "41212", "name": "Nungesser - Sant\u00e9", "is_installed": "OUI", "capacity": 22, "numdocksavailable": 4, "numbikesavailable": 18, "mechanical": 5, "ebike": 13, "is_renting": "OUI", "is_returning": "OUI", "duedate": "2024-06-13T21:51:37+00:00", "coordonnees_geo": {"lon": 2.448967, "lat": 48.852335}, "nom_arrondissement_communes": "Fontenay-sous-Bois", "code_insee_commune": null}, {"stationcode": "34009", "name": "Dora Maar - Nadia Guendouz", "is_installed": "OUI", "capacity": 30, "numdocksavailable": 25, "numbikesavailable": 4, "mechanical": 1, "ebike": 3, "is_renting": "OUI", "is_returning": "OUI", "duedate": "2024-06-13T21:52:21+00:00", "coordonnees_geo": {"lon": 2.3220406472683, "lat": 48.905452421305}, "nom_arrondissement_communes": "Saint-Ouen-sur-Seine", "code_insee_commune": null}, {"stationcode": "41304", "name": "Port - Maurice Chevalier", "is_installed": "OUI", "capacity": 30, "numdocksavailable": 4, "numbikesavailable": 23, "mechanical": 21, "ebike": 2, "is_renting": "OUI", "is_returning": "OUI", "duedate": "2024-06-13T21:52:45+00:00", "coordonnees_geo": {"lon": 2.490257616467, "lat": 48.832474421632}, "nom_arrondissement_communes": "Nogent-sur-Marne", "code_insee_commune": null}, {"stationcode": "10151", "name": "Gare du Nord - Faubourg Saint-Denis", "is_installed": "OUI", "capacity": 28, "numdocksavailable": 23, "numbikesavailable": 3, "mechanical": 2, "ebike": 1, "is_renting": "OUI", "is_returning": "OUI", "duedate": "2024-06-13T21:48:25+00:00", "coordonnees_geo": {"lon": 2.3568402975798, "lat": 48.879612765504}, "nom_arrondissement_communes": "Paris", "code_insee_commune": null}, {"stationcode": "10001_relais", "name": "Ren\u00e9 Boulanger - Lancry", "is_installed": "NON", "capacity": 0, "numdocksavailable": 0, "numbikesavailable": 0, "mechanical": 0, "ebike": 0, "is_renting": "NON", "is_returning": "NON", "duedate": "2024-06-13T21:53:09+00:00", "coordonnees_geo": {"lon": 2.3599605, "lat": 48.8687079}, "nom_arrondissement_communes": "Paris", "code_insee_commune": null}, {"stationcode": "26011", "name": "M\u00e9nil - Argenteuil", "is_installed": "OUI", "capacity": 20, "numdocksavailable": 0, "numbikesavailable": 20, "mechanical": 10, "ebike": 10, "is_renting": "OUI", "is_returning": "OUI", "duedate": "2024-06-13T21:54:11+00:00", "coordonnees_geo": {"lon": 2.2741496502338, "lat": 48.925901818305}, "nom_arrondissement_communes": "Asni\u00e8res-sur-Seine", "code_insee_commune": null}, {"stationcode": "18203", "name": "Lamarck - Saint-Ouen", "is_installed": "OUI", "capacity": 40, "numdocksavailable": 40, "numbikesavailable": 0, "mechanical": 0, "ebike": 0, "is_renting": "NON", "is_returning": "NON", "duedate": "2024-06-13T21:50:49+00:00", "coordonnees_geo": {"lon": 2.3272445342326, "lat": 48.891334555236}, "nom_arrondissement_communes": "Paris", "code_insee_commune": null}, {"stationcode": "35021", "name": "Cartier Bresson - Denis Papin", "is_installed": "OUI", "capacity": 32, "numdocksavailable": 17, "numbikesavailable": 14, "mechanical": 1, "ebike": 13, "is_renting": "OUI", "is_returning": "OUI", "duedate": "2024-06-13T21:52:35+00:00", "coordonnees_geo": {"lon": 2.397814, "lat": 48.902616}, "nom_arrondissement_communes": "Pantin", "code_insee_commune": null}, {"stationcode": "18045", "name": "Pierre Ginier - Clichy", "is_installed": "OUI", "capacity": 16, "numdocksavailable": 14, "numbikesavailable": 2, "mechanical": 0, "ebike": 2, "is_renting": "OUI", "is_returning": "OUI", "duedate": "2024-06-13T21:52:01+00:00", "coordonnees_geo": {"lon": 2.326228, "lat": 48.8867667}, "nom_arrondissement_communes": "Paris", "code_insee_commune": null}, {"stationcode": "14110", "name": "Abb\u00e9 Carton - Plantes", "is_installed": "OUI", "capacity": 25, "numdocksavailable": 18, "numbikesavailable": 7, "mechanical": 3, "ebike": 4, "is_renting": "OUI", "is_returning": "OUI", "duedate": "2024-06-13T21:46:40+00:00", "coordonnees_geo": {"lon": 2.3209181427956, "lat": 48.827673823166}, "nom_arrondissement_communes": "Paris", "code_insee_commune": null}, {"stationcode": "18018", "name": "Carpeaux - Place Jacques Froment", "is_installed": "OUI", "capacity": 19, "numdocksavailable": 4, "numbikesavailable": 15, "mechanical": 3, "ebike": 12, "is_renting": "OUI", "is_returning": "OUI", "duedate": "2024-06-13T21:51:01+00:00", "coordonnees_geo": {"lon": 2.3309428, "lat": 48.8906542}, "nom_arrondissement_communes": "Paris", "code_insee_commune": null}, {"stationcode": "10025", "name": "Jemmapes - Ecluses Saint-Martin", "is_installed": "OUI", "capacity": 15, "numdocksavailable": 9, "numbikesavailable": 6, "mechanical": 4, "ebike": 2, "is_renting": "OUI", "is_returning": "OUI", "duedate": "2024-06-13T21:54:19+00:00", "coordonnees_geo": {"lon": 2.3660067468881607, "lat": 48.87748519186726}, "nom_arrondissement_communes": "Paris", "code_insee_commune": null}, {"stationcode": "32305", "name": "Saint-Germain - Verdun", "is_installed": "OUI", "capacity": 30, "numdocksavailable": 20, "numbikesavailable": 8, "mechanical": 1, "ebike": 7, "is_renting": "OUI", "is_returning": "OUI", "duedate": "2024-06-13T21:50:48+00:00", "coordonnees_geo": {"lon": 2.4331868384644, "lat": 48.882877330093}, "nom_arrondissement_communes": "Romainville", "code_insee_commune": null}, {"stationcode": "21320", "name": "Pr\u00e9sident Roosevelt - Rouget de Lisle", "is_installed": "OUI", "capacity": 40, "numdocksavailable": 37, "numbikesavailable": 2, "mechanical": 1, "ebike": 1, "is_renting": "OUI", "is_returning": "OUI", "duedate": "2024-06-13T21:53:40+00:00", "coordonnees_geo": {"lon": 2.2616135525345, "lat": 48.83047518749}, "nom_arrondissement_communes": "Issy-les-Moulineaux", "code_insee_commune": null}, {"stationcode": "10038", "name": "Place du Colonel Fabien", "is_installed": "OUI", "capacity": 27, "numdocksavailable": 16, "numbikesavailable": 9, "mechanical": 4, "ebike": 5, "is_renting": "OUI", "is_returning": "OUI", "duedate": "2024-06-13T21:51:19+00:00", "coordonnees_geo": {"lon": 2.3698791861534, "lat": 48.87756832086}, "nom_arrondissement_communes": "Paris", "code_insee_commune": null}, {"stationcode": "22005", "name": "Charles de Gaulle - Madrid", "is_installed": "OUI", "capacity": 22, "numdocksavailable": 16, "numbikesavailable": 5, "mechanical": 1, "ebike": 4, "is_renting": "OUI", "is_returning": "OUI", "duedate": "2024-06-13T21:54:01+00:00", "coordonnees_geo": {"lon": 2.2608044743538, "lat": 48.884432270368}, "nom_arrondissement_communes": "Neuilly-sur-Seine", "code_insee_commune": null}, {"stationcode": "11001", "name": "Richard Lenoir - Place de la Bastille", "is_installed": "OUI", "capacity": 53, "numdocksavailable": 19, "numbikesavailable": 28, "mechanical": 26, "ebike": 2, "is_renting": "OUI", "is_returning": "OUI", "duedate": "2024-06-13T21:54:27+00:00", "coordonnees_geo": {"lon": 2.3697222, "lat": 48.8538327}, "nom_arrondissement_communes": "Paris", "code_insee_commune": null}, {"stationcode": "12165", "name": "Champs de Manoeuvre - Cartoucherie", "is_installed": "OUI", "capacity": 35, "numdocksavailable": 19, "numbikesavailable": 14, "mechanical": 13, "ebike": 1, "is_renting": "OUI", "is_returning": "OUI", "duedate": "2024-06-13T21:54:14+00:00", "coordonnees_geo": {"lon": 2.447974, "lat": 48.835261}, "nom_arrondissement_communes": "Paris", "code_insee_commune": null}, {"stationcode": "22018", "name": "Charles de Gaulle - Les Sablons", "is_installed": "OUI", "capacity": 35, "numdocksavailable": 35, "numbikesavailable": 0, "mechanical": 0, "ebike": 0, "is_renting": "OUI", "is_returning": "OUI", "duedate": "2024-06-13T21:47:10+00:00", "coordonnees_geo": {"lon": 2.2715748726513, "lat": 48.880987514929}, "nom_arrondissement_communes": "Neuilly-sur-Seine", "code_insee_commune": null}, {"stationcode": "23203", "name": "Division Leclerc - Kl\u00e9ber", "is_installed": "OUI", "capacity": 25, "numdocksavailable": 21, "numbikesavailable": 4, "mechanical": 1, "ebike": 3, "is_renting": "OUI", "is_returning": "OUI", "duedate": "2024-06-13T21:53:15+00:00", "coordonnees_geo": {"lon": 2.2833752789972, "lat": 48.798666226364}, "nom_arrondissement_communes": "Ch\u00e2tillon", "code_insee_commune": null}, {"stationcode": "17126", "name": "H\u00e9l\u00e8ne et Fran\u00e7ois Missoffe - Emile Borel", "is_installed": "OUI", "capacity": 32, "numdocksavailable": 13, "numbikesavailable": 18, "mechanical": 9, "ebike": 9, "is_renting": "OUI", "is_returning": "OUI", "duedate": "2024-06-13T21:53:04+00:00", "coordonnees_geo": {"lon": 2.321543991674844, "lat": 48.89990653843488}, "nom_arrondissement_communes": "Paris", "code_insee_commune": null}, {"stationcode": "17127", "name": "Porte de Clichy - Place des Nations Unies", "is_installed": "OUI", "capacity": 40, "numdocksavailable": 23, "numbikesavailable": 16, "mechanical": 11, "ebike": 5, "is_renting": "OUI", "is_returning": "OUI", "duedate": "2024-06-13T21:50:39+00:00", "coordonnees_geo": {"lon": 2.310542999196392, "lat": 48.896737263309504}, "nom_arrondissement_communes": "Paris", "code_insee_commune": null}, {"stationcode": "26008", "name": "Henri Barbusse - Bourguignons", "is_installed": "OUI", "capacity": 34, "numdocksavailable": 1, "numbikesavailable": 32, "mechanical": 13, "ebike": 19, "is_renting": "OUI", "is_returning": "OUI", "duedate": "2024-06-13T21:52:08+00:00", "coordonnees_geo": {"lon": 2.2734212270774417, "lat": 48.91301722799713}, "nom_arrondissement_communes": "Asni\u00e8res-sur-Seine", "code_insee_commune": null}, {"stationcode": "26009", "name": "Marceau Delorme - Pierre Brossolette", "is_installed": "OUI", "capacity": 28, "numdocksavailable": 1, "numbikesavailable": 27, "mechanical": 10, "ebike": 17, "is_renting": "OUI", "is_returning": "OUI", "duedate": "2024-06-13T21:54:22+00:00", "coordonnees_geo": {"lon": 2.295897423568745, "lat": 48.91206062860357}, "nom_arrondissement_communes": "Asni\u00e8res-sur-Seine", "code_insee_commune": null}, {"stationcode": "34012", "name": "Bateliers - Quai de Seine", "is_installed": "OUI", "capacity": 26, "numdocksavailable": 15, "numbikesavailable": 11, "mechanical": 6, "ebike": 5, "is_renting": "OUI", "is_returning": "OUI", "duedate": "2024-06-13T21:48:46+00:00", "coordonnees_geo": {"lon": 2.3239533298594, "lat": 48.915817585516}, "nom_arrondissement_communes": "Saint-Ouen-sur-Seine", "code_insee_commune": null}, {"stationcode": "23204", "name": "Roland Garros - Jean Bouin", "is_installed": "OUI", "capacity": 28, "numdocksavailable": 21, "numbikesavailable": 7, "mechanical": 1, "ebike": 6, "is_renting": "OUI", "is_returning": "OUI", "duedate": "2024-06-13T21:48:43+00:00", "coordonnees_geo": {"lon": 2.2853198638301, "lat": 48.809460857173}, "nom_arrondissement_communes": "Ch\u00e2tillon", "code_insee_commune": null}, {"stationcode": "33019", "name": "Madeleine Vionnet", "is_installed": "OUI", "capacity": 34, "numdocksavailable": 31, "numbikesavailable": 7, "mechanical": 2, "ebike": 5, "is_renting": "OUI", "is_returning": "OUI", "duedate": "2024-06-13T21:53:27+00:00", "coordonnees_geo": {"lon": 2.3740895837545, "lat": 48.902519074064}, "nom_arrondissement_communes": "Aubervilliers", "code_insee_commune": null}, {"stationcode": "17010", "name": "Jonqui\u00e8re - Docteur Paul Brousse", "is_installed": "OUI", "capacity": 40, "numdocksavailable": 2, "numbikesavailable": 38, "mechanical": 24, "ebike": 14, "is_renting": "OUI", "is_returning": "OUI", "duedate": "2024-06-13T21:53:27+00:00", "coordonnees_geo": {"lon": 2.318705212173216, "lat": 48.894799816683985}, "nom_arrondissement_communes": "Paris", "code_insee_commune": null}, {"stationcode": "18023", "name": "Ordener - Poissonniers", "is_installed": "OUI", "capacity": 35, "numdocksavailable": 22, "numbikesavailable": 13, "mechanical": 5, "ebike": 8, "is_renting": "OUI", "is_returning": "OUI", "duedate": "2024-06-13T21:54:27+00:00", "coordonnees_geo": {"lon": 2.351288666219873, "lat": 48.891213890844654}, "nom_arrondissement_communes": "Paris", "code_insee_commune": null}, {"stationcode": "18026", "name": "Ruisseau - Ordener", "is_installed": "OUI", "capacity": 35, "numdocksavailable": 1, "numbikesavailable": 33, "mechanical": 12, "ebike": 21, "is_renting": "OUI", "is_returning": "OUI", "duedate": "2024-06-13T21:53:41+00:00", "coordonnees_geo": {"lon": 2.340144887566567, "lat": 48.89299462568024}, "nom_arrondissement_communes": "Paris", "code_insee_commune": null}, {"stationcode": "18024", "name": "Clignancourt - Ordener", "is_installed": "OUI", "capacity": 35, "numdocksavailable": 28, "numbikesavailable": 5, "mechanical": 1, "ebike": 4, "is_renting": "OUI", "is_returning": "OUI", "duedate": "2024-06-13T21:49:14+00:00", "coordonnees_geo": {"lon": 2.348636478060487, "lat": 48.891457726153774}, "nom_arrondissement_communes": "Paris", "code_insee_commune": null}, {"stationcode": "12105", "name": "Bercy - Villot", "is_installed": "OUI", "capacity": 33, "numdocksavailable": 27, "numbikesavailable": 5, "mechanical": 5, "ebike": 0, "is_renting": "OUI", "is_returning": "OUI", "duedate": "2024-06-13T21:47:36+00:00", "coordonnees_geo": {"lon": 2.3767850184816, "lat": 48.841795009027}, "nom_arrondissement_communes": "Paris", "code_insee_commune": null}, {"stationcode": "7201", "name": "Place Fontenoy - Saxe", "is_installed": "NON", "capacity": 0, "numdocksavailable": 0, "numbikesavailable": 0, "mechanical": 0, "ebike": 0, "is_renting": "NON", "is_returning": "NON", "duedate": "2024-04-26T16:47:44+00:00", "coordonnees_geo": {"lon": 2.3069813815839, "lat": 48.850270554523}, "nom_arrondissement_communes": "Paris", "code_insee_commune": null}, {"stationcode": "18031", "name": "Place Albert Kahn", "is_installed": "OUI", "capacity": 0, "numdocksavailable": 0, "numbikesavailable": 0, "mechanical": 0, "ebike": 0, "is_renting": "NON", "is_returning": "NON", "duedate": "2023-07-03T08:59:24+00:00", "coordonnees_geo": {"lon": 2.3455855841349, "lat": 48.89579697978}, "nom_arrondissement_communes": "Paris", "code_insee_commune": null}, {"stationcode": "21501", "name": "Pont de Suresnes", "is_installed": "OUI", "capacity": 24, "numdocksavailable": 24, "numbikesavailable": 0, "mechanical": 0, "ebike": 0, "is_renting": "NON", "is_returning": "NON", "duedate": "2018-12-21T14:18:50+00:00", "coordonnees_geo": {"lon": 2.2258946679617, "lat": 48.867415092322}, "nom_arrondissement_communes": "Suresnes", "code_insee_commune": null}, {"stationcode": "13035", "name": "Choisy - Tolbiac", "is_installed": "OUI", "capacity": 0, "numdocksavailable": 0, "numbikesavailable": 0, "mechanical": 0, "ebike": 0, "is_renting": "NON", "is_returning": "NON", "duedate": "2023-11-29T12:09:17+00:00", "coordonnees_geo": {"lon": 2.3602393269539, "lat": 48.82591155587}, "nom_arrondissement_communes": "Paris", "code_insee_commune": null}, {"stationcode": "19204", "name": "Rampal - Belleville", "is_installed": "NON", "capacity": 0, "numdocksavailable": 0, "numbikesavailable": 0, "mechanical": 0, "ebike": 0, "is_renting": "NON", "is_returning": "NON", "duedate": "2023-09-19T08:41:41+00:00", "coordonnees_geo": {"lon": 2.3798409114805, "lat": 48.873114661405}, "nom_arrondissement_communes": "Paris", "code_insee_commune": null}, {"stationcode": "8038", "name": "Fran\u00e7ois 1er - Montaigne", "is_installed": "OUI", "capacity": 53, "numdocksavailable": 52, "numbikesavailable": 1, "mechanical": 1, "ebike": 0, "is_renting": "OUI", "is_returning": "OUI", "duedate": "2024-06-13T21:51:48+00:00", "coordonnees_geo": {"lon": 2.3066755757207, "lat": 48.866887649978}, "nom_arrondissement_communes": "Paris", "code_insee_commune": null}, {"stationcode": "10114", "name": "Granges aux Belles - H\u00f4pital Saint-Louis", "is_installed": "OUI", "capacity": 60, "numdocksavailable": 41, "numbikesavailable": 19, "mechanical": 15, "ebike": 4, "is_renting": "OUI", "is_returning": "OUI", "duedate": "2024-06-13T21:52:35+00:00", "coordonnees_geo": {"lon": 2.366669436985, "lat": 48.874794994841}, "nom_arrondissement_communes": "Paris", "code_insee_commune": null}]