[{"stationcode": "25002", "name": "H\u00f4tel de Ville de Rueil-Malmaison", "is_installed": "OUI", "capacity": 20, "numdocksavailable": 10, "numbikesavailable": 9, "mechanical": 4, "ebike": 5, "is_renting": "OUI", "is_returning": "OUI", "duedate": "2024-06-14T15:50:19+00:00", "coordonnees_geo": {"lon": 2.181724, "lat": 48.878194}, "nom_arrondissement_communes": "Rueil-Malmaison", "code_insee_commune": null}, {"stationcode": "15113", "name": "Arsonval - Falgui\u00e8re", "is_installed": "OUI", "capacity": 25, "numdocksavailable": 19, "numbikesavailable": 6, "mechanical": 3, "ebike": 3, "is_renting": "OUI", "is_returning": "OUI", "duedate": "2024-06-14T15:48:49+00:00", "coordonnees_geo": {"lon": 2.313117867297474, "lat": 48.84040040365445}, "nom_arrondissement_communes": "Paris", "code_insee_commune": null}, {"stationcode": "6005", "name": "Montparnasse -  Square Ozanam", "is_installed": "OUI", "capacity": 49, "numdocksavailable": 35, "numbikesavailable": 14, "mechanical": 6, "ebike": 8, "is_renting": "OUI", "is_returning": "OUI", "duedate": "2024-06-14T15:49:57+00:00", "coordonnees_geo": {"lon": 2.3265242949128, "lat": 48.843310567822}, "nom_arrondissement_communes": "Paris", "code_insee_commune": null}, {"stationcode": "16022", "name": "Jean Bologne - Passy", "is_installed": "OUI", "capacity": 19, "numdocksavailable": 18, "numbikesavailable": 1, "mechanical": 0, "ebike": 1, "is_renting": "OUI", "is_returning": "OUI", "duedate": "2024-06-14T15:47:34+00:00", "coordonnees_geo": {"lon": 2.280027395306772, "lat": 48.857566889784465}, "nom_arrondissement_communes": "Paris", "code_insee_commune": null}, {"stationcode": "20011", "name": "Pyr\u00e9n\u00e9es - Dagorno", "is_installed": "OUI", "capacity": 20, "numdocksavailable": 18, "numbikesavailable": 2, "mechanical": 0, "ebike": 2, "is_renting": "OUI", "is_returning": "OUI", "duedate": "2024-06-14T15:49:16+00:00", "coordonnees_geo": {"lon": 2.4051643162965775, "lat": 48.855425770695085}, "nom_arrondissement_communes": "Paris", "code_insee_commune": null}, {"stationcode": "6020", "name": "Place Saint-Andr\u00e9 des Arts", "is_installed": "OUI", "capacity": 37, "numdocksavailable": 3, "numbikesavailable": 33, "mechanical": 27, "ebike": 6, "is_renting": "OUI", "is_returning": "OUI", "duedate": "2024-06-14T15:49:32+00:00", "coordonnees_geo": {"lon": 2.3426544293761, "lat": 48.852886173881}, "nom_arrondissement_communes": "Paris", "code_insee_commune": null}, {"stationcode": "5105", "name": "Geoffroy-Saint-Hilaire - Saint-Marcel", "is_installed": "OUI", "capacity": 17, "numdocksavailable": 5, "numbikesavailable": 12, "mechanical": 8, "ebike": 4, "is_renting": "OUI", "is_returning": "OUI", "duedate": "2024-06-14T15:48:35+00:00", "coordonnees_geo": {"lon": 2.356877340669728, "lat": 48.83907826424974}, "nom_arrondissement_communes": "Paris", "code_insee_commune": null}, {"stationcode": "19123", "name": "Metz - Marne", "is_installed": "OUI", "capacity": 33, "numdocksavailable": 27, "numbikesavailable": 5, "mechanical": 2, "ebike": 3, "is_renting": "OUI", "is_returning": "OUI", "duedate": "2024-06-14T15:47:27+00:00", "coordonnees_geo": {"lon": 2.3865705, "lat": 48.891163}, "nom_arrondissement_communes": "Paris", "code_insee_commune": null}, {"stationcode": "12017", "name": "Saint-Mand\u00e9 - Docteur Arnold Netter", "is_installed": "OUI", "capacity": 39, "numdocksavailable": 24, "numbikesavailable": 14, "mechanical": 7, "ebike": 7, "is_renting": "OUI", "is_returning": "OUI", "duedate": "2024-06-14T15:48:57+00:00", "coordonnees_geo": {"lon": 2.404946386814118, "lat": 48.84462585769668}, "nom_arrondissement_communes": "Paris", "code_insee_commune": null}, {"stationcode": "14025", "name": "Jacquier - Didot", "is_installed": "OUI", "capacity": 30, "numdocksavailable": 26, "numbikesavailable": 2, "mechanical": 0, "ebike": 2, "is_renting": "OUI", "is_returning": "OUI", "duedate": "2024-06-14T15:43:17+00:00", "coordonnees_geo": {"lon": 2.318179272115231, "lat": 48.82953336292279}, "nom_arrondissement_communes": "Paris", "code_insee_commune": null}, {"stationcode": "6009", "name": "Guynemer - Jardin du Luxembourg", "is_installed": "OUI", "capacity": 36, "numdocksavailable": 27, "numbikesavailable": 8, "mechanical": 7, "ebike": 1, "is_renting": "OUI", "is_returning": "OUI", "duedate": "2024-06-14T15:48:58+00:00", "coordonnees_geo": {"lon": 2.3325478, "lat": 48.8466127}, "nom_arrondissement_communes": "Paris", "code_insee_commune": null}, {"stationcode": "42027", "name": "Verdun - Pierre et Marie Curie", "is_installed": "OUI", "capacity": 26, "numdocksavailable": 23, "numbikesavailable": 3, "mechanical": 1, "ebike": 2, "is_renting": "OUI", "is_returning": "OUI", "duedate": "2024-06-14T15:49:17+00:00", "coordonnees_geo": {"lon": 2.3707106709480286, "lat": 48.812822398263286}, "nom_arrondissement_communes": "Ivry-sur-Seine", "code_insee_commune": null}, {"stationcode": "30005", "name": "Convention - Campus de Bobigny", "is_installed": "OUI", "capacity": 32, "numdocksavailable": 11, "numbikesavailable": 20, "mechanical": 18, "ebike": 2, "is_renting": "OUI", "is_returning": "OUI", "duedate": "2024-06-14T15:49:32+00:00", "coordonnees_geo": {"lon": 2.4172238067445, "lat": 48.914920058264}, "nom_arrondissement_communes": "Bobigny", "code_insee_commune": null}, {"stationcode": "30007", "name": "Pablo Picasso - Maurice Thorez", "is_installed": "NON", "capacity": 0, "numdocksavailable": 0, "numbikesavailable": 0, "mechanical": 0, "ebike": 0, "is_renting": "NON", "is_returning": "NON", "duedate": "2024-06-14T15:48:07+00:00", "coordonnees_geo": {"lon": 2.4489325365198, "lat": 48.906887812943}, "nom_arrondissement_communes": "Bobigny", "code_insee_commune": null}, {"stationcode": "51007", "name": "R\u00e9sistance - Romain Rolland", "is_installed": "OUI", "capacity": 28, "numdocksavailable": 12, "numbikesavailable": 16, "mechanical": 10, "ebike": 6, "is_renting": "OUI", "is_returning": "OUI", "duedate": "2024-06-14T15:49:44+00:00", "coordonnees_geo": {"lon": 2.2310190077797, "lat": 48.950873482371}, "nom_arrondissement_communes": "Argenteuil", "code_insee_commune": null}, {"stationcode": "25009", "name": "Place des Arts - Jean Mermoz", "is_installed": "OUI", "capacity": 20, "numdocksavailable": 12, "numbikesavailable": 7, "mechanical": 3, "ebike": 4, "is_renting": "OUI", "is_returning": "OUI", "duedate": "2024-06-14T15:48:15+00:00", "coordonnees_geo": {"lon": 2.1832160452221, "lat": 48.880391139734}, "nom_arrondissement_communes": "Rueil-Malmaison", "code_insee_commune": null}, {"stationcode": "10028", "name": "Gare du Nord - Dunkerque", "is_installed": "OUI", "capacity": 29, "numdocksavailable": 17, "numbikesavailable": 12, "mechanical": 3, "ebike": 9, "is_renting": "OUI", "is_returning": "OUI", "duedate": "2024-06-14T15:49:27+00:00", "coordonnees_geo": {"lon": 2.3527636751533, "lat": 48.880423508429}, "nom_arrondissement_communes": "Paris", "code_insee_commune": null}, {"stationcode": "41101", "name": "Paul Doumer - Stalingrad", "is_installed": "OUI", "capacity": 24, "numdocksavailable": 17, "numbikesavailable": 7, "mechanical": 4, "ebike": 3, "is_renting": "OUI", "is_returning": "OUI", "duedate": "2024-06-14T15:49:46+00:00", "coordonnees_geo": {"lon": 2.3368880152702, "lat": 48.806518992199}, "nom_arrondissement_communes": "Arcueil", "code_insee_commune": null}, {"stationcode": "16140", "name": "Hippodrome de Longchamp", "is_installed": "OUI", "capacity": 30, "numdocksavailable": 9, "numbikesavailable": 18, "mechanical": 8, "ebike": 10, "is_renting": "OUI", "is_returning": "OUI", "duedate": "2024-06-14T15:46:15+00:00", "coordonnees_geo": {"lon": 2.239905372262, "lat": 48.86413226532}, "nom_arrondissement_communes": "Paris", "code_insee_commune": null}, {"stationcode": "3201", "name": "Payenne - Square George Ca\u00efn", "is_installed": "OUI", "capacity": 24, "numdocksavailable": 11, "numbikesavailable": 12, "mechanical": 9, "ebike": 3, "is_renting": "OUI", "is_returning": "OUI", "duedate": "2024-06-14T15:49:06+00:00", "coordonnees_geo": {"lon": 2.3622643, "lat": 48.8578329}, "nom_arrondissement_communes": "Paris", "code_insee_commune": null}, {"stationcode": "26010", "name": "Louis Armand - Bernard Palissy", "is_installed": "NON", "capacity": 0, "numdocksavailable": 0, "numbikesavailable": 0, "mechanical": 0, "ebike": 0, "is_renting": "NON", "is_returning": "NON", "duedate": "2024-05-31T15:07:53+00:00", "coordonnees_geo": {"lon": 2.3126153582229, "lat": 48.91690215253}, "nom_arrondissement_communes": "Asni\u00e8res-sur-Seine", "code_insee_commune": null}, {"stationcode": "21508", "name": "Georges Pompidou - Verdun", "is_installed": "OUI", "capacity": 26, "numdocksavailable": 22, "numbikesavailable": 4, "mechanical": 1, "ebike": 3, "is_renting": "OUI", "is_returning": "OUI", "duedate": "2024-06-14T15:45:26+00:00", "coordonnees_geo": {"lon": 2.232443, "lat": 48.875481}, "nom_arrondissement_communes": "Suresnes", "code_insee_commune": null}, {"stationcode": "15032", "name": "F\u00e9lix Faure - Lourmel", "is_installed": "OUI", "capacity": 58, "numdocksavailable": 31, "numbikesavailable": 26, "mechanical": 26, "ebike": 0, "is_renting": "OUI", "is_returning": "OUI", "duedate": "2024-06-14T15:50:14+00:00", "coordonnees_geo": {"lon": 2.2818081825971603, "lat": 48.83868901709515}, "nom_arrondissement_communes": "Paris", "code_insee_commune": null}, {"stationcode": "19045", "name": "Macdonald - C\u00e9saria Evora", "is_installed": "OUI", "capacity": 67, "numdocksavailable": 62, "numbikesavailable": 1, "mechanical": 1, "ebike": 0, "is_renting": "OUI", "is_returning": "OUI", "duedate": "2024-06-14T15:49:02+00:00", "coordonnees_geo": {"lon": 2.37933, "lat": 48.89883}, "nom_arrondissement_communes": "Paris", "code_insee_commune": null}, {"stationcode": "23106", "name": "Pav\u00e9 des Gardes - Charles Vaillant", "is_installed": "OUI", "capacity": 20, "numdocksavailable": 20, "numbikesavailable": 0, "mechanical": 0, "ebike": 0, "is_renting": "OUI", "is_returning": "OUI", "duedate": "2024-06-14T15:47:59+00:00", "coordonnees_geo": {"lon": 2.2111820107205, "lat": 48.81168551728}, "nom_arrondissement_communes": "S\u00e8vres", "code_insee_commune": null}, {"stationcode": "22302", "name": "Gare RER - G\u00e9n\u00e9ral de Gaulle", "is_installed": "OUI", "capacity": 41, "numdocksavailable": 31, "numbikesavailable": 7, "mechanical": 2, "ebike": 5, "is_renting": "OUI", "is_returning": "OUI", "duedate": "2024-06-14T15:50:08+00:00", "coordonnees_geo": {"lon": 2.3064726536317, "lat": 48.933548439566}, "nom_arrondissement_communes": "Gennevilliers", "code_insee_commune": null}, {"stationcode": "9029", "name": "Saint-Lazare - Place d'Estienne d'Orves", "is_installed": "OUI", "capacity": 39, "numdocksavailable": 34, "numbikesavailable": 5, "mechanical": 4, "ebike": 1, "is_renting": "OUI", "is_returning": "OUI", "duedate": "2024-06-14T15:47:53+00:00", "coordonnees_geo": {"lon": 2.3329067, "lat": 48.8768345}, "nom_arrondissement_communes": "Paris", "code_insee_commune": null}, {"stationcode": "48011", "name": "Epi d'Or - Chevilly", "is_installed": "OUI", "capacity": 20, "numdocksavailable": 18, "numbikesavailable": 2, "mechanical": 0, "ebike": 2, "is_renting": "OUI", "is_returning": "OUI", "duedate": "2024-06-14T15:45:05+00:00", "coordonnees_geo": {"lon": 2.3549050362061, "lat": 48.781109786782}, "nom_arrondissement_communes": "Villejuif", "code_insee_commune": null}, {"stationcode": "41212", "name": "Nungesser - Sant\u00e9", "is_installed": "OUI", "capacity": 22, "numdocksavailable": 22, "numbikesavailable": 0, "mechanical": 0, "ebike": 0, "is_renting": "OUI", "is_returning": "OUI", "duedate": "2024-06-14T15:48:16+00:00", "coordonnees_geo": {"lon": 2.448967, "lat": 48.852335}, "nom_arrondissement_communes": "Fontenay-sous-Bois", "code_insee_commune": null}, {"stationcode": "34009", "name": "Dora Maar - Nadia Guendouz", "is_installed": "OUI", "capacity": 30, "numdocksavailable": 24, "numbikesavailable": 5, "mechanical": 2, "ebike": 3, "is_renting": "OUI", "is_returning": "OUI", "duedate": "2024-06-14T15:50:20+00:00", "coordonnees_geo": {"lon": 2.3220406472683, "lat": 48.905452421305}, "nom_arrondissement_communes": "Saint-Ouen-sur-Seine", "code_insee_commune": null}, {"stationcode": "10151", "name": "Gare du Nord - Faubourg Saint-Denis", "is_installed": "OUI", "capacity": 28, "numdocksavailable": 7, "numbikesavailable": 18, "mechanical": 8, "ebike": 10, "is_renting": "OUI", "is_returning": "OUI", "duedate": "2024-06-14T15:49:53+00:00", "coordonnees_geo": {"lon": 2.3568402975798, "lat": 48.879612765504}, "nom_arrondissement_communes": "Paris", "code_insee_commune": null}, {"stationcode": "21327", "name": "Jean Bouin - Gouverneur G\u00e9n\u00e9ral Ebou\u00e9", "is_installed": "OUI", "capacity": 31, "numdocksavailable": 6, "numbikesavailable": 24, "mechanical": 16, "ebike": 8, "is_renting": "OUI", "is_returning": "OUI", "duedate": "2024-06-14T15:48:26+00:00", "coordonnees_geo": {"lon": 2.2651904328524, "lat": 48.824792734266}, "nom_arrondissement_communes": "Issy-les-Moulineaux", "code_insee_commune": null}, {"stationcode": "26011", "name": "M\u00e9nil - Argenteuil", "is_installed": "OUI", "capacity": 20, "numdocksavailable": 10, "numbikesavailable": 10, "mechanical": 6, "ebike": 4, "is_renting": "OUI", "is_returning": "OUI", "duedate": "2024-06-14T15:47:56+00:00", "coordonnees_geo": {"lon": 2.2741496502338, "lat": 48.925901818305}, "nom_arrondissement_communes": "Asni\u00e8res-sur-Seine", "code_insee_commune": null}, {"stationcode": "22209", "name": "Verdun - Henri Barbusse", "is_installed": "OUI", "capacity": 24, "numdocksavailable": 22, "numbikesavailable": 2, "mechanical": 0, "ebike": 2, "is_renting": "OUI", "is_returning": "OUI", "duedate": "2024-06-14T15:48:02+00:00", "coordonnees_geo": {"lon": 2.3159965061736, "lat": 48.802056061754}, "nom_arrondissement_communes": "Bagneux", "code_insee_commune": null}, {"stationcode": "18203", "name": "Lamarck - Saint-Ouen", "is_installed": "OUI", "capacity": 40, "numdocksavailable": 40, "numbikesavailable": 0, "mechanical": 0, "ebike": 0, "is_renting": "NON", "is_returning": "NON", "duedate": "2024-06-14T15:49:14+00:00", "coordonnees_geo": {"lon": 2.3272445342326, "lat": 48.891334555236}, "nom_arrondissement_communes": "Paris", "code_insee_commune": null}, {"stationcode": "35021", "name": "Cartier Bresson - Denis Papin", "is_installed": "OUI", "capacity": 32, "numdocksavailable": 28, "numbikesavailable": 2, "mechanical": 0, "ebike": 2, "is_renting": "OUI", "is_returning": "OUI", "duedate": "2024-06-14T15:49:09+00:00", "coordonnees_geo": {"lon": 2.397814, "lat": 48.902616}, "nom_arrondissement_communes": "Pantin", "code_insee_commune": null}, {"stationcode": "18045", "name": "Pierre Ginier - Clichy", "is_installed": "OUI", "capacity": 16, "numdocksavailable": 12, "numbikesavailable": 3, "mechanical": 0, "ebike": 3, "is_renting": "OUI", "is_returning": "OUI", "duedate": "2024-06-14T15:50:12+00:00", "coordonnees_geo": {"lon": 2.326228, "lat": 48.8867667}, "nom_arrondissement_communes": "Paris", "code_insee_commune": null}, {"stationcode": "14110", "name": "Abb\u00e9 Carton - Plantes", "is_installed": "OUI", "capacity": 25, "numdocksavailable": 21, "numbikesavailable": 4, "mechanical": 1, "ebike": 3, "is_renting": "OUI", "is_returning": "OUI", "duedate": "2024-06-14T15:46:18+00:00", "coordonnees_geo": {"lon": 2.3209181427956, "lat": 48.827673823166}, "nom_arrondissement_communes": "Paris", "code_insee_commune": null}, {"stationcode": "18018", "name": "Carpeaux - Place Jacques Froment", "is_installed": "OUI", "capacity": 19, "numdocksavailable": 15, "numbikesavailable": 3, "mechanical": 1, "ebike": 2, "is_renting": "OUI", "is_returning": "OUI", "duedate": "2024-06-14T15:49:23+00:00", "coordonnees_geo": {"lon": 2.3309428, "lat": 48.8906542}, "nom_arrondissement_communes": "Paris", "code_insee_commune": null}, {"stationcode": "32305", "name": "Saint-Germain - Verdun", "is_installed": "OUI", "capacity": 30, "numdocksavailable": 26, "numbikesavailable": 4, "mechanical": 0, "ebike": 4, "is_renting": "OUI", "is_returning": "OUI", "duedate": "2024-06-14T15:49:11+00:00", "coordonnees_geo": {"lon": 2.4331868384644, "lat": 48.882877330093}, "nom_arrondissement_communes": "Romainville", "code_insee_commune": null}, {"stationcode": "22305", "name": "Jean Jaur\u00e8s - Place du Dr Roux", "is_installed": "OUI", "capacity": 35, "numdocksavailable": 20, "numbikesavailable": 14, "mechanical": 8, "ebike": 6, "is_renting": "OUI", "is_returning": "OUI", "duedate": "2024-06-14T15:49:53+00:00", "coordonnees_geo": {"lon": 2.2947337017374, "lat": 48.927567032796}, "nom_arrondissement_communes": "Gennevilliers", "code_insee_commune": null}, {"stationcode": "12001", "name": "Bastille - Biscornet", "is_installed": "OUI", "capacity": 62, "numdocksavailable": 0, "numbikesavailable": 61, "mechanical": 39, "ebike": 22, "is_renting": "OUI", "is_returning": "OUI", "duedate": "2024-06-14T15:49:38+00:00", "coordonnees_geo": {"lon": 2.369220033288, "lat": 48.851355779579}, "nom_arrondissement_communes": "Paris", "code_insee_commune": null}, {"stationcode": "22602", "name": "Place Henri Dunant - Gare RER", "is_installed": "OUI", "capacity": 31, "numdocksavailable": 22, "numbikesavailable": 8, "mechanical": 3, "ebike": 5, "is_renting": "OUI", "is_returning": "OUI", "duedate": "2024-06-14T15:41:36+00:00", "coordonnees_geo": {"lon": 2.2909234046643, "lat": 48.788093281931}, "nom_arrondissement_communes": "Fontenay-aux-Roses", "code_insee_commune": null}, {"stationcode": "11201", "name": "Faubourg St-Antoine - Place de la Nation", "is_installed": "OUI", "capacity": 16, "numdocksavailable": 12, "numbikesavailable": 3, "mechanical": 1, "ebike": 2, "is_renting": "OUI", "is_returning": "OUI", "duedate": "2024-06-14T15:48:26+00:00", "coordonnees_geo": {"lon": 2.393606, "lat": 48.8487726}, "nom_arrondissement_communes": "Paris", "code_insee_commune": null}, {"stationcode": "22005", "name": "Charles de Gaulle - Madrid", "is_installed": "OUI", "capacity": 22, "numdocksavailable": 18, "numbikesavailable": 3, "mechanical": 1, "ebike": 2, "is_renting": "OUI", "is_returning": "OUI", "duedate": "2024-06-14T15:50:08+00:00", "coordonnees_geo": {"lon": 2.2608044743538, "lat": 48.884432270368}, "nom_arrondissement_communes": "Neuilly-sur-Seine", "code_insee_commune": null}, {"stationcode": "23205", "name": "Parc des Pierrettes", "is_installed": "OUI", "capacity": 23, "numdocksavailable": 22, "numbikesavailable": 1, "mechanical": 0, "ebike": 1, "is_renting": "OUI", "is_returning": "OUI", "duedate": "2024-06-14T15:46:21+00:00", "coordonnees_geo": {"lon": 2.2909969, "lat": 48.7973062}, "nom_arrondissement_communes": "Ch\u00e2tillon", "code_insee_commune": null}, {"stationcode": "32023", "name": "Guy M\u00f4quet - Jean Moulin", "is_installed": "OUI", "capacity": 30, "numdocksavailable": 8, "numbikesavailable": 22, "mechanical": 9, "ebike": 13, "is_renting": "OUI", "is_returning": "OUI", "duedate": "2024-06-14T15:49:59+00:00", "coordonnees_geo": {"lon": 2.363948999931771, "lat": 48.940931521020836}, "nom_arrondissement_communes": "Saint-Denis", "code_insee_commune": null}, {"stationcode": "23201", "name": "Avenir", "is_installed": "OUI", "capacity": 45, "numdocksavailable": 45, "numbikesavailable": 0, "mechanical": 0, "ebike": 0, "is_renting": "OUI", "is_returning": "OUI", "duedate": "2024-06-14T15:48:17+00:00", "coordonnees_geo": {"lon": 2.3003776, "lat": 48.8103438}, "nom_arrondissement_communes": "Ch\u00e2tillon", "code_insee_commune": null}, {"stationcode": "11001", "name": "Richard Lenoir - Place de la Bastille", "is_installed": "OUI", "capacity": 53, "numdocksavailable": 3, "numbikesavailable": 49, "mechanical": 45, "ebike": 4, "is_renting": "OUI", "is_returning": "OUI", "duedate": "2024-06-14T15:50:11+00:00", "coordonnees_geo": {"lon": 2.3697222, "lat": 48.8538327}, "nom_arrondissement_communes": "Paris", "code_insee_commune": null}, {"stationcode": "22018", "name": "Charles de Gaulle - Les Sablons", "is_installed": "OUI", "capacity": 35, "numdocksavailable": 34, "numbikesavailable": 1, "mechanical": 1, "ebike": 0, "is_renting": "OUI", "is_returning": "OUI", "duedate": "2024-06-14T15:49:22+00:00", "coordonnees_geo": {"lon": 2.2715748726513, "lat": 48.880987514929}, "nom_arrondissement_communes": "Neuilly-sur-Seine", "code_insee_commune": null}, {"stationcode": "32051", "name": null, "is_installed": "NON", "capacity": null, "numdocksavailable": 200, "numbikesavailable": 0, "mechanical": 0, "ebike": 0, "is_renting": "NON", "is_returning": "NON", "duedate": "2019-06-19T12:26:12+00:00", "coordonnees_geo": null, "nom_arrondissement_communes": null, "code_insee_commune": null}, {"stationcode": "17126", "name": "H\u00e9l\u00e8ne et Fran\u00e7ois Missoffe - Emile Borel", "is_installed": "OUI", "capacity": 32, "numdocksavailable": 23, "numbikesavailable": 7, "mechanical": 4, "ebike": 3, "is_renting": "OUI", "is_returning": "OUI", "duedate": "2024-06-14T15:48:10+00:00", "coordonnees_geo": {"lon": 2.321543991674844, "lat": 48.89990653843488}, "nom_arrondissement_communes": "Paris", "code_insee_commune": null}, {"stationcode": "34005", "name": "Adrien Lesesne - Docteur Bauer", "is_installed": "OUI", "capacity": 30, "numdocksavailable": 25, "numbikesavailable": 5, "mechanical": 1, "ebike": 4, "is_renting": "OUI", "is_returning": "OUI", "duedate": "2024-06-14T15:48:06+00:00", "coordonnees_geo": {"lon": 2.348248063431511, "lat": 48.90263867304635}, "nom_arrondissement_communes": "Saint-Ouen-sur-Seine", "code_insee_commune": null}, {"stationcode": "17127", "name": "Porte de Clichy - Place des Nations Unies", "is_installed": "OUI", "capacity": 40, "numdocksavailable": 32, "numbikesavailable": 6, "mechanical": 4, "ebike": 2, "is_renting": "OUI", "is_returning": "OUI", "duedate": "2024-06-14T15:49:35+00:00", "coordonnees_geo": {"lon": 2.310542999196392, "lat": 48.896737263309504}, "nom_arrondissement_communes": "Paris", "code_insee_commune": null}, {"stationcode": "26008", "name": "Henri Barbusse - Bourguignons", "is_installed": "OUI", "capacity": 34, "numdocksavailable": 6, "numbikesavailable": 26, "mechanical": 18, "ebike": 8, "is_renting": "OUI", "is_returning": "OUI", "duedate": "2024-06-14T15:46:02+00:00", "coordonnees_geo": {"lon": 2.2734212270774417, "lat": 48.91301722799713}, "nom_arrondissement_communes": "Asni\u00e8res-sur-Seine", "code_insee_commune": null}, {"stationcode": "34012", "name": "Bateliers - Quai de Seine", "is_installed": "OUI", "capacity": 26, "numdocksavailable": 11, "numbikesavailable": 15, "mechanical": 14, "ebike": 1, "is_renting": "OUI", "is_returning": "OUI", "duedate": "2024-06-14T15:50:01+00:00", "coordonnees_geo": {"lon": 2.3239533298594, "lat": 48.915817585516}, "nom_arrondissement_communes": "Saint-Ouen-sur-Seine", "code_insee_commune": null}, {"stationcode": "31303", "name": "Simone Signoret - Paris", "is_installed": "OUI", "capacity": 28, "numdocksavailable": 4, "numbikesavailable": 23, "mechanical": 9, "ebike": 14, "is_renting": "OUI", "is_returning": "OUI", "duedate": "2024-06-14T15:46:26+00:00", "coordonnees_geo": {"lon": 2.465406596265139, "lat": 48.903600624712865}, "nom_arrondissement_communes": "Noisy-le-Sec", "code_insee_commune": null}, {"stationcode": "16502", "name": "Stade Roland-Garros", "is_installed": "NON", "capacity": 0, "numdocksavailable": 0, "numbikesavailable": 0, "mechanical": 0, "ebike": 0, "is_renting": "NON", "is_returning": "NON", "duedate": "2024-06-14T13:29:21+00:00", "coordonnees_geo": {"lon": 2.255324723148, "lat": 48.84401069203}, "nom_arrondissement_communes": "Paris", "code_insee_commune": null}, {"stationcode": "10026", "name": "Gare de l'Est - Chateau Landon", "is_installed": "OUI", "capacity": 59, "numdocksavailable": 41, "numbikesavailable": 15, "mechanical": 6, "ebike": 9, "is_renting": "OUI", "is_returning": "OUI", "duedate": "2024-06-14T15:50:15+00:00", "coordonnees_geo": {"lon": 2.362424, "lat": 48.879305}, "nom_arrondissement_communes": "Paris", "code_insee_commune": null}, {"stationcode": "17010", "name": "Jonqui\u00e8re - Docteur Paul Brousse", "is_installed": "OUI", "capacity": 40, "numdocksavailable": 26, "numbikesavailable": 12, "mechanical": 11, "ebike": 1, "is_renting": "OUI", "is_returning": "OUI", "duedate": "2024-06-14T15:50:14+00:00", "coordonnees_geo": {"lon": 2.318705212173216, "lat": 48.894799816683985}, "nom_arrondissement_communes": "Paris", "code_insee_commune": null}, {"stationcode": "18024", "name": "Clignancourt - Ordener", "is_installed": "OUI", "capacity": 35, "numdocksavailable": 31, "numbikesavailable": 3, "mechanical": 0, "ebike": 3, "is_renting": "OUI", "is_returning": "OUI", "duedate": "2024-06-14T15:45:33+00:00", "coordonnees_geo": {"lon": 2.348636478060487, "lat": 48.891457726153774}, "nom_arrondissement_communes": "Paris", "code_insee_commune": null}, {"stationcode": "16501", "name": "Parc des Princes", "is_installed": "NON", "capacity": 0, "numdocksavailable": 0, "numbikesavailable": 0, "mechanical": 0, "ebike": 0, "is_renting": "NON", "is_returning": "NON", "duedate": "2024-06-14T13:35:38+00:00", "coordonnees_geo": {"lon": 2.2560247765306, "lat": 48.839868497493}, "nom_arrondissement_communes": "Paris", "code_insee_commune": null}, {"stationcode": "15501", "name": "Arena Paris Sud", "is_installed": "NON", "capacity": 0, "numdocksavailable": 0, "numbikesavailable": 0, "mechanical": 0, "ebike": 0, "is_renting": "NON", "is_returning": "NON", "duedate": "2024-06-14T13:43:35+00:00", "coordonnees_geo": {"lon": 2.2995228346402, "lat": 48.848596451122}, "nom_arrondissement_communes": "Paris", "code_insee_commune": null}, {"stationcode": "12500", "name": null, "is_installed": "NON", "capacity": null, "numdocksavailable": 0, "numbikesavailable": 0, "mechanical": 0, "ebike": 0, "is_renting": "NON", "is_returning": "NON", "duedate": "2024-06-14T14:25:29+00:00", "coordonnees_geo": null, "nom_arrondissement_communes": null, "code_insee_commune": null}, {"stationcode": "33019", "name": "Madeleine Vionnet", "is_installed": "OUI", "capacity": 34, "numdocksavailable": 21, "numbikesavailable": 16, "mechanical": 5, "ebike": 11, "is_renting": "OUI", "is_returning": "OUI", "duedate": "2024-06-14T15:49:38+00:00", "coordonnees_geo": {"lon": 2.3740895837545, "lat": 48.902519074064}, "nom_arrondissement_communes": "Aubervilliers", "code_insee_commune": null}, {"stationcode": "18500", "name": null, "is_installed": "NON", "capacity": null, "numdocksavailable": 0, "numbikesavailable": 0, "mechanical": 0, "ebike": 0, "is_renting": "NON", "is_returning": "NON", "duedate": "2024-06-14T14:41:33+00:00", "coordonnees_geo": null, "nom_arrondissement_communes": null, "code_insee_commune": null}, {"stationcode": "8501", "name": "Grand Palais", "is_installed": "NON", "capacity": 0, "numdocksavailable": 0, "numbikesavailable": 0, "mechanical": 0, "ebike": 0, "is_renting": "NON", "is_returning": "NON", "duedate": "2024-06-14T13:06:01+00:00", "coordonnees_geo": {"lon": 2.3109141731562, "lat": 48.868616276811}, "nom_arrondissement_communes": "Paris", "code_insee_commune": null}, {"stationcode": "19018", "name": "Cit\u00e9 de la Musique", "is_installed": "OUI", "capacity": 60, "numdocksavailable": 34, "numbikesavailable": 26, "mechanical": 10, "ebike": 16, "is_renting": "OUI", "is_returning": "OUI", "duedate": "2024-06-14T15:50:18+00:00", "coordonnees_geo": {"lon": 2.3925811931922, "lat": 48.888796556487}, "nom_arrondissement_communes": "Paris", "code_insee_commune": null}, {"stationcode": "15056", "name": "Place Balard", "is_installed": "OUI", "capacity": 22, "numdocksavailable": 18, "numbikesavailable": 3, "mechanical": 1, "ebike": 2, "is_renting": "OUI", "is_returning": "OUI", "duedate": "2024-06-14T15:49:30+00:00", "coordonnees_geo": {"lon": 2.2784192115068, "lat": 48.836395736424}, "nom_arrondissement_communes": "Paris", "code_insee_commune": null}, {"stationcode": "31202", "name": "Gabriel P\u00e9ri - Jules Ferry", "is_installed": "OUI", "capacity": 25, "numdocksavailable": 6, "numbikesavailable": 18, "mechanical": 14, "ebike": 4, "is_renting": "OUI", "is_returning": "OUI", "duedate": "2024-06-14T15:46:41+00:00", "coordonnees_geo": {"lon": 2.3912295762525, "lat": 48.926182814311}, "nom_arrondissement_communes": "La Courneuve", "code_insee_commune": null}, {"stationcode": "31201", "name": "Suzanne Masson", "is_installed": "OUI", "capacity": 37, "numdocksavailable": 32, "numbikesavailable": 3, "mechanical": 1, "ebike": 2, "is_renting": "OUI", "is_returning": "OUI", "duedate": "2024-06-14T15:45:43+00:00", "coordonnees_geo": {"lon": 2.3847292397611, "lat": 48.923306888013}, "nom_arrondissement_communes": "La Courneuve", "code_insee_commune": null}, {"stationcode": "13203", "name": "Square de Choisy - Eastman", "is_installed": "OUI", "capacity": 24, "numdocksavailable": 18, "numbikesavailable": 5, "mechanical": 1, "ebike": 4, "is_renting": "OUI", "is_returning": "OUI", "duedate": "2024-06-14T15:40:59+00:00", "coordonnees_geo": {"lon": 2.3583075090494, "lat": 48.828543456283}, "nom_arrondissement_communes": "Paris", "code_insee_commune": null}, {"stationcode": "47007", "name": "Libert\u00e9 - Vert-de-Maisons", "is_installed": "OUI", "capacity": 20, "numdocksavailable": 8, "numbikesavailable": 12, "mechanical": 11, "ebike": 1, "is_renting": "OUI", "is_returning": "OUI", "duedate": "2024-06-14T15:45:57+00:00", "coordonnees_geo": {"lon": 2.4328628182411, "lat": 48.790147809608}, "nom_arrondissement_communes": "Maisons-Alfort", "code_insee_commune": null}, {"stationcode": "5201", "name": "Saint-Jacques - Soufflot", "is_installed": "OUI", "capacity": 16, "numdocksavailable": 16, "numbikesavailable": 0, "mechanical": 0, "ebike": 0, "is_renting": "NON", "is_returning": "NON", "duedate": "2024-05-29T18:22:19+00:00", "coordonnees_geo": {"lon": 2.3430785379567, "lat": 48.846280383395}, "nom_arrondissement_communes": "Paris", "code_insee_commune": null}, {"stationcode": "12010", "name": "Daumesnil - Picpus", "is_installed": "OUI", "capacity": 21, "numdocksavailable": 6, "numbikesavailable": 17, "mechanical": 9, "ebike": 8, "is_renting": "OUI", "is_returning": "OUI", "duedate": "2024-06-14T15:49:17+00:00", "coordonnees_geo": {"lon": 2.401765, "lat": 48.8374688}, "nom_arrondissement_communes": "Paris", "code_insee_commune": null}, {"stationcode": "11046", "name": "Place de la R\u00e9publique - Voltaire", "is_installed": "OUI", "capacity": 19, "numdocksavailable": 3, "numbikesavailable": 13, "mechanical": 10, "ebike": 3, "is_renting": "OUI", "is_returning": "OUI", "duedate": "2024-06-14T15:48:32+00:00", "coordonnees_geo": {"lon": 2.3654810339212, "lat": 48.866830968942}, "nom_arrondissement_communes": "Paris", "code_insee_commune": null}, {"stationcode": "18041", "name": "Rochechouart - Martyrs", "is_installed": "OUI", "capacity": 20, "numdocksavailable": 14, "numbikesavailable": 6, "mechanical": 0, "ebike": 6, "is_renting": "OUI", "is_returning": "OUI", "duedate": "2024-06-14T15:41:58+00:00", "coordonnees_geo": {"lon": 2.3405495658517, "lat": 48.882193779572}, "nom_arrondissement_communes": "Paris", "code_insee_commune": null}, {"stationcode": "11014", "name": "Place de la Nation - Taillebourg", "is_installed": "OUI", "capacity": 47, "numdocksavailable": 41, "numbikesavailable": 3, "mechanical": 2, "ebike": 1, "is_renting": "OUI", "is_returning": "OUI", "duedate": "2024-06-14T15:49:17+00:00", "coordonnees_geo": {"lon": 2.3973043, "lat": 48.8488408}, "nom_arrondissement_communes": "Paris", "code_insee_commune": null}, {"stationcode": "35002", "name": "Jean Jaur\u00e8s - Presles", "is_installed": "OUI", "capacity": 1, "numdocksavailable": 1, "numbikesavailable": 0, "mechanical": 0, "ebike": 0, "is_renting": "NON", "is_returning": "NON", "duedate": "2023-12-21T20:31:21+00:00", "coordonnees_geo": {"lon": 2.3960057280531, "lat": 48.907134414988}, "nom_arrondissement_communes": "Pantin", "code_insee_commune": null}, {"stationcode": "11102", "name": "Alexandre Dumas - Voltaire", "is_installed": "OUI", "capacity": 59, "numdocksavailable": 41, "numbikesavailable": 15, "mechanical": 13, "ebike": 2, "is_renting": "OUI", "is_returning": "OUI", "duedate": "2024-06-14T15:48:57+00:00", "coordonnees_geo": {"lon": 2.3891476408096, "lat": 48.852888670365}, "nom_arrondissement_communes": "Paris", "code_insee_commune": null}, {"stationcode": "21213", "name": "Vanne - G\u00e9n\u00e9ral de Gaulle", "is_installed": "OUI", "capacity": 25, "numdocksavailable": 24, "numbikesavailable": 0, "mechanical": 0, "ebike": 0, "is_renting": "OUI", "is_returning": "OUI", "duedate": "2024-06-14T15:47:59+00:00", "coordonnees_geo": {"lon": 2.328318, "lat": 48.815007}, "nom_arrondissement_communes": "Montrouge", "code_insee_commune": null}, {"stationcode": "8039", "name": "Colis\u00e9e - Champs-Elys\u00e9es", "is_installed": "OUI", "capacity": 24, "numdocksavailable": 16, "numbikesavailable": 1, "mechanical": 1, "ebike": 0, "is_renting": "OUI", "is_returning": "OUI", "duedate": "2024-06-14T15:48:55+00:00", "coordonnees_geo": {"lon": 2.3076190799475, "lat": 48.870475399387}, "nom_arrondissement_communes": "Paris", "code_insee_commune": null}, {"stationcode": "11009", "name": "Boulets - Voltaire", "is_installed": "OUI", "capacity": 24, "numdocksavailable": 13, "numbikesavailable": 10, "mechanical": 7, "ebike": 3, "is_renting": "OUI", "is_returning": "OUI", "duedate": "2024-06-14T15:49:48+00:00", "coordonnees_geo": {"lon": 2.3890301585197, "lat": 48.85218705621}, "nom_arrondissement_communes": "Paris", "code_insee_commune": null}, {"stationcode": "15060", "name": "Place de la Montagne du Goulet", "is_installed": "OUI", "capacity": 21, "numdocksavailable": 18, "numbikesavailable": 3, "mechanical": 3, "ebike": 0, "is_renting": "OUI", "is_returning": "OUI", "duedate": "2024-06-14T15:49:19+00:00", "coordonnees_geo": {"lon": 2.2773844, "lat": 48.8443415}, "nom_arrondissement_communes": "Paris", "code_insee_commune": null}, {"stationcode": "11012", "name": "Montreuil - Voltaire", "is_installed": "OUI", "capacity": 34, "numdocksavailable": 14, "numbikesavailable": 17, "mechanical": 11, "ebike": 6, "is_renting": "OUI", "is_returning": "OUI", "duedate": "2024-06-14T15:45:44+00:00", "coordonnees_geo": {"lon": 2.3930755582745, "lat": 48.850507011842}, "nom_arrondissement_communes": "Paris", "code_insee_commune": null}, {"stationcode": "7111", "name": "Ecole Militaire - Place Joffre", "is_installed": "OUI", "capacity": 26, "numdocksavailable": 8, "numbikesavailable": 18, "mechanical": 17, "ebike": 1, "is_renting": "OUI", "is_returning": "OUI", "duedate": "2024-06-14T15:50:13+00:00", "coordonnees_geo": {"lon": 2.3017993569374, "lat": 48.852060203583}, "nom_arrondissement_communes": "Paris", "code_insee_commune": null}, {"stationcode": "15105", "name": "F\u00e9d\u00e9ration - Suffren", "is_installed": "OUI", "capacity": 25, "numdocksavailable": 14, "numbikesavailable": 11, "mechanical": 11, "ebike": 0, "is_renting": "OUI", "is_returning": "OUI", "duedate": "2024-06-14T15:47:57+00:00", "coordonnees_geo": {"lon": 2.2978776320815, "lat": 48.852828153442}, "nom_arrondissement_communes": "Paris", "code_insee_commune": null}, {"stationcode": "7025", "name": "Octave Gr\u00e9ard - Tour Eiffel", "is_installed": "OUI", "capacity": 33, "numdocksavailable": 13, "numbikesavailable": 18, "mechanical": 17, "ebike": 1, "is_renting": "OUI", "is_returning": "OUI", "duedate": "2024-06-14T15:46:24+00:00", "coordonnees_geo": {"lon": 2.2931787543289, "lat": 48.856502977696}, "nom_arrondissement_communes": "Paris", "code_insee_commune": null}, {"stationcode": "12107", "name": "Diderot - Pierre Bourdan", "is_installed": "OUI", "capacity": 21, "numdocksavailable": 11, "numbikesavailable": 7, "mechanical": 4, "ebike": 3, "is_renting": "OUI", "is_returning": "OUI", "duedate": "2024-06-14T15:49:43+00:00", "coordonnees_geo": {"lon": 2.3902582749724, "lat": 48.847648620797}, "nom_arrondissement_communes": "Paris", "code_insee_commune": null}, {"stationcode": "4104", "name": "Sebastopol - Rambuteau", "is_installed": "OUI", "capacity": 16, "numdocksavailable": 1, "numbikesavailable": 16, "mechanical": 12, "ebike": 4, "is_renting": "OUI", "is_returning": "OUI", "duedate": "2024-06-14T15:50:00+00:00", "coordonnees_geo": {"lon": 2.3501381278038, "lat": 48.86181809267}, "nom_arrondissement_communes": "Paris", "code_insee_commune": null}, {"stationcode": "1003", "name": "Saint-Denis - Rivoli", "is_installed": "OUI", "capacity": 43, "numdocksavailable": 6, "numbikesavailable": 39, "mechanical": 24, "ebike": 15, "is_renting": "OUI", "is_returning": "OUI", "duedate": "2024-06-14T15:48:25+00:00", "coordonnees_geo": {"lon": 2.3476943001151, "lat": 48.859059340842}, "nom_arrondissement_communes": "Paris", "code_insee_commune": null}, {"stationcode": "8002", "name": "Gare Saint-Lazare - Cour du Havre", "is_installed": "OUI", "capacity": 45, "numdocksavailable": 1, "numbikesavailable": 48, "mechanical": 32, "ebike": 16, "is_renting": "OUI", "is_returning": "OUI", "duedate": "2024-06-14T15:50:14+00:00", "coordonnees_geo": {"lon": 2.3265598341823, "lat": 48.875674400851}, "nom_arrondissement_communes": "Paris", "code_insee_commune": null}, {"stationcode": "32304", "name": "Charcot - Benfleet", "is_installed": "NON", "capacity": 0, "numdocksavailable": 0, "numbikesavailable": 0, "mechanical": 0, "ebike": 0, "is_renting": "NON", "is_returning": "NON", "duedate": "2024-03-29T09:30:37+00:00", "coordonnees_geo": {"lon": 2.440523876268, "lat": 48.878370277021}, "nom_arrondissement_communes": "Romainville", "code_insee_commune": null}, {"stationcode": "32017", "name": "Basilique", "is_installed": "OUI", "capacity": 22, "numdocksavailable": 10, "numbikesavailable": 11, "mechanical": 9, "ebike": 2, "is_renting": "OUI", "is_returning": "OUI", "duedate": "2024-06-14T15:50:08+00:00", "coordonnees_geo": {"lon": 2.3588666820200914, "lat": 48.93626891059109}, "nom_arrondissement_communes": "Saint-Denis", "code_insee_commune": null}, {"stationcode": "11104", "name": "Charonne - Robert et Sonia Delaunay", "is_installed": "OUI", "capacity": 20, "numdocksavailable": 17, "numbikesavailable": 3, "mechanical": 0, "ebike": 3, "is_renting": "OUI", "is_returning": "OUI", "duedate": "2024-06-14T15:48:31+00:00", "coordonnees_geo": {"lon": 2.3925706744194, "lat": 48.855907555969}, "nom_arrondissement_communes": "Paris", "code_insee_commune": null}, {"stationcode": "6003", "name": "Saint-Sulpice", "is_installed": "OUI", "capacity": 21, "numdocksavailable": 10, "numbikesavailable": 11, "mechanical": 7, "ebike": 4, "is_renting": "OUI", "is_returning": "OUI", "duedate": "2024-06-14T15:47:03+00:00", "coordonnees_geo": {"lon": 2.3308077827095985, "lat": 48.85165383178419}, "nom_arrondissement_communes": "Paris", "code_insee_commune": null}, {"stationcode": "33006", "name": "Andr\u00e9 Karman - R\u00e9publique", "is_installed": "OUI", "capacity": 31, "numdocksavailable": 23, "numbikesavailable": 5, "mechanical": 3, "ebike": 2, "is_renting": "OUI", "is_returning": "OUI", "duedate": "2024-06-14T15:49:53+00:00", "coordonnees_geo": {"lon": 2.3851355910301213, "lat": 48.91039875761846}, "nom_arrondissement_communes": "Aubervilliers", "code_insee_commune": null}, {"stationcode": "41301", "name": "Bois de Vincennes - Gare", "is_installed": "OUI", "capacity": 50, "numdocksavailable": 42, "numbikesavailable": 8, "mechanical": 2, "ebike": 6, "is_renting": "OUI", "is_returning": "OUI", "duedate": "2024-06-14T15:50:10+00:00", "coordonnees_geo": {"lon": 2.4708339950830287, "lat": 48.836022242886884}, "nom_arrondissement_communes": "Nogent-sur-Marne", "code_insee_commune": null}, {"stationcode": "17038", "name": "Grande Arm\u00e9e - Brunel", "is_installed": "OUI", "capacity": 62, "numdocksavailable": 58, "numbikesavailable": 2, "mechanical": 0, "ebike": 2, "is_renting": "OUI", "is_returning": "OUI", "duedate": "2024-06-14T15:49:40+00:00", "coordonnees_geo": {"lon": 2.288124, "lat": 48.876116}, "nom_arrondissement_communes": "Paris", "code_insee_commune": null}, {"stationcode": "17041", "name": "Guersant - Gouvion-Saint-Cyr", "is_installed": "OUI", "capacity": 36, "numdocksavailable": 27, "numbikesavailable": 7, "mechanical": 6, "ebike": 1, "is_renting": "OUI", "is_returning": "OUI", "duedate": "2024-06-14T15:44:34+00:00", "coordonnees_geo": {"lon": 2.287667370814871, "lat": 48.88287775178599}, "nom_arrondissement_communes": "Paris", "code_insee_commune": null}]