[{"stationcode": "6018", "name": "Michelet - Assas", "is_installed": "OUI", "capacity": 18, "numdocksavailable": 6, "numbikesavailable": 11, "mechanical": 6, "ebike": 5, "is_renting": "OUI", "is_returning": "OUI", "duedate": "2024-06-14T14:49:59+00:00", "coordonnees_geo": {"lon": 2.3350211977959, "lat": 48.842741502832}, "nom_arrondissement_communes": "Paris", "code_insee_commune": null}, {"stationcode": "31019", "name": "Vincennes - Douy-Delcupe", "is_installed": "OUI", "capacity": 38, "numdocksavailable": 38, "numbikesavailable": 0, "mechanical": 0, "ebike": 0, "is_renting": "OUI", "is_returning": "OUI", "duedate": "2024-06-14T14:49:22+00:00", "coordonnees_geo": {"lon": 2.436049282550812, "lat": 48.85493692155721}, "nom_arrondissement_communes": "Montreuil", "code_insee_commune": null}, {"stationcode": "32014", "name": "Place du Cornillon - Stade de France", "is_installed": "OUI", "capacity": 34, "numdocksavailable": 21, "numbikesavailable": 13, "mechanical": 10, "ebike": 3, "is_renting": "OUI", "is_returning": "OUI", "duedate": "2024-06-14T14:49:45+00:00", "coordonnees_geo": {"lon": 2.3644426837563515, "lat": 48.92540695835961}, "nom_arrondissement_communes": "Saint-Denis", "code_insee_commune": null}, {"stationcode": "17027", "name": "Place du Mar\u00e9chal Juin - P\u00e9reire", "is_installed": "OUI", "capacity": 46, "numdocksavailable": 37, "numbikesavailable": 5, "mechanical": 2, "ebike": 3, "is_renting": "OUI", "is_returning": "OUI", "duedate": "2024-06-14T14:44:29+00:00", "coordonnees_geo": {"lon": 2.298286, "lat": 48.885263}, "nom_arrondissement_communes": "Paris", "code_insee_commune": null}, {"stationcode": "31016", "name": "Lucie Aubrac - Franklin", "is_installed": "OUI", "capacity": 36, "numdocksavailable": 31, "numbikesavailable": 5, "mechanical": 2, "ebike": 3, "is_renting": "OUI", "is_returning": "OUI", "duedate": "2024-06-14T14:50:11+00:00", "coordonnees_geo": {"lon": 2.4435862898826604, "lat": 48.86223916006812}, "nom_arrondissement_communes": "Montreuil", "code_insee_commune": null}, {"stationcode": "2009", "name": "Filles Saint-Thomas - Place de la Bourse", "is_installed": "OUI", "capacity": 58, "numdocksavailable": 15, "numbikesavailable": 43, "mechanical": 26, "ebike": 17, "is_renting": "OUI", "is_returning": "OUI", "duedate": "2024-06-14T14:48:18+00:00", "coordonnees_geo": {"lon": 2.3397543845203, "lat": 48.868899890853}, "nom_arrondissement_communes": "Paris", "code_insee_commune": null}, {"stationcode": "44102", "name": "Verdun - Adrien Damalix", "is_installed": "OUI", "capacity": 26, "numdocksavailable": 20, "numbikesavailable": 5, "mechanical": 3, "ebike": 2, "is_renting": "OUI", "is_returning": "OUI", "duedate": "2024-06-14T14:47:33+00:00", "coordonnees_geo": {"lon": 2.4215328320860863, "lat": 48.8222334178559}, "nom_arrondissement_communes": "Saint-Maurice", "code_insee_commune": null}, {"stationcode": "9115", "name": "Milton - Manuel", "is_installed": "OUI", "capacity": 22, "numdocksavailable": 21, "numbikesavailable": 1, "mechanical": 0, "ebike": 1, "is_renting": "OUI", "is_returning": "OUI", "duedate": "2024-06-14T14:48:09+00:00", "coordonnees_geo": {"lon": 2.341181, "lat": 48.878249}, "nom_arrondissement_communes": "Paris", "code_insee_commune": null}, {"stationcode": "19039", "name": "Edouard Pailleron - Simon Bolivar", "is_installed": "OUI", "capacity": 24, "numdocksavailable": 21, "numbikesavailable": 3, "mechanical": 1, "ebike": 2, "is_renting": "OUI", "is_returning": "OUI", "duedate": "2024-06-14T14:49:55+00:00", "coordonnees_geo": {"lon": 2.374839261174202, "lat": 48.87979886049996}, "nom_arrondissement_communes": "Paris", "code_insee_commune": null}, {"stationcode": "16032", "name": "Eglise d'Auteuil", "is_installed": "OUI", "capacity": 21, "numdocksavailable": 20, "numbikesavailable": 1, "mechanical": 0, "ebike": 1, "is_renting": "OUI", "is_returning": "OUI", "duedate": "2024-06-14T14:48:49+00:00", "coordonnees_geo": {"lon": 2.26848387135299, "lat": 48.84749841771691}, "nom_arrondissement_communes": "Paris", "code_insee_commune": null}, {"stationcode": "17122", "name": "Bridaine - Lamand\u00e9", "is_installed": "OUI", "capacity": 29, "numdocksavailable": 26, "numbikesavailable": 3, "mechanical": 1, "ebike": 2, "is_renting": "OUI", "is_returning": "OUI", "duedate": "2024-06-14T14:49:40+00:00", "coordonnees_geo": {"lon": 2.3206239, "lat": 48.8862074}, "nom_arrondissement_communes": "Paris", "code_insee_commune": null}, {"stationcode": "9023", "name": "Laffitte - Italiens", "is_installed": "OUI", "capacity": 33, "numdocksavailable": 18, "numbikesavailable": 15, "mechanical": 6, "ebike": 9, "is_renting": "OUI", "is_returning": "OUI", "duedate": "2024-06-14T14:46:33+00:00", "coordonnees_geo": {"lon": 2.3372015478451, "lat": 48.871815737396}, "nom_arrondissement_communes": "Paris", "code_insee_commune": null}, {"stationcode": "14122", "name": "Colonel Monteil - Brune", "is_installed": "OUI", "capacity": 19, "numdocksavailable": 17, "numbikesavailable": 2, "mechanical": 1, "ebike": 1, "is_renting": "OUI", "is_returning": "OUI", "duedate": "2024-06-14T14:48:09+00:00", "coordonnees_geo": {"lon": 2.3092747998272, "lat": 48.82650293311}, "nom_arrondissement_communes": "Paris", "code_insee_commune": null}, {"stationcode": "16123", "name": "Mahatma Gandhi", "is_installed": "OUI", "capacity": 26, "numdocksavailable": 18, "numbikesavailable": 7, "mechanical": 4, "ebike": 3, "is_renting": "OUI", "is_returning": "OUI", "duedate": "2024-06-14T14:49:15+00:00", "coordonnees_geo": {"lon": 2.264205, "lat": 48.876356}, "nom_arrondissement_communes": "Paris", "code_insee_commune": null}, {"stationcode": "31007", "name": "Paris - D\u00e9sir\u00e9 Pr\u00e9aux", "is_installed": "OUI", "capacity": 49, "numdocksavailable": 30, "numbikesavailable": 17, "mechanical": 6, "ebike": 11, "is_renting": "OUI", "is_returning": "OUI", "duedate": "2024-06-14T14:49:16+00:00", "coordonnees_geo": {"lon": 2.4323049187660217, "lat": 48.85742876694898}, "nom_arrondissement_communes": "Montreuil", "code_insee_commune": null}, {"stationcode": "15108", "name": "Lourmel - Marie Skobtsov", "is_installed": "OUI", "capacity": 22, "numdocksavailable": 1, "numbikesavailable": 21, "mechanical": 16, "ebike": 5, "is_renting": "OUI", "is_returning": "OUI", "duedate": "2024-06-14T14:47:33+00:00", "coordonnees_geo": {"lon": 2.287283, "lat": 48.844974}, "nom_arrondissement_communes": "Paris", "code_insee_commune": null}, {"stationcode": "6016", "name": "Danton - Serpente", "is_installed": "OUI", "capacity": 22, "numdocksavailable": 8, "numbikesavailable": 12, "mechanical": 9, "ebike": 3, "is_renting": "OUI", "is_returning": "OUI", "duedate": "2024-06-14T14:49:51+00:00", "coordonnees_geo": {"lon": 2.3414132371545, "lat": 48.852297362582}, "nom_arrondissement_communes": "Paris", "code_insee_commune": null}, {"stationcode": "17046", "name": "Mac-Mahon - Brey", "is_installed": "OUI", "capacity": 25, "numdocksavailable": 19, "numbikesavailable": 6, "mechanical": 1, "ebike": 5, "is_renting": "OUI", "is_returning": "OUI", "duedate": "2024-06-14T14:47:53+00:00", "coordonnees_geo": {"lon": 2.294512536052928, "lat": 48.877532084130166}, "nom_arrondissement_communes": "Paris", "code_insee_commune": null}, {"stationcode": "17121", "name": "Square des Epinettes", "is_installed": "OUI", "capacity": 20, "numdocksavailable": 17, "numbikesavailable": 3, "mechanical": 1, "ebike": 2, "is_renting": "OUI", "is_returning": "OUI", "duedate": "2024-06-14T14:49:09+00:00", "coordonnees_geo": {"lon": 2.325953990221024, "lat": 48.89383909781389}, "nom_arrondissement_communes": "Paris", "code_insee_commune": null}, {"stationcode": "10020", "name": "Chabrol - d'Hauteville", "is_installed": "OUI", "capacity": 11, "numdocksavailable": 7, "numbikesavailable": 4, "mechanical": 1, "ebike": 3, "is_renting": "OUI", "is_returning": "OUI", "duedate": "2024-06-14T14:47:04+00:00", "coordonnees_geo": {"lon": 2.3513179644942284, "lat": 48.87701838803332}, "nom_arrondissement_communes": "Paris", "code_insee_commune": null}, {"stationcode": "18113", "name": "Lepic - Arm\u00e9e d'Orient", "is_installed": "OUI", "capacity": 24, "numdocksavailable": 22, "numbikesavailable": 2, "mechanical": 0, "ebike": 2, "is_renting": "OUI", "is_returning": "OUI", "duedate": "2024-06-14T14:49:06+00:00", "coordonnees_geo": {"lon": 2.334307730197907, "lat": 48.88753640381415}, "nom_arrondissement_communes": "Paris", "code_insee_commune": null}, {"stationcode": "18109", "name": "Pajol - Riquet", "is_installed": "OUI", "capacity": 47, "numdocksavailable": 41, "numbikesavailable": 6, "mechanical": 1, "ebike": 5, "is_renting": "OUI", "is_returning": "OUI", "duedate": "2024-06-14T14:49:52+00:00", "coordonnees_geo": {"lon": 2.3628534749150276, "lat": 48.88960028134536}, "nom_arrondissement_communes": "Paris", "code_insee_commune": null}, {"stationcode": "18029", "name": "Emile Blemont - Poteau", "is_installed": "OUI", "capacity": 39, "numdocksavailable": 37, "numbikesavailable": 2, "mechanical": 1, "ebike": 1, "is_renting": "OUI", "is_returning": "OUI", "duedate": "2024-06-14T14:48:09+00:00", "coordonnees_geo": {"lon": 2.3415122, "lat": 48.8943782}, "nom_arrondissement_communes": "Paris", "code_insee_commune": null}, {"stationcode": "20118", "name": "Orteaux - Mouraud", "is_installed": "OUI", "capacity": 24, "numdocksavailable": 19, "numbikesavailable": 5, "mechanical": 1, "ebike": 4, "is_renting": "OUI", "is_returning": "OUI", "duedate": "2024-06-14T14:49:09+00:00", "coordonnees_geo": {"lon": 2.408762907764669, "lat": 48.85558642847872}, "nom_arrondissement_communes": "Paris", "code_insee_commune": null}, {"stationcode": "20023", "name": "Pelleport - Belgrand", "is_installed": "OUI", "capacity": 15, "numdocksavailable": 11, "numbikesavailable": 4, "mechanical": 1, "ebike": 3, "is_renting": "OUI", "is_returning": "OUI", "duedate": "2024-06-14T14:48:36+00:00", "coordonnees_geo": {"lon": 2.403980836377493, "lat": 48.86500081847653}, "nom_arrondissement_communes": "Paris", "code_insee_commune": null}, {"stationcode": "14002", "name": "Edgar Quinet - Raspail", "is_installed": "OUI", "capacity": 46, "numdocksavailable": 11, "numbikesavailable": 33, "mechanical": 2, "ebike": 31, "is_renting": "OUI", "is_returning": "OUI", "duedate": "2024-06-14T14:50:11+00:00", "coordonnees_geo": {"lon": 2.32971478253603, "lat": 48.83940266673835}, "nom_arrondissement_communes": "Paris", "code_insee_commune": null}, {"stationcode": "15035", "name": "Place Etienne Pernet", "is_installed": "OUI", "capacity": 43, "numdocksavailable": 28, "numbikesavailable": 13, "mechanical": 12, "ebike": 1, "is_renting": "OUI", "is_returning": "OUI", "duedate": "2024-06-14T14:50:07+00:00", "coordonnees_geo": {"lon": 2.2921819612383847, "lat": 48.84243457133779}, "nom_arrondissement_communes": "Paris", "code_insee_commune": null}, {"stationcode": "18049", "name": "Porte d'Aubervilliers", "is_installed": "OUI", "capacity": 55, "numdocksavailable": 46, "numbikesavailable": 6, "mechanical": 1, "ebike": 5, "is_renting": "OUI", "is_returning": "OUI", "duedate": "2024-06-14T14:47:04+00:00", "coordonnees_geo": {"lon": 2.3689722642302513, "lat": 48.89859661942376}, "nom_arrondissement_communes": "Paris", "code_insee_commune": null}, {"stationcode": "31703", "name": "Sadi Carnot - Fran\u00e7ois Mitterrand", "is_installed": "OUI", "capacity": 27, "numdocksavailable": 21, "numbikesavailable": 6, "mechanical": 1, "ebike": 5, "is_renting": "OUI", "is_returning": "OUI", "duedate": "2024-06-14T14:49:26+00:00", "coordonnees_geo": {"lon": 2.4241617321968083, "lat": 48.87532687671517}, "nom_arrondissement_communes": "Bagnolet", "code_insee_commune": null}, {"stationcode": "35003", "name": "Gabrielle Josserand - Edouard Vaillant", "is_installed": "OUI", "capacity": 25, "numdocksavailable": 14, "numbikesavailable": 9, "mechanical": 7, "ebike": 2, "is_renting": "OUI", "is_returning": "OUI", "duedate": "2024-06-14T14:50:05+00:00", "coordonnees_geo": {"lon": 2.3933270573616032, "lat": 48.90271566255436}, "nom_arrondissement_communes": "Pantin", "code_insee_commune": null}, {"stationcode": "21014", "name": "Hameau Fleuri - March\u00e9", "is_installed": "OUI", "capacity": 22, "numdocksavailable": 16, "numbikesavailable": 6, "mechanical": 6, "ebike": 0, "is_renting": "OUI", "is_returning": "OUI", "duedate": "2024-06-14T14:49:42+00:00", "coordonnees_geo": {"lon": 2.2412404417991643, "lat": 48.831448892608314}, "nom_arrondissement_communes": "Boulogne-Billancourt", "code_insee_commune": null}, {"stationcode": "11006", "name": "Ledru-Rollin - Place du P\u00e8re Chaillet", "is_installed": "OUI", "capacity": 37, "numdocksavailable": 6, "numbikesavailable": 31, "mechanical": 28, "ebike": 3, "is_renting": "OUI", "is_returning": "OUI", "duedate": "2024-06-14T14:46:38+00:00", "coordonnees_geo": {"lon": 2.379020587761426, "lat": 48.856433706943704}, "nom_arrondissement_communes": "Paris", "code_insee_commune": null}, {"stationcode": "47005", "name": "Ecole V\u00e9t\u00e9rinaire", "is_installed": "OUI", "capacity": 36, "numdocksavailable": 9, "numbikesavailable": 27, "mechanical": 26, "ebike": 1, "is_renting": "OUI", "is_returning": "OUI", "duedate": "2024-06-14T14:49:56+00:00", "coordonnees_geo": {"lon": 2.4224362157778994, "lat": 48.81488859822486}, "nom_arrondissement_communes": "Maisons-Alfort", "code_insee_commune": null}, {"stationcode": "14112", "name": "M\u00e9chain - Faubourg Saint-Jacques", "is_installed": "OUI", "capacity": 16, "numdocksavailable": 14, "numbikesavailable": 1, "mechanical": 1, "ebike": 0, "is_renting": "OUI", "is_returning": "OUI", "duedate": "2024-06-14T14:49:42+00:00", "coordonnees_geo": {"lon": 2.33798034198275, "lat": 48.83586772099485}, "nom_arrondissement_communes": "Paris", "code_insee_commune": null}, {"stationcode": "9026", "name": "Jean-Baptiste Pigalle - La Bruyere", "is_installed": "OUI", "capacity": 17, "numdocksavailable": 12, "numbikesavailable": 5, "mechanical": 1, "ebike": 4, "is_renting": "OUI", "is_returning": "OUI", "duedate": "2024-06-14T14:50:12+00:00", "coordonnees_geo": {"lon": 2.333709173337285, "lat": 48.87939826447722}, "nom_arrondissement_communes": "Paris", "code_insee_commune": null}, {"stationcode": "18033", "name": "Belliard - Damr\u00e9mont", "is_installed": "OUI", "capacity": 34, "numdocksavailable": 32, "numbikesavailable": 1, "mechanical": 1, "ebike": 0, "is_renting": "OUI", "is_returning": "OUI", "duedate": "2024-06-14T14:49:46+00:00", "coordonnees_geo": {"lon": 2.338023450388167, "lat": 48.89669238777841}, "nom_arrondissement_communes": "Paris", "code_insee_commune": null}, {"stationcode": "21310", "name": "Kl\u00e9ber - Gouverneur G\u00e9n\u00e9ral Ebou\u00e9", "is_installed": "OUI", "capacity": 24, "numdocksavailable": 2, "numbikesavailable": 22, "mechanical": 13, "ebike": 9, "is_renting": "OUI", "is_returning": "OUI", "duedate": "2024-06-14T14:48:21+00:00", "coordonnees_geo": {"lon": 2.2723413258790965, "lat": 48.826885843069796}, "nom_arrondissement_communes": "Issy-les-Moulineaux", "code_insee_commune": null}, {"stationcode": "23007", "name": "Pr\u00e9sident Wilson - Jean Jaures", "is_installed": "OUI", "capacity": 27, "numdocksavailable": 16, "numbikesavailable": 10, "mechanical": 5, "ebike": 5, "is_renting": "OUI", "is_returning": "OUI", "duedate": "2024-06-14T14:49:05+00:00", "coordonnees_geo": {"lon": 2.2920683026313786, "lat": 48.89034054052266}, "nom_arrondissement_communes": "Levallois-Perret", "code_insee_commune": null}, {"stationcode": "32015", "name": "Gare RER de Saint-Denis", "is_installed": "OUI", "capacity": 40, "numdocksavailable": 29, "numbikesavailable": 8, "mechanical": 3, "ebike": 5, "is_renting": "OUI", "is_returning": "OUI", "duedate": "2024-06-14T14:47:03+00:00", "coordonnees_geo": {"lon": 2.3471488058567047, "lat": 48.93554324248177}, "nom_arrondissement_communes": "Saint-Denis", "code_insee_commune": null}, {"stationcode": "5121", "name": "Square Ren\u00e9 Viviani - Montebello", "is_installed": "OUI", "capacity": 34, "numdocksavailable": 8, "numbikesavailable": 23, "mechanical": 19, "ebike": 4, "is_renting": "OUI", "is_returning": "OUI", "duedate": "2024-06-14T14:47:21+00:00", "coordonnees_geo": {"lon": 2.347842156887055, "lat": 48.851904891406384}, "nom_arrondissement_communes": "Paris", "code_insee_commune": null}, {"stationcode": "16043", "name": "Place de Passy", "is_installed": "OUI", "capacity": 15, "numdocksavailable": 12, "numbikesavailable": 3, "mechanical": 0, "ebike": 3, "is_renting": "OUI", "is_returning": "OUI", "duedate": "2024-06-14T14:40:34+00:00", "coordonnees_geo": {"lon": 2.277500546942199, "lat": 48.85780291711202}, "nom_arrondissement_communes": "Paris", "code_insee_commune": null}, {"stationcode": "20116", "name": "Haies - R\u00e9union", "is_installed": "OUI", "capacity": 16, "numdocksavailable": 15, "numbikesavailable": 1, "mechanical": 0, "ebike": 1, "is_renting": "OUI", "is_returning": "OUI", "duedate": "2024-06-14T14:47:12+00:00", "coordonnees_geo": {"lon": 2.402426162238911, "lat": 48.85386896766491}, "nom_arrondissement_communes": "Paris", "code_insee_commune": null}, {"stationcode": "6107", "name": "Place Alphonse Deville", "is_installed": "OUI", "capacity": 23, "numdocksavailable": 3, "numbikesavailable": 19, "mechanical": 17, "ebike": 2, "is_renting": "OUI", "is_returning": "OUI", "duedate": "2024-06-14T14:49:44+00:00", "coordonnees_geo": {"lon": 2.3275961726904, "lat": 48.850188262662}, "nom_arrondissement_communes": "Paris", "code_insee_commune": null}, {"stationcode": "16029", "name": "Maison de Radio - France", "is_installed": "OUI", "capacity": 47, "numdocksavailable": 22, "numbikesavailable": 22, "mechanical": 21, "ebike": 1, "is_renting": "OUI", "is_returning": "OUI", "duedate": "2024-06-14T14:49:50+00:00", "coordonnees_geo": {"lon": 2.277785539627075, "lat": 48.85132886434057}, "nom_arrondissement_communes": "Paris", "code_insee_commune": null}, {"stationcode": "9017", "name": "Lallier - Trudaine", "is_installed": "OUI", "capacity": 29, "numdocksavailable": 25, "numbikesavailable": 3, "mechanical": 0, "ebike": 3, "is_renting": "OUI", "is_returning": "OUI", "duedate": "2024-06-14T14:48:30+00:00", "coordonnees_geo": {"lon": 2.3408224806189537, "lat": 48.88109246617963}, "nom_arrondissement_communes": "Paris", "code_insee_commune": null}, {"stationcode": "18008", "name": "Square L\u00e9on", "is_installed": "OUI", "capacity": 33, "numdocksavailable": 27, "numbikesavailable": 5, "mechanical": 1, "ebike": 4, "is_renting": "OUI", "is_returning": "OUI", "duedate": "2024-06-14T14:49:40+00:00", "coordonnees_geo": {"lon": 2.353205569088459, "lat": 48.88667396788626}, "nom_arrondissement_communes": "Paris", "code_insee_commune": null}, {"stationcode": "7008", "name": "Villersexel - Saint-Germain", "is_installed": "OUI", "capacity": 16, "numdocksavailable": 10, "numbikesavailable": 6, "mechanical": 5, "ebike": 1, "is_renting": "OUI", "is_returning": "OUI", "duedate": "2024-06-14T14:43:22+00:00", "coordonnees_geo": {"lon": 2.3237934708595, "lat": 48.858297001218}, "nom_arrondissement_communes": "Paris", "code_insee_commune": null}, {"stationcode": "16112", "name": "Chernoviz - Raynouard", "is_installed": "OUI", "capacity": 37, "numdocksavailable": 34, "numbikesavailable": 3, "mechanical": 0, "ebike": 3, "is_renting": "OUI", "is_returning": "OUI", "duedate": "2024-06-14T14:49:24+00:00", "coordonnees_geo": {"lon": 2.282173218142987, "lat": 48.8569864146289}, "nom_arrondissement_communes": "Paris", "code_insee_commune": null}, {"stationcode": "42703", "name": "Fontainebleau - Edmond Michelet", "is_installed": "OUI", "capacity": 45, "numdocksavailable": 39, "numbikesavailable": 6, "mechanical": 2, "ebike": 4, "is_renting": "OUI", "is_returning": "OUI", "duedate": "2024-06-14T14:48:34+00:00", "coordonnees_geo": {"lon": 2.3626908659935, "lat": 48.80956436844049}, "nom_arrondissement_communes": "Le Kremlin-Bic\u00eatre", "code_insee_commune": null}, {"stationcode": "14030", "name": "Pernety - Raymond Losserand", "is_installed": "OUI", "capacity": 32, "numdocksavailable": 20, "numbikesavailable": 11, "mechanical": 6, "ebike": 5, "is_renting": "OUI", "is_returning": "OUI", "duedate": "2024-06-14T14:44:00+00:00", "coordonnees_geo": {"lon": 2.317609339387, "lat": 48.834254627953}, "nom_arrondissement_communes": "Paris", "code_insee_commune": null}, {"stationcode": "15003", "name": "Gare Montparnasse - Vaugirard", "is_installed": "OUI", "capacity": 66, "numdocksavailable": 1, "numbikesavailable": 64, "mechanical": 15, "ebike": 49, "is_renting": "OUI", "is_returning": "OUI", "duedate": "2024-06-14T14:48:57+00:00", "coordonnees_geo": {"lon": 2.31951002690117, "lat": 48.8418071798797}, "nom_arrondissement_communes": "Paris", "code_insee_commune": null}, {"stationcode": "6032", "name": "Sabot - Rennes", "is_installed": "OUI", "capacity": 26, "numdocksavailable": 21, "numbikesavailable": 5, "mechanical": 4, "ebike": 1, "is_renting": "OUI", "is_returning": "OUI", "duedate": "2024-06-14T14:49:51+00:00", "coordonnees_geo": {"lon": 2.331552766263485, "lat": 48.852575112948415}, "nom_arrondissement_communes": "Paris", "code_insee_commune": null}, {"stationcode": "7020", "name": "Champ de Mars - Cler", "is_installed": "OUI", "capacity": 40, "numdocksavailable": 21, "numbikesavailable": 18, "mechanical": 17, "ebike": 1, "is_renting": "OUI", "is_returning": "OUI", "duedate": "2024-06-14T14:48:58+00:00", "coordonnees_geo": {"lon": 2.306646779179573, "lat": 48.856691550115315}, "nom_arrondissement_communes": "Paris", "code_insee_commune": null}, {"stationcode": "10036", "name": "Aqueduc - Villette", "is_installed": "OUI", "capacity": 28, "numdocksavailable": 20, "numbikesavailable": 6, "mechanical": 1, "ebike": 5, "is_renting": "OUI", "is_returning": "OUI", "duedate": "2024-06-14T14:50:10+00:00", "coordonnees_geo": {"lon": 2.367198803315, "lat": 48.883886063895}, "nom_arrondissement_communes": "Paris", "code_insee_commune": null}, {"stationcode": "23304", "name": "Mairie de Sceaux", "is_installed": "OUI", "capacity": 33, "numdocksavailable": 31, "numbikesavailable": 2, "mechanical": 1, "ebike": 1, "is_renting": "OUI", "is_returning": "OUI", "duedate": "2024-06-14T14:47:14+00:00", "coordonnees_geo": {"lon": 2.2887361764861, "lat": 48.778916905132}, "nom_arrondissement_communes": "Sceaux", "code_insee_commune": null}, {"stationcode": "6017", "name": "S\u00e9nat - Cond\u00e9", "is_installed": "OUI", "capacity": 33, "numdocksavailable": 2, "numbikesavailable": 31, "mechanical": 15, "ebike": 16, "is_renting": "OUI", "is_returning": "OUI", "duedate": "2024-06-14T14:49:43+00:00", "coordonnees_geo": {"lon": 2.337939441204071, "lat": 48.84954227788459}, "nom_arrondissement_communes": "Paris", "code_insee_commune": null}, {"stationcode": "1117", "name": "Pont Neuf - Rivoli", "is_installed": "OUI", "capacity": 27, "numdocksavailable": 5, "numbikesavailable": 20, "mechanical": 16, "ebike": 4, "is_renting": "OUI", "is_returning": "OUI", "duedate": "2024-06-14T14:49:53+00:00", "coordonnees_geo": {"lon": 2.344057559967, "lat": 48.860089892617}, "nom_arrondissement_communes": "Paris", "code_insee_commune": null}, {"stationcode": "20137", "name": "Borr\u00e9go - Gambetta", "is_installed": "OUI", "capacity": 25, "numdocksavailable": 24, "numbikesavailable": 1, "mechanical": 0, "ebike": 1, "is_renting": "OUI", "is_returning": "OUI", "duedate": "2024-06-14T14:44:38+00:00", "coordonnees_geo": {"lon": 2.4014145880937576, "lat": 48.87330497045532}, "nom_arrondissement_communes": "Paris", "code_insee_commune": null}, {"stationcode": "23903", "name": "Stade Gaston Bouillant", "is_installed": "OUI", "capacity": 30, "numdocksavailable": 9, "numbikesavailable": 21, "mechanical": 14, "ebike": 7, "is_renting": "OUI", "is_returning": "OUI", "duedate": "2024-06-14T14:47:44+00:00", "coordonnees_geo": {"lon": 2.3279571813836, "lat": 48.939958667023}, "nom_arrondissement_communes": "Villeneuve-la-Garenne", "code_insee_commune": null}, {"stationcode": "21311", "name": "Parvis Corentin Celton", "is_installed": "OUI", "capacity": 55, "numdocksavailable": 9, "numbikesavailable": 45, "mechanical": 43, "ebike": 2, "is_renting": "OUI", "is_returning": "OUI", "duedate": "2024-06-14T14:50:10+00:00", "coordonnees_geo": {"lon": 2.2784319519996648, "lat": 48.82747252522725}, "nom_arrondissement_communes": "Issy-les-Moulineaux", "code_insee_commune": null}, {"stationcode": "12041", "name": "Bois de Vincennes.", "is_installed": "OUI", "capacity": 60, "numdocksavailable": 32, "numbikesavailable": 27, "mechanical": 25, "ebike": 2, "is_renting": "OUI", "is_returning": "OUI", "duedate": "2024-06-14T14:50:11+00:00", "coordonnees_geo": {"lon": 2.4132221, "lat": 48.8338064}, "nom_arrondissement_communes": "Saint-Mand\u00e9", "code_insee_commune": null}, {"stationcode": "15059", "name": "Parc Andr\u00e9 Citro\u00ebn", "is_installed": "OUI", "capacity": 65, "numdocksavailable": 16, "numbikesavailable": 49, "mechanical": 47, "ebike": 2, "is_renting": "OUI", "is_returning": "OUI", "duedate": "2024-06-14T14:48:02+00:00", "coordonnees_geo": {"lon": 2.2780618071556096, "lat": 48.840639944296655}, "nom_arrondissement_communes": "Paris", "code_insee_commune": null}, {"stationcode": "23403", "name": "Chateau", "is_installed": "OUI", "capacity": 22, "numdocksavailable": 7, "numbikesavailable": 14, "mechanical": 8, "ebike": 6, "is_renting": "OUI", "is_returning": "OUI", "duedate": "2024-06-14T14:47:47+00:00", "coordonnees_geo": {"lon": 2.3135878035462, "lat": 48.774661399959}, "nom_arrondissement_communes": "Bourg-la-Reine", "code_insee_commune": null}, {"stationcode": "4013", "name": "Vieille du Temple - Francs Bourgeois", "is_installed": "OUI", "capacity": 29, "numdocksavailable": 4, "numbikesavailable": 24, "mechanical": 22, "ebike": 2, "is_renting": "OUI", "is_returning": "OUI", "duedate": "2024-06-14T14:49:17+00:00", "coordonnees_geo": {"lon": 2.35821794718504, "lat": 48.858256413365815}, "nom_arrondissement_communes": "Paris", "code_insee_commune": null}, {"stationcode": "4011", "name": "H\u00f4tel de Ville - Pont-Marie", "is_installed": "OUI", "capacity": 36, "numdocksavailable": 23, "numbikesavailable": 13, "mechanical": 6, "ebike": 7, "is_renting": "OUI", "is_returning": "OUI", "duedate": "2024-06-14T14:50:03+00:00", "coordonnees_geo": {"lon": 2.3569472506642, "lat": 48.853899645527}, "nom_arrondissement_communes": "Paris", "code_insee_commune": null}, {"stationcode": "45001", "name": "H\u00f4tel de Ville de Champigny sur Marne", "is_installed": "OUI", "capacity": 21, "numdocksavailable": 2, "numbikesavailable": 19, "mechanical": 11, "ebike": 8, "is_renting": "OUI", "is_returning": "OUI", "duedate": "2024-06-14T14:47:26+00:00", "coordonnees_geo": {"lon": 2.5096759200096, "lat": 48.813810628405}, "nom_arrondissement_communes": "Champigny-sur-Marne", "code_insee_commune": null}, {"stationcode": "31023", "name": "Place Fran\u00e7ois Mitterand", "is_installed": "OUI", "capacity": 34, "numdocksavailable": 29, "numbikesavailable": 5, "mechanical": 1, "ebike": 4, "is_renting": "OUI", "is_returning": "OUI", "duedate": "2024-06-14T14:41:57+00:00", "coordonnees_geo": {"lon": 2.442958317697048, "lat": 48.86492782016328}, "nom_arrondissement_communes": "Montreuil", "code_insee_commune": null}, {"stationcode": "9118", "name": "Faubourg Poissonniere - Delta", "is_installed": "OUI", "capacity": 36, "numdocksavailable": 34, "numbikesavailable": 1, "mechanical": 0, "ebike": 1, "is_renting": "OUI", "is_returning": "OUI", "duedate": "2024-06-14T14:43:35+00:00", "coordonnees_geo": {"lon": 2.3497482016682625, "lat": 48.882555807626765}, "nom_arrondissement_communes": "Paris", "code_insee_commune": null}, {"stationcode": "10163", "name": "Gare du Nord - Demarquay", "is_installed": "OUI", "capacity": 30, "numdocksavailable": 28, "numbikesavailable": 2, "mechanical": 1, "ebike": 1, "is_renting": "OUI", "is_returning": "OUI", "duedate": "2024-06-14T14:49:43+00:00", "coordonnees_geo": {"lon": 2.358411, "lat": 48.881154}, "nom_arrondissement_communes": "Paris", "code_insee_commune": null}, {"stationcode": "2001", "name": "Greneta - Sebastopol", "is_installed": "OUI", "capacity": 32, "numdocksavailable": 4, "numbikesavailable": 26, "mechanical": 19, "ebike": 7, "is_renting": "OUI", "is_returning": "OUI", "duedate": "2024-06-14T14:50:06+00:00", "coordonnees_geo": {"lon": 2.3516669869423, "lat": 48.865242333228}, "nom_arrondissement_communes": "Paris", "code_insee_commune": null}, {"stationcode": "7016", "name": "Surcouf - Universit\u00e9", "is_installed": "OUI", "capacity": 58, "numdocksavailable": 52, "numbikesavailable": 0, "mechanical": 0, "ebike": 0, "is_renting": "NON", "is_returning": "NON", "duedate": "2024-06-14T14:46:31+00:00", "coordonnees_geo": {"lon": 2.3094535509142, "lat": 48.861273016278}, "nom_arrondissement_communes": "Paris", "code_insee_commune": null}, {"stationcode": "20019", "name": "Place du Maquis du Vercors", "is_installed": "OUI", "capacity": 31, "numdocksavailable": 30, "numbikesavailable": 1, "mechanical": 1, "ebike": 0, "is_renting": "OUI", "is_returning": "OUI", "duedate": "2024-06-14T14:44:15+00:00", "coordonnees_geo": {"lon": 2.4083782732486725, "lat": 48.877321579493575}, "nom_arrondissement_communes": "Paris", "code_insee_commune": null}, {"stationcode": "13041", "name": "Porte d'Ivry", "is_installed": "OUI", "capacity": 50, "numdocksavailable": 41, "numbikesavailable": 7, "mechanical": 3, "ebike": 4, "is_renting": "OUI", "is_returning": "OUI", "duedate": "2024-06-14T14:45:15+00:00", "coordonnees_geo": {"lon": 2.3688706755638, "lat": 48.821768747596}, "nom_arrondissement_communes": "Paris", "code_insee_commune": null}, {"stationcode": "13010", "name": "Place d'Italie - Vincent Auriol", "is_installed": "OUI", "capacity": 40, "numdocksavailable": 30, "numbikesavailable": 8, "mechanical": 4, "ebike": 4, "is_renting": "OUI", "is_returning": "OUI", "duedate": "2024-06-14T14:49:22+00:00", "coordonnees_geo": {"lon": 2.3567550292319, "lat": 48.831481874467}, "nom_arrondissement_communes": "Paris", "code_insee_commune": null}, {"stationcode": "18001", "name": "Damr\u00e9mont - Caulaincourt", "is_installed": "OUI", "capacity": 18, "numdocksavailable": 16, "numbikesavailable": 2, "mechanical": 0, "ebike": 2, "is_renting": "OUI", "is_returning": "OUI", "duedate": "2024-06-14T14:46:15+00:00", "coordonnees_geo": {"lon": 2.3325880989432335, "lat": 48.88714509078738}, "nom_arrondissement_communes": "Paris", "code_insee_commune": null}, {"stationcode": "17016", "name": "Brochant - Square des Batignolles", "is_installed": "OUI", "capacity": 31, "numdocksavailable": 25, "numbikesavailable": 6, "mechanical": 3, "ebike": 3, "is_renting": "OUI", "is_returning": "OUI", "duedate": "2024-06-14T14:50:13+00:00", "coordonnees_geo": {"lon": 2.316861143151153, "lat": 48.88818698581028}, "nom_arrondissement_communes": "Paris", "code_insee_commune": null}, {"stationcode": "20202", "name": "Dupont de l'Eure - Gambetta", "is_installed": "OUI", "capacity": 31, "numdocksavailable": 29, "numbikesavailable": 2, "mechanical": 0, "ebike": 2, "is_renting": "OUI", "is_returning": "OUI", "duedate": "2024-06-14T14:50:05+00:00", "coordonnees_geo": {"lon": 2.4003649, "lat": 48.8679385}, "nom_arrondissement_communes": "Paris", "code_insee_commune": null}, {"stationcode": "5019", "name": "Poissy - Saint-Germain", "is_installed": "OUI", "capacity": 25, "numdocksavailable": 3, "numbikesavailable": 22, "mechanical": 21, "ebike": 1, "is_renting": "OUI", "is_returning": "OUI", "duedate": "2024-06-14T14:49:25+00:00", "coordonnees_geo": {"lon": 2.3529685288668, "lat": 48.84969649427}, "nom_arrondissement_communes": "Paris", "code_insee_commune": null}, {"stationcode": "11034", "name": "Parmentier - Fontaine au Roi", "is_installed": "OUI", "capacity": 48, "numdocksavailable": 36, "numbikesavailable": 12, "mechanical": 5, "ebike": 7, "is_renting": "OUI", "is_returning": "OUI", "duedate": "2024-06-14T14:50:04+00:00", "coordonnees_geo": {"lon": 2.372705978671471, "lat": 48.86787670551736}, "nom_arrondissement_communes": "Paris", "code_insee_commune": null}, {"stationcode": "9012", "name": "Rougemont - Poissonni\u00e8re", "is_installed": "OUI", "capacity": 30, "numdocksavailable": 5, "numbikesavailable": 25, "mechanical": 19, "ebike": 6, "is_renting": "OUI", "is_returning": "OUI", "duedate": "2024-06-14T14:42:45+00:00", "coordonnees_geo": {"lon": 2.345873080193996, "lat": 48.871611569354755}, "nom_arrondissement_communes": "Paris", "code_insee_commune": null}, {"stationcode": "15020", "name": "Mairie du 15\u00e8me", "is_installed": "OUI", "capacity": 32, "numdocksavailable": 21, "numbikesavailable": 10, "mechanical": 10, "ebike": 0, "is_renting": "OUI", "is_returning": "OUI", "duedate": "2024-06-14T14:48:53+00:00", "coordonnees_geo": {"lon": 2.2986539, "lat": 48.8417762}, "nom_arrondissement_communes": "Paris", "code_insee_commune": null}, {"stationcode": "41206", "name": "Place des Larris", "is_installed": "OUI", "capacity": 34, "numdocksavailable": 34, "numbikesavailable": 0, "mechanical": 0, "ebike": 0, "is_renting": "OUI", "is_returning": "OUI", "duedate": "2024-06-14T14:44:19+00:00", "coordonnees_geo": {"lon": 2.4780236, "lat": 48.8568363}, "nom_arrondissement_communes": "Fontenay-sous-Bois", "code_insee_commune": null}, {"stationcode": "13114", "name": "Nationale - Marcel Duchamp", "is_installed": "OUI", "capacity": 23, "numdocksavailable": 13, "numbikesavailable": 10, "mechanical": 8, "ebike": 2, "is_renting": "OUI", "is_returning": "OUI", "duedate": "2024-06-14T14:49:15+00:00", "coordonnees_geo": {"lon": 2.3678014799952507, "lat": 48.82463749337136}, "nom_arrondissement_communes": "Paris", "code_insee_commune": null}, {"stationcode": "23008", "name": "H\u00f4tel de Ville de Levallois Perret", "is_installed": "OUI", "capacity": 26, "numdocksavailable": 12, "numbikesavailable": 12, "mechanical": 4, "ebike": 8, "is_renting": "OUI", "is_returning": "OUI", "duedate": "2024-06-14T14:47:29+00:00", "coordonnees_geo": {"lon": 2.2888818383216862, "lat": 48.89314451997415}, "nom_arrondissement_communes": "Levallois-Perret", "code_insee_commune": null}, {"stationcode": "15063", "name": "Convention - Saint-Charles", "is_installed": "OUI", "capacity": 23, "numdocksavailable": 22, "numbikesavailable": 1, "mechanical": 0, "ebike": 1, "is_renting": "NON", "is_returning": "NON", "duedate": "2023-12-14T02:53:24+00:00", "coordonnees_geo": {"lon": 2.2831090539694, "lat": 48.843156111116}, "nom_arrondissement_communes": "Paris", "code_insee_commune": null}, {"stationcode": "8015", "name": "Roqu\u00e9pine - Malesherbes", "is_installed": "OUI", "capacity": 37, "numdocksavailable": 12, "numbikesavailable": 22, "mechanical": 19, "ebike": 3, "is_renting": "OUI", "is_returning": "OUI", "duedate": "2024-06-14T14:48:51+00:00", "coordonnees_geo": {"lon": 2.320404499769211, "lat": 48.87345073390807}, "nom_arrondissement_communes": "Paris", "code_insee_commune": null}, {"stationcode": "31018", "name": "Gambetta - Michelet", "is_installed": "OUI", "capacity": 33, "numdocksavailable": 28, "numbikesavailable": 4, "mechanical": 1, "ebike": 3, "is_renting": "OUI", "is_returning": "OUI", "duedate": "2024-06-14T14:49:07+00:00", "coordonnees_geo": {"lon": 2.429966032505036, "lat": 48.85273792380526}, "nom_arrondissement_communes": "Montreuil", "code_insee_commune": null}, {"stationcode": "47002", "name": "Les Juilliottes", "is_installed": "OUI", "capacity": 21, "numdocksavailable": 3, "numbikesavailable": 17, "mechanical": 15, "ebike": 2, "is_renting": "OUI", "is_returning": "OUI", "duedate": "2024-06-14T14:49:54+00:00", "coordonnees_geo": {"lon": 2.4437362, "lat": 48.8043072}, "nom_arrondissement_communes": "Maisons-Alfort", "code_insee_commune": null}, {"stationcode": "33005", "name": "R\u00e9publique - Henri Barbusse", "is_installed": "OUI", "capacity": 32, "numdocksavailable": 27, "numbikesavailable": 5, "mechanical": 4, "ebike": 1, "is_renting": "OUI", "is_returning": "OUI", "duedate": "2024-06-14T14:49:04+00:00", "coordonnees_geo": {"lon": 2.389432489871979, "lat": 48.90661553626751}, "nom_arrondissement_communes": "Aubervilliers", "code_insee_commune": null}, {"stationcode": "2110", "name": "Je\u00fbneurs - Mulhouse", "is_installed": "OUI", "capacity": 28, "numdocksavailable": 23, "numbikesavailable": 4, "mechanical": 1, "ebike": 3, "is_renting": "OUI", "is_returning": "OUI", "duedate": "2024-06-14T14:47:41+00:00", "coordonnees_geo": {"lon": 2.346925, "lat": 48.868997}, "nom_arrondissement_communes": "Paris", "code_insee_commune": null}, {"stationcode": "17033", "name": "Carnot - G\u00e9n\u00e9ral Lanrezac", "is_installed": "OUI", "capacity": 30, "numdocksavailable": 30, "numbikesavailable": 0, "mechanical": 0, "ebike": 0, "is_renting": "OUI", "is_returning": "OUI", "duedate": "2024-06-14T14:42:01+00:00", "coordonnees_geo": {"lon": 2.2938242935036, "lat": 48.875443870736}, "nom_arrondissement_communes": "Paris", "code_insee_commune": null}, {"stationcode": "14007", "name": "Ferrus - Saint-Jacques", "is_installed": "OUI", "capacity": 34, "numdocksavailable": 30, "numbikesavailable": 2, "mechanical": 0, "ebike": 2, "is_renting": "OUI", "is_returning": "OUI", "duedate": "2024-06-14T14:45:14+00:00", "coordonnees_geo": {"lon": 2.3408563, "lat": 48.8313878}, "nom_arrondissement_communes": "Paris", "code_insee_commune": null}, {"stationcode": "10164", "name": "Claude Vellefaux - Sambre et Meuse", "is_installed": "OUI", "capacity": 34, "numdocksavailable": 29, "numbikesavailable": 5, "mechanical": 2, "ebike": 3, "is_renting": "OUI", "is_returning": "OUI", "duedate": "2024-06-14T14:44:16+00:00", "coordonnees_geo": {"lon": 2.370478, "lat": 48.875022}, "nom_arrondissement_communes": "Paris", "code_insee_commune": null}, {"stationcode": "9113", "name": "Bleue - Tr\u00e9vise", "is_installed": "OUI", "capacity": 30, "numdocksavailable": 19, "numbikesavailable": 8, "mechanical": 8, "ebike": 0, "is_renting": "OUI", "is_returning": "OUI", "duedate": "2024-06-14T14:50:09+00:00", "coordonnees_geo": {"lon": 2.347289621829987, "lat": 48.87578906564573}, "nom_arrondissement_communes": "Paris", "code_insee_commune": null}, {"stationcode": "20103", "name": "Le Vau - Maurice Bertaux", "is_installed": "OUI", "capacity": 25, "numdocksavailable": 22, "numbikesavailable": 2, "mechanical": 0, "ebike": 2, "is_renting": "OUI", "is_returning": "OUI", "duedate": "2024-06-14T14:49:05+00:00", "coordonnees_geo": {"lon": 2.411030612453627, "lat": 48.86803439043193}, "nom_arrondissement_communes": "Paris", "code_insee_commune": null}, {"stationcode": "2014", "name": "Daunou - Louis le Grand", "is_installed": "OUI", "capacity": 17, "numdocksavailable": 10, "numbikesavailable": 7, "mechanical": 4, "ebike": 3, "is_renting": "OUI", "is_returning": "OUI", "duedate": "2024-06-14T14:47:42+00:00", "coordonnees_geo": {"lon": 2.332515, "lat": 48.869113}, "nom_arrondissement_communes": "Paris", "code_insee_commune": null}, {"stationcode": "4109", "name": "Mornay - Sully", "is_installed": "OUI", "capacity": 15, "numdocksavailable": 4, "numbikesavailable": 11, "mechanical": 7, "ebike": 4, "is_renting": "OUI", "is_returning": "OUI", "duedate": "2024-06-14T14:47:57+00:00", "coordonnees_geo": {"lon": 2.364460788667202, "lat": 48.84970399548416}, "nom_arrondissement_communes": "Paris", "code_insee_commune": null}, {"stationcode": "8105", "name": "Fran\u00e7ois 1er - Lincoln", "is_installed": "OUI", "capacity": 31, "numdocksavailable": 14, "numbikesavailable": 17, "mechanical": 5, "ebike": 12, "is_renting": "OUI", "is_returning": "OUI", "duedate": "2024-06-14T14:47:37+00:00", "coordonnees_geo": {"lon": 2.3024262188416, "lat": 48.869517979344}, "nom_arrondissement_communes": "Paris", "code_insee_commune": null}, {"stationcode": "11048", "name": "Place Mireille Havet", "is_installed": "OUI", "capacity": 43, "numdocksavailable": 6, "numbikesavailable": 37, "mechanical": 37, "ebike": 0, "is_renting": "OUI", "is_returning": "OUI", "duedate": "2024-06-14T14:49:59+00:00", "coordonnees_geo": {"lon": 2.383756, "lat": 48.850533}, "nom_arrondissement_communes": "Paris", "code_insee_commune": null}, {"stationcode": "21952", "name": "Place Tony de Graaff", "is_installed": "OUI", "capacity": 42, "numdocksavailable": 23, "numbikesavailable": 18, "mechanical": 17, "ebike": 1, "is_renting": "OUI", "is_returning": "OUI", "duedate": "2024-06-14T14:49:14+00:00", "coordonnees_geo": {"lon": 2.2458109, "lat": 48.8181645}, "nom_arrondissement_communes": "Meudon", "code_insee_commune": null}]