[{"stationcode": "14004", "name": "Port Royal - H\u00f4pital Cochin", "is_installed": "OUI", "capacity": 23, "numdocksavailable": 16, "numbikesavailable": 7, "mechanical": 0, "ebike": 7, "is_renting": "OUI", "is_returning": "OUI", "duedate": "2024-06-14T18:42:18+00:00", "coordonnees_geo": {"lon": 2.3406994164846, "lat": 48.838608030238}, "nom_arrondissement_communes": "Paris", "code_insee_commune": null}, {"stationcode": "14027", "name": "Gergovie - Al\u00e9sia", "is_installed": "OUI", "capacity": 36, "numdocksavailable": 28, "numbikesavailable": 7, "mechanical": 3, "ebike": 4, "is_renting": "OUI", "is_returning": "OUI", "duedate": "2024-06-14T18:47:42+00:00", "coordonnees_geo": {"lon": 2.318882101207347, "lat": 48.83088717455243}, "nom_arrondissement_communes": "Paris", "code_insee_commune": null}, {"stationcode": "42303", "name": "Place Eustache Deschamps", "is_installed": "OUI", "capacity": 20, "numdocksavailable": 2, "numbikesavailable": 18, "mechanical": 12, "ebike": 6, "is_renting": "OUI", "is_returning": "OUI", "duedate": "2024-06-14T18:50:02+00:00", "coordonnees_geo": {"lon": 2.336637, "lat": 48.793855}, "nom_arrondissement_communes": "Cachan", "code_insee_commune": null}, {"stationcode": "20012", "name": "Buzenval - Vignoles", "is_installed": "OUI", "capacity": 17, "numdocksavailable": 9, "numbikesavailable": 5, "mechanical": 4, "ebike": 1, "is_renting": "OUI", "is_returning": "OUI", "duedate": "2024-06-14T18:49:11+00:00", "coordonnees_geo": {"lon": 2.400004081428051, "lat": 48.85385817168762}, "nom_arrondissement_communes": "Paris", "code_insee_commune": null}, {"stationcode": "35013", "name": "Guillaume Tell - Parc Henri Barbusse", "is_installed": "OUI", "capacity": 20, "numdocksavailable": 13, "numbikesavailable": 7, "mechanical": 2, "ebike": 5, "is_renting": "OUI", "is_returning": "OUI", "duedate": "2024-06-14T18:48:17+00:00", "coordonnees_geo": {"lon": 2.4198862910270695, "lat": 48.88958925894009}, "nom_arrondissement_communes": "Pantin", "code_insee_commune": null}, {"stationcode": "20020", "name": "Pyr\u00e9n\u00e9es - Charles Renouvier", "is_installed": "OUI", "capacity": 29, "numdocksavailable": 22, "numbikesavailable": 7, "mechanical": 2, "ebike": 5, "is_renting": "OUI", "is_returning": "OUI", "duedate": "2024-06-14T18:50:08+00:00", "coordonnees_geo": {"lon": 2.400421852042113, "lat": 48.86095933229224}, "nom_arrondissement_communes": "Paris", "code_insee_commune": null}, {"stationcode": "12008", "name": "Hector Malot - Daumesnil", "is_installed": "OUI", "capacity": 54, "numdocksavailable": 0, "numbikesavailable": 54, "mechanical": 51, "ebike": 3, "is_renting": "OUI", "is_returning": "OUI", "duedate": "2024-06-14T18:49:47+00:00", "coordonnees_geo": {"lon": 2.3770876228809357, "lat": 48.84693552991762}, "nom_arrondissement_communes": "Paris", "code_insee_commune": null}, {"stationcode": "13120", "name": "Pierre Joseph Desault", "is_installed": "OUI", "capacity": 19, "numdocksavailable": 1, "numbikesavailable": 17, "mechanical": 16, "ebike": 1, "is_renting": "OUI", "is_returning": "OUI", "duedate": "2024-06-14T18:49:36+00:00", "coordonnees_geo": {"lon": 2.378775402903557, "lat": 48.82110230800372}, "nom_arrondissement_communes": "Paris", "code_insee_commune": null}, {"stationcode": "15024", "name": "Suffren - La Motte-Piquet", "is_installed": "OUI", "capacity": 23, "numdocksavailable": 15, "numbikesavailable": 6, "mechanical": 5, "ebike": 1, "is_renting": "OUI", "is_returning": "OUI", "duedate": "2024-06-14T18:50:08+00:00", "coordonnees_geo": {"lon": 2.3012199997902, "lat": 48.850881230919}, "nom_arrondissement_communes": "Paris", "code_insee_commune": null}, {"stationcode": "13036", "name": "Olympiades", "is_installed": "OUI", "capacity": 36, "numdocksavailable": 19, "numbikesavailable": 15, "mechanical": 5, "ebike": 10, "is_renting": "OUI", "is_returning": "OUI", "duedate": "2024-06-14T18:49:03+00:00", "coordonnees_geo": {"lon": 2.3650860786438, "lat": 48.826764665199}, "nom_arrondissement_communes": "Paris", "code_insee_commune": null}, {"stationcode": "14035", "name": "Maine - Jean Zay", "is_installed": "OUI", "capacity": 50, "numdocksavailable": 8, "numbikesavailable": 42, "mechanical": 16, "ebike": 26, "is_renting": "OUI", "is_returning": "OUI", "duedate": "2024-06-14T18:49:49+00:00", "coordonnees_geo": {"lon": 2.3225428909063, "lat": 48.837925263898}, "nom_arrondissement_communes": "Paris", "code_insee_commune": null}, {"stationcode": "16116", "name": "George Sand - Jean de La Fontaine", "is_installed": "OUI", "capacity": 29, "numdocksavailable": 5, "numbikesavailable": 24, "mechanical": 23, "ebike": 1, "is_renting": "OUI", "is_returning": "OUI", "duedate": "2024-06-14T18:47:58+00:00", "coordonnees_geo": {"lon": 2.268257387525699, "lat": 48.84986918764119}, "nom_arrondissement_communes": "Paris", "code_insee_commune": null}, {"stationcode": "25004", "name": "Marcel Pourtout - \u00c9douard Manet", "is_installed": "OUI", "capacity": 24, "numdocksavailable": 7, "numbikesavailable": 17, "mechanical": 15, "ebike": 2, "is_renting": "OUI", "is_returning": "OUI", "duedate": "2024-06-14T18:50:28+00:00", "coordonnees_geo": {"lon": 2.1655967831611638, "lat": 48.87555620763429}, "nom_arrondissement_communes": "Rueil-Malmaison", "code_insee_commune": null}, {"stationcode": "12022", "name": "Sahel - G\u00e9n\u00e9ral Michel Bizot", "is_installed": "OUI", "capacity": 33, "numdocksavailable": 19, "numbikesavailable": 14, "mechanical": 9, "ebike": 5, "is_renting": "OUI", "is_returning": "OUI", "duedate": "2024-06-14T18:47:54+00:00", "coordonnees_geo": {"lon": 2.4044444784522057, "lat": 48.840872964793355}, "nom_arrondissement_communes": "Paris", "code_insee_commune": null}, {"stationcode": "21023", "name": "Ancienne Mairie - Andr\u00e9 Morizet", "is_installed": "OUI", "capacity": 25, "numdocksavailable": 12, "numbikesavailable": 13, "mechanical": 8, "ebike": 5, "is_renting": "OUI", "is_returning": "OUI", "duedate": "2024-06-14T18:46:18+00:00", "coordonnees_geo": {"lon": 2.234077, "lat": 48.838311}, "nom_arrondissement_communes": "Boulogne-Billancourt", "code_insee_commune": null}, {"stationcode": "31105", "name": "Lavoisier - Missak Manouchian", "is_installed": "OUI", "capacity": 18, "numdocksavailable": 9, "numbikesavailable": 7, "mechanical": 5, "ebike": 2, "is_renting": "OUI", "is_returning": "OUI", "duedate": "2024-06-14T18:40:31+00:00", "coordonnees_geo": {"lon": 2.495676465332508, "lat": 48.86286468896063}, "nom_arrondissement_communes": "Rosny-sous-Bois", "code_insee_commune": null}, {"stationcode": "5033", "name": "Saint-S\u00e9verin - Saint-Michel", "is_installed": "OUI", "capacity": 30, "numdocksavailable": 5, "numbikesavailable": 24, "mechanical": 19, "ebike": 5, "is_renting": "OUI", "is_returning": "OUI", "duedate": "2024-06-14T18:50:09+00:00", "coordonnees_geo": {"lon": 2.3440927639604, "lat": 48.852731305488}, "nom_arrondissement_communes": "Paris", "code_insee_commune": null}, {"stationcode": "42205", "name": "Place Aristide Briand", "is_installed": "OUI", "capacity": 35, "numdocksavailable": 10, "numbikesavailable": 25, "mechanical": 18, "ebike": 7, "is_renting": "OUI", "is_returning": "OUI", "duedate": "2024-06-14T18:48:31+00:00", "coordonnees_geo": {"lon": 2.413003742694855, "lat": 48.82189236575831}, "nom_arrondissement_communes": "Charenton-le-Pont", "code_insee_commune": null}, {"stationcode": "30004", "name": "Jean Jaur\u00e8s - Place de la Lib\u00e9ration", "is_installed": "OUI", "capacity": 30, "numdocksavailable": 5, "numbikesavailable": 23, "mechanical": 10, "ebike": 13, "is_renting": "OUI", "is_returning": "OUI", "duedate": "2024-06-14T18:46:59+00:00", "coordonnees_geo": {"lon": 2.4391458057475, "lat": 48.90617751921}, "nom_arrondissement_communes": "Bobigny", "code_insee_commune": null}, {"stationcode": "43004", "name": "Montreuil - R\u00e9publique", "is_installed": "OUI", "capacity": 25, "numdocksavailable": 22, "numbikesavailable": 3, "mechanical": 0, "ebike": 3, "is_renting": "OUI", "is_returning": "OUI", "duedate": "2024-06-14T18:49:05+00:00", "coordonnees_geo": {"lon": 2.4345204234123234, "lat": 48.85026349463687}, "nom_arrondissement_communes": "Vincennes", "code_insee_commune": null}, {"stationcode": "17110", "name": "Legendre - Nollet", "is_installed": "OUI", "capacity": 30, "numdocksavailable": 29, "numbikesavailable": 1, "mechanical": 0, "ebike": 1, "is_renting": "OUI", "is_returning": "OUI", "duedate": "2024-06-14T18:45:23+00:00", "coordonnees_geo": {"lon": 2.320293079881375, "lat": 48.887742186754224}, "nom_arrondissement_communes": "Paris", "code_insee_commune": null}, {"stationcode": "22404", "name": "Pierre Brossolette - 12 F\u00e9vrier 1934", "is_installed": "OUI", "capacity": 25, "numdocksavailable": 22, "numbikesavailable": 3, "mechanical": 0, "ebike": 3, "is_renting": "OUI", "is_returning": "OUI", "duedate": "2024-06-14T18:46:27+00:00", "coordonnees_geo": {"lon": 2.3076123744249344, "lat": 48.8176962416867}, "nom_arrondissement_communes": "Malakoff", "code_insee_commune": null}, {"stationcode": "20014", "name": "Charonne - Alexandre Dumas", "is_installed": "OUI", "capacity": 35, "numdocksavailable": 26, "numbikesavailable": 9, "mechanical": 3, "ebike": 6, "is_renting": "OUI", "is_returning": "OUI", "duedate": "2024-06-14T18:49:27+00:00", "coordonnees_geo": {"lon": 2.3948693275452, "lat": 48.856077415056}, "nom_arrondissement_communes": "Paris", "code_insee_commune": null}, {"stationcode": "17006", "name": "Guy M\u00f4quet - Compoint", "is_installed": "OUI", "capacity": 36, "numdocksavailable": 29, "numbikesavailable": 7, "mechanical": 4, "ebike": 3, "is_renting": "OUI", "is_returning": "OUI", "duedate": "2024-06-14T18:49:08+00:00", "coordonnees_geo": {"lon": 2.32321947813034, "lat": 48.89213559044868}, "nom_arrondissement_communes": "Paris", "code_insee_commune": null}, {"stationcode": "18101", "name": "Championnet.", "is_installed": "OUI", "capacity": 22, "numdocksavailable": 16, "numbikesavailable": 5, "mechanical": 2, "ebike": 3, "is_renting": "OUI", "is_returning": "OUI", "duedate": "2024-06-14T18:45:11+00:00", "coordonnees_geo": {"lon": 2.3498166, "lat": 48.8953643}, "nom_arrondissement_communes": "Paris", "code_insee_commune": null}, {"stationcode": "20005", "name": "Reynaldo Hahn - Lagny", "is_installed": "OUI", "capacity": 19, "numdocksavailable": 9, "numbikesavailable": 9, "mechanical": 5, "ebike": 4, "is_renting": "OUI", "is_returning": "OUI", "duedate": "2024-06-14T18:47:03+00:00", "coordonnees_geo": {"lon": 2.412330328844772, "lat": 48.849266043601794}, "nom_arrondissement_communes": "Paris", "code_insee_commune": null}, {"stationcode": "15120", "name": "Colonel Pierre Avia", "is_installed": "OUI", "capacity": 29, "numdocksavailable": 13, "numbikesavailable": 15, "mechanical": 12, "ebike": 3, "is_renting": "OUI", "is_returning": "OUI", "duedate": "2024-06-14T18:49:10+00:00", "coordonnees_geo": {"lon": 2.275342586850291, "lat": 48.8296843300915}, "nom_arrondissement_communes": "Paris", "code_insee_commune": null}, {"stationcode": "16033", "name": "March\u00e9 d'Auteuil", "is_installed": "OUI", "capacity": 32, "numdocksavailable": 23, "numbikesavailable": 8, "mechanical": 5, "ebike": 3, "is_renting": "OUI", "is_returning": "OUI", "duedate": "2024-06-14T18:46:00+00:00", "coordonnees_geo": {"lon": 2.265253821160005, "lat": 48.84842761367387}, "nom_arrondissement_communes": "Paris", "code_insee_commune": null}, {"stationcode": "21205", "name": "Arthur Auger - Jean Jaur\u00e8s", "is_installed": "OUI", "capacity": 26, "numdocksavailable": 24, "numbikesavailable": 1, "mechanical": 0, "ebike": 1, "is_renting": "OUI", "is_returning": "OUI", "duedate": "2024-06-14T18:46:29+00:00", "coordonnees_geo": {"lon": 2.3069277405738835, "lat": 48.813736445585235}, "nom_arrondissement_communes": "Montrouge", "code_insee_commune": null}, {"stationcode": "16023", "name": "Passy - Place du Costa Rica", "is_installed": "OUI", "capacity": 33, "numdocksavailable": 27, "numbikesavailable": 4, "mechanical": 2, "ebike": 2, "is_renting": "OUI", "is_returning": "OUI", "duedate": "2024-06-14T18:47:20+00:00", "coordonnees_geo": {"lon": 2.2839655, "lat": 48.8584893}, "nom_arrondissement_communes": "Paris", "code_insee_commune": null}, {"stationcode": "24007", "name": "Jean-Baptiste Charcot - Sainte-Genevi\u00e8ve", "is_installed": "OUI", "capacity": 21, "numdocksavailable": 10, "numbikesavailable": 9, "mechanical": 6, "ebike": 3, "is_renting": "OUI", "is_returning": "OUI", "duedate": "2024-06-14T18:44:00+00:00", "coordonnees_geo": {"lon": 2.278892956674099, "lat": 48.90310883721567}, "nom_arrondissement_communes": "Courbevoie", "code_insee_commune": null}, {"stationcode": "6004", "name": "Regard - Rennes", "is_installed": "OUI", "capacity": 46, "numdocksavailable": 21, "numbikesavailable": 23, "mechanical": 22, "ebike": 1, "is_renting": "OUI", "is_returning": "OUI", "duedate": "2024-06-14T18:48:51+00:00", "coordonnees_geo": {"lon": 2.3268555477262, "lat": 48.847385404956}, "nom_arrondissement_communes": "Paris", "code_insee_commune": null}, {"stationcode": "19014", "name": "Lorraine - Jean Jaur\u00e8s", "is_installed": "OUI", "capacity": 19, "numdocksavailable": 3, "numbikesavailable": 15, "mechanical": 10, "ebike": 5, "is_renting": "OUI", "is_returning": "OUI", "duedate": "2024-06-14T18:50:21+00:00", "coordonnees_geo": {"lon": 2.3825772, "lat": 48.8863865}, "nom_arrondissement_communes": "Paris", "code_insee_commune": null}, {"stationcode": "15014", "name": "Volontaires - Vaugirard", "is_installed": "OUI", "capacity": 34, "numdocksavailable": 21, "numbikesavailable": 11, "mechanical": 5, "ebike": 6, "is_renting": "OUI", "is_returning": "OUI", "duedate": "2024-06-14T18:49:51+00:00", "coordonnees_geo": {"lon": 2.30808901725357, "lat": 48.84132050184004}, "nom_arrondissement_communes": "Paris", "code_insee_commune": null}, {"stationcode": "11028", "name": "Guillaume Bertrand - R\u00e9publique", "is_installed": "OUI", "capacity": 38, "numdocksavailable": 27, "numbikesavailable": 8, "mechanical": 1, "ebike": 7, "is_renting": "OUI", "is_returning": "OUI", "duedate": "2024-06-14T18:48:23+00:00", "coordonnees_geo": {"lon": 2.380906377155, "lat": 48.863825174341}, "nom_arrondissement_communes": "Paris", "code_insee_commune": null}, {"stationcode": "22014", "name": "Victor Hugo - Bineau", "is_installed": "OUI", "capacity": 25, "numdocksavailable": 14, "numbikesavailable": 10, "mechanical": 7, "ebike": 3, "is_renting": "OUI", "is_returning": "OUI", "duedate": "2024-06-14T18:48:26+00:00", "coordonnees_geo": {"lon": 2.2783890366554265, "lat": 48.88758225888669}, "nom_arrondissement_communes": "Neuilly-sur-Seine", "code_insee_commune": null}, {"stationcode": "15113", "name": "Arsonval - Falgui\u00e8re", "is_installed": "OUI", "capacity": 25, "numdocksavailable": 21, "numbikesavailable": 4, "mechanical": 0, "ebike": 4, "is_renting": "OUI", "is_returning": "OUI", "duedate": "2024-06-14T18:49:09+00:00", "coordonnees_geo": {"lon": 2.313117867297474, "lat": 48.84040040365445}, "nom_arrondissement_communes": "Paris", "code_insee_commune": null}, {"stationcode": "16022", "name": "Jean Bologne - Passy", "is_installed": "OUI", "capacity": 19, "numdocksavailable": 14, "numbikesavailable": 5, "mechanical": 2, "ebike": 3, "is_renting": "OUI", "is_returning": "OUI", "duedate": "2024-06-14T18:49:01+00:00", "coordonnees_geo": {"lon": 2.280027395306772, "lat": 48.857566889784465}, "nom_arrondissement_communes": "Paris", "code_insee_commune": null}, {"stationcode": "20011", "name": "Pyr\u00e9n\u00e9es - Dagorno", "is_installed": "OUI", "capacity": 20, "numdocksavailable": 14, "numbikesavailable": 6, "mechanical": 1, "ebike": 5, "is_renting": "OUI", "is_returning": "OUI", "duedate": "2024-06-14T18:50:30+00:00", "coordonnees_geo": {"lon": 2.4051643162965775, "lat": 48.855425770695085}, "nom_arrondissement_communes": "Paris", "code_insee_commune": null}, {"stationcode": "6020", "name": "Place Saint-Andr\u00e9 des Arts", "is_installed": "OUI", "capacity": 37, "numdocksavailable": 5, "numbikesavailable": 31, "mechanical": 26, "ebike": 5, "is_renting": "OUI", "is_returning": "OUI", "duedate": "2024-06-14T18:50:15+00:00", "coordonnees_geo": {"lon": 2.3426544293761, "lat": 48.852886173881}, "nom_arrondissement_communes": "Paris", "code_insee_commune": null}, {"stationcode": "21016", "name": "Point du Jour - Jean Jaur\u00e8s", "is_installed": "OUI", "capacity": 40, "numdocksavailable": 19, "numbikesavailable": 20, "mechanical": 17, "ebike": 3, "is_renting": "OUI", "is_returning": "OUI", "duedate": "2024-06-14T18:45:38+00:00", "coordonnees_geo": {"lon": 2.245911467014621, "lat": 48.828753141436465}, "nom_arrondissement_communes": "Boulogne-Billancourt", "code_insee_commune": null}, {"stationcode": "5105", "name": "Geoffroy-Saint-Hilaire - Saint-Marcel", "is_installed": "OUI", "capacity": 17, "numdocksavailable": 3, "numbikesavailable": 14, "mechanical": 10, "ebike": 4, "is_renting": "OUI", "is_returning": "OUI", "duedate": "2024-06-14T18:46:47+00:00", "coordonnees_geo": {"lon": 2.356877340669728, "lat": 48.83907826424974}, "nom_arrondissement_communes": "Paris", "code_insee_commune": null}, {"stationcode": "11018", "name": "Saint-Maur - R\u00e9publique", "is_installed": "OUI", "capacity": 38, "numdocksavailable": 8, "numbikesavailable": 27, "mechanical": 19, "ebike": 8, "is_renting": "OUI", "is_returning": "OUI", "duedate": "2024-06-14T18:50:09+00:00", "coordonnees_geo": {"lon": 2.3783174157143, "lat": 48.864185861455}, "nom_arrondissement_communes": "Paris", "code_insee_commune": null}, {"stationcode": "13013", "name": "Saint-Marcel - H\u00f4pital", "is_installed": "OUI", "capacity": 21, "numdocksavailable": 0, "numbikesavailable": 20, "mechanical": 14, "ebike": 6, "is_renting": "OUI", "is_returning": "OUI", "duedate": "2024-06-14T18:46:11+00:00", "coordonnees_geo": {"lon": 2.360989417022932, "lat": 48.83950442458303}, "nom_arrondissement_communes": "Paris", "code_insee_commune": null}, {"stationcode": "19123", "name": "Metz - Marne", "is_installed": "OUI", "capacity": 33, "numdocksavailable": 5, "numbikesavailable": 27, "mechanical": 14, "ebike": 13, "is_renting": "OUI", "is_returning": "OUI", "duedate": "2024-06-14T18:49:35+00:00", "coordonnees_geo": {"lon": 2.3865705, "lat": 48.891163}, "nom_arrondissement_communes": "Paris", "code_insee_commune": null}, {"stationcode": "21107", "name": "Bertrand Sincholle - Henri Barbusse", "is_installed": "OUI", "capacity": 23, "numdocksavailable": 15, "numbikesavailable": 7, "mechanical": 6, "ebike": 1, "is_renting": "OUI", "is_returning": "OUI", "duedate": "2024-06-14T18:50:01+00:00", "coordonnees_geo": {"lon": 2.3042294383049016, "lat": 48.89925982394349}, "nom_arrondissement_communes": "Clichy", "code_insee_commune": null}, {"stationcode": "12017", "name": "Saint-Mand\u00e9 - Docteur Arnold Netter", "is_installed": "OUI", "capacity": 39, "numdocksavailable": 36, "numbikesavailable": 2, "mechanical": 1, "ebike": 1, "is_renting": "OUI", "is_returning": "OUI", "duedate": "2024-06-14T18:48:07+00:00", "coordonnees_geo": {"lon": 2.404946386814118, "lat": 48.84462585769668}, "nom_arrondissement_communes": "Paris", "code_insee_commune": null}, {"stationcode": "6009", "name": "Guynemer - Jardin du Luxembourg", "is_installed": "OUI", "capacity": 36, "numdocksavailable": 30, "numbikesavailable": 5, "mechanical": 4, "ebike": 1, "is_renting": "OUI", "is_returning": "OUI", "duedate": "2024-06-14T18:49:25+00:00", "coordonnees_geo": {"lon": 2.3325478, "lat": 48.8466127}, "nom_arrondissement_communes": "Paris", "code_insee_commune": null}, {"stationcode": "42027", "name": "Verdun - Pierre et Marie Curie", "is_installed": "OUI", "capacity": 26, "numdocksavailable": 22, "numbikesavailable": 4, "mechanical": 2, "ebike": 2, "is_renting": "OUI", "is_returning": "OUI", "duedate": "2024-06-14T18:49:57+00:00", "coordonnees_geo": {"lon": 2.3707106709480286, "lat": 48.812822398263286}, "nom_arrondissement_communes": "Ivry-sur-Seine", "code_insee_commune": null}, {"stationcode": "16104", "name": "Paul Valery - Victor Hugo", "is_installed": "OUI", "capacity": 35, "numdocksavailable": 35, "numbikesavailable": 0, "mechanical": 0, "ebike": 0, "is_renting": "OUI", "is_returning": "OUI", "duedate": "2024-06-14T18:40:44+00:00", "coordonnees_geo": {"lon": 2.2887128591537476, "lat": 48.87137406080164}, "nom_arrondissement_communes": "Paris", "code_insee_commune": null}, {"stationcode": "20033", "name": "Etienne Dolet - Place Maurice Chevalier", "is_installed": "OUI", "capacity": 33, "numdocksavailable": 10, "numbikesavailable": 23, "mechanical": 5, "ebike": 18, "is_renting": "OUI", "is_returning": "OUI", "duedate": "2024-06-14T18:50:20+00:00", "coordonnees_geo": {"lon": 2.3851405311143026, "lat": 48.86798303359366}, "nom_arrondissement_communes": "Paris", "code_insee_commune": null}, {"stationcode": "11040", "name": "Temple - Jean-Pierre Timbaud", "is_installed": "OUI", "capacity": 36, "numdocksavailable": 0, "numbikesavailable": 34, "mechanical": 33, "ebike": 1, "is_renting": "OUI", "is_returning": "OUI", "duedate": "2024-06-14T18:49:15+00:00", "coordonnees_geo": {"lon": 2.3660597205162, "lat": 48.86446597201}, "nom_arrondissement_communes": "Paris", "code_insee_commune": null}, {"stationcode": "30007", "name": "Pablo Picasso - Maurice Thorez", "is_installed": "NON", "capacity": 0, "numdocksavailable": 0, "numbikesavailable": 0, "mechanical": 0, "ebike": 0, "is_renting": "NON", "is_returning": "NON", "duedate": "2024-06-14T18:50:02+00:00", "coordonnees_geo": {"lon": 2.4489325365198, "lat": 48.906887812943}, "nom_arrondissement_communes": "Bobigny", "code_insee_commune": null}, {"stationcode": "51007", "name": "R\u00e9sistance - Romain Rolland", "is_installed": "OUI", "capacity": 28, "numdocksavailable": 17, "numbikesavailable": 11, "mechanical": 8, "ebike": 3, "is_renting": "OUI", "is_returning": "OUI", "duedate": "2024-06-14T18:41:28+00:00", "coordonnees_geo": {"lon": 2.2310190077797, "lat": 48.950873482371}, "nom_arrondissement_communes": "Argenteuil", "code_insee_commune": null}, {"stationcode": "17036", "name": "Place Tristan Bernard", "is_installed": "OUI", "capacity": 28, "numdocksavailable": 24, "numbikesavailable": 1, "mechanical": 1, "ebike": 0, "is_renting": "OUI", "is_returning": "OUI", "duedate": "2024-06-14T18:46:29+00:00", "coordonnees_geo": {"lon": 2.2915423, "lat": 48.8794936}, "nom_arrondissement_communes": "Paris", "code_insee_commune": null}, {"stationcode": "11038", "name": "Temple - Charlot", "is_installed": "OUI", "capacity": 45, "numdocksavailable": 1, "numbikesavailable": 42, "mechanical": 38, "ebike": 4, "is_renting": "OUI", "is_returning": "OUI", "duedate": "2024-06-14T18:47:40+00:00", "coordonnees_geo": {"lon": 2.3652737250724, "lat": 48.865709343796}, "nom_arrondissement_communes": "Paris", "code_insee_commune": null}, {"stationcode": "21033", "name": "S\u00e8vres - Mar\u00e9chal Juin", "is_installed": "OUI", "capacity": 18, "numdocksavailable": 10, "numbikesavailable": 7, "mechanical": 5, "ebike": 2, "is_renting": "OUI", "is_returning": "OUI", "duedate": "2024-06-14T18:43:23+00:00", "coordonnees_geo": {"lon": 2.2292812, "lat": 48.8324305}, "nom_arrondissement_communes": "Boulogne-Billancourt", "code_insee_commune": null}, {"stationcode": "21112", "name": "Claude Debussy - Marc Bloch", "is_installed": "OUI", "capacity": 56, "numdocksavailable": 2, "numbikesavailable": 53, "mechanical": 38, "ebike": 15, "is_renting": "OUI", "is_returning": "OUI", "duedate": "2024-06-14T18:50:29+00:00", "coordonnees_geo": {"lon": 2.3117771744728, "lat": 48.910388180512}, "nom_arrondissement_communes": "Clichy", "code_insee_commune": null}, {"stationcode": "22703", "name": "Place Jean Mermoz", "is_installed": "OUI", "capacity": 30, "numdocksavailable": 6, "numbikesavailable": 23, "mechanical": 15, "ebike": 8, "is_renting": "OUI", "is_returning": "OUI", "duedate": "2024-06-14T18:49:26+00:00", "coordonnees_geo": {"lon": 2.2718348, "lat": 48.9220937}, "nom_arrondissement_communes": "Bois-Colombes", "code_insee_commune": null}, {"stationcode": "25009", "name": "Place des Arts - Jean Mermoz", "is_installed": "OUI", "capacity": 20, "numdocksavailable": 11, "numbikesavailable": 8, "mechanical": 4, "ebike": 4, "is_renting": "OUI", "is_returning": "OUI", "duedate": "2024-06-14T18:50:14+00:00", "coordonnees_geo": {"lon": 2.1832160452221, "lat": 48.880391139734}, "nom_arrondissement_communes": "Rueil-Malmaison", "code_insee_commune": null}, {"stationcode": "10028", "name": "Gare du Nord - Dunkerque", "is_installed": "OUI", "capacity": 29, "numdocksavailable": 17, "numbikesavailable": 12, "mechanical": 4, "ebike": 8, "is_renting": "OUI", "is_returning": "OUI", "duedate": "2024-06-14T18:49:58+00:00", "coordonnees_geo": {"lon": 2.3527636751533, "lat": 48.880423508429}, "nom_arrondissement_communes": "Paris", "code_insee_commune": null}, {"stationcode": "41101", "name": "Paul Doumer - Stalingrad", "is_installed": "OUI", "capacity": 24, "numdocksavailable": 14, "numbikesavailable": 10, "mechanical": 6, "ebike": 4, "is_renting": "OUI", "is_returning": "OUI", "duedate": "2024-06-14T18:50:12+00:00", "coordonnees_geo": {"lon": 2.3368880152702, "lat": 48.806518992199}, "nom_arrondissement_communes": "Arcueil", "code_insee_commune": null}, {"stationcode": "20030", "name": "M\u00e9nilmontant - P\u00e8re Lachaise", "is_installed": "OUI", "capacity": 41, "numdocksavailable": 5, "numbikesavailable": 32, "mechanical": 8, "ebike": 24, "is_renting": "OUI", "is_returning": "OUI", "duedate": "2024-06-14T18:50:14+00:00", "coordonnees_geo": {"lon": 2.3869940266013, "lat": 48.863287291502}, "nom_arrondissement_communes": "Paris", "code_insee_commune": null}, {"stationcode": "7007", "name": "Mus\u00e9e d'Orsay", "is_installed": "OUI", "capacity": 65, "numdocksavailable": 59, "numbikesavailable": 5, "mechanical": 3, "ebike": 2, "is_renting": "OUI", "is_returning": "OUI", "duedate": "2024-06-14T18:44:06+00:00", "coordonnees_geo": {"lon": 2.325860448181629, "lat": 48.85972615790874}, "nom_arrondissement_communes": "Paris", "code_insee_commune": null}, {"stationcode": "3201", "name": "Payenne - Square George Ca\u00efn", "is_installed": "OUI", "capacity": 24, "numdocksavailable": 2, "numbikesavailable": 21, "mechanical": 16, "ebike": 5, "is_renting": "OUI", "is_returning": "OUI", "duedate": "2024-06-14T18:49:32+00:00", "coordonnees_geo": {"lon": 2.3622643, "lat": 48.8578329}, "nom_arrondissement_communes": "Paris", "code_insee_commune": null}, {"stationcode": "26010", "name": "Louis Armand - Bernard Palissy", "is_installed": "NON", "capacity": 0, "numdocksavailable": 0, "numbikesavailable": 0, "mechanical": 0, "ebike": 0, "is_renting": "NON", "is_returning": "NON", "duedate": "2024-05-31T15:07:53+00:00", "coordonnees_geo": {"lon": 2.3126153582229, "lat": 48.91690215253}, "nom_arrondissement_communes": "Asni\u00e8res-sur-Seine", "code_insee_commune": null}, {"stationcode": "21508", "name": "Georges Pompidou - Verdun", "is_installed": "OUI", "capacity": 26, "numdocksavailable": 10, "numbikesavailable": 16, "mechanical": 4, "ebike": 12, "is_renting": "OUI", "is_returning": "OUI", "duedate": "2024-06-14T18:48:51+00:00", "coordonnees_geo": {"lon": 2.232443, "lat": 48.875481}, "nom_arrondissement_communes": "Suresnes", "code_insee_commune": null}, {"stationcode": "15032", "name": "F\u00e9lix Faure - Lourmel", "is_installed": "OUI", "capacity": 58, "numdocksavailable": 35, "numbikesavailable": 23, "mechanical": 22, "ebike": 1, "is_renting": "OUI", "is_returning": "OUI", "duedate": "2024-06-14T18:49:49+00:00", "coordonnees_geo": {"lon": 2.2818081825971603, "lat": 48.83868901709515}, "nom_arrondissement_communes": "Paris", "code_insee_commune": null}, {"stationcode": "20037", "name": "Gambetta - Saint Fargeau", "is_installed": "OUI", "capacity": 24, "numdocksavailable": 20, "numbikesavailable": 4, "mechanical": 2, "ebike": 2, "is_renting": "OUI", "is_returning": "OUI", "duedate": "2024-06-14T18:49:40+00:00", "coordonnees_geo": {"lon": 2.4039056897163396, "lat": 48.871244610447015}, "nom_arrondissement_communes": "Paris", "code_insee_commune": null}, {"stationcode": "23106", "name": "Pav\u00e9 des Gardes - Charles Vaillant", "is_installed": "OUI", "capacity": 20, "numdocksavailable": 20, "numbikesavailable": 0, "mechanical": 0, "ebike": 0, "is_renting": "OUI", "is_returning": "OUI", "duedate": "2024-06-14T18:49:26+00:00", "coordonnees_geo": {"lon": 2.2111820107205, "lat": 48.81168551728}, "nom_arrondissement_communes": "S\u00e8vres", "code_insee_commune": null}, {"stationcode": "22302", "name": "Gare RER - G\u00e9n\u00e9ral de Gaulle", "is_installed": "OUI", "capacity": 41, "numdocksavailable": 30, "numbikesavailable": 8, "mechanical": 2, "ebike": 6, "is_renting": "OUI", "is_returning": "OUI", "duedate": "2024-06-14T18:43:49+00:00", "coordonnees_geo": {"lon": 2.3064726536317, "lat": 48.933548439566}, "nom_arrondissement_communes": "Gennevilliers", "code_insee_commune": null}, {"stationcode": "9029", "name": "Saint-Lazare - Place d'Estienne d'Orves", "is_installed": "OUI", "capacity": 39, "numdocksavailable": 25, "numbikesavailable": 14, "mechanical": 10, "ebike": 4, "is_renting": "OUI", "is_returning": "OUI", "duedate": "2024-06-14T18:47:40+00:00", "coordonnees_geo": {"lon": 2.3329067, "lat": 48.8768345}, "nom_arrondissement_communes": "Paris", "code_insee_commune": null}, {"stationcode": "48011", "name": "Epi d'Or - Chevilly", "is_installed": "OUI", "capacity": 20, "numdocksavailable": 20, "numbikesavailable": 0, "mechanical": 0, "ebike": 0, "is_renting": "OUI", "is_returning": "OUI", "duedate": "2024-06-14T18:44:55+00:00", "coordonnees_geo": {"lon": 2.3549050362061, "lat": 48.781109786782}, "nom_arrondissement_communes": "Villejuif", "code_insee_commune": null}, {"stationcode": "41304", "name": "Port - Maurice Chevalier", "is_installed": "OUI", "capacity": 30, "numdocksavailable": 3, "numbikesavailable": 25, "mechanical": 22, "ebike": 3, "is_renting": "OUI", "is_returning": "OUI", "duedate": "2024-06-14T18:46:49+00:00", "coordonnees_geo": {"lon": 2.490257616467, "lat": 48.832474421632}, "nom_arrondissement_communes": "Nogent-sur-Marne", "code_insee_commune": null}, {"stationcode": "21327", "name": "Jean Bouin - Gouverneur G\u00e9n\u00e9ral Ebou\u00e9", "is_installed": "OUI", "capacity": 31, "numdocksavailable": 11, "numbikesavailable": 19, "mechanical": 17, "ebike": 2, "is_renting": "OUI", "is_returning": "OUI", "duedate": "2024-06-14T18:50:08+00:00", "coordonnees_geo": {"lon": 2.2651904328524, "lat": 48.824792734266}, "nom_arrondissement_communes": "Issy-les-Moulineaux", "code_insee_commune": null}, {"stationcode": "22208", "name": "Stalingrad - Barbara", "is_installed": "OUI", "capacity": 20, "numdocksavailable": 19, "numbikesavailable": 1, "mechanical": 0, "ebike": 1, "is_renting": "OUI", "is_returning": "OUI", "duedate": "2024-06-14T18:50:07+00:00", "coordonnees_geo": {"lon": 2.3175904558822, "lat": 48.809223658808}, "nom_arrondissement_communes": "Bagneux", "code_insee_commune": null}, {"stationcode": "18203", "name": "Lamarck - Saint-Ouen", "is_installed": "OUI", "capacity": 40, "numdocksavailable": 40, "numbikesavailable": 0, "mechanical": 0, "ebike": 0, "is_renting": "NON", "is_returning": "NON", "duedate": "2024-06-14T18:50:18+00:00", "coordonnees_geo": {"lon": 2.3272445342326, "lat": 48.891334555236}, "nom_arrondissement_communes": "Paris", "code_insee_commune": null}, {"stationcode": "35021", "name": "Cartier Bresson - Denis Papin", "is_installed": "OUI", "capacity": 32, "numdocksavailable": 23, "numbikesavailable": 6, "mechanical": 3, "ebike": 3, "is_renting": "OUI", "is_returning": "OUI", "duedate": "2024-06-14T18:49:37+00:00", "coordonnees_geo": {"lon": 2.397814, "lat": 48.902616}, "nom_arrondissement_communes": "Pantin", "code_insee_commune": null}, {"stationcode": "18045", "name": "Pierre Ginier - Clichy", "is_installed": "OUI", "capacity": 16, "numdocksavailable": 6, "numbikesavailable": 9, "mechanical": 0, "ebike": 9, "is_renting": "OUI", "is_returning": "OUI", "duedate": "2024-06-14T18:46:48+00:00", "coordonnees_geo": {"lon": 2.326228, "lat": 48.8867667}, "nom_arrondissement_communes": "Paris", "code_insee_commune": null}, {"stationcode": "32305", "name": "Saint-Germain - Verdun", "is_installed": "OUI", "capacity": 30, "numdocksavailable": 29, "numbikesavailable": 1, "mechanical": 0, "ebike": 1, "is_renting": "OUI", "is_returning": "OUI", "duedate": "2024-06-14T18:50:06+00:00", "coordonnees_geo": {"lon": 2.4331868384644, "lat": 48.882877330093}, "nom_arrondissement_communes": "Romainville", "code_insee_commune": null}, {"stationcode": "22507", "name": "Ch\u00e2teaudun - Place de la Libert\u00e9", "is_installed": "OUI", "capacity": 26, "numdocksavailable": 9, "numbikesavailable": 16, "mechanical": 6, "ebike": 10, "is_renting": "OUI", "is_returning": "OUI", "duedate": "2024-06-14T18:48:13+00:00", "coordonnees_geo": {"lon": 2.2454486480600626, "lat": 48.90970830301211}, "nom_arrondissement_communes": "La Garenne-Colombes", "code_insee_commune": null}, {"stationcode": "12001", "name": "Bastille - Biscornet", "is_installed": "OUI", "capacity": 62, "numdocksavailable": 0, "numbikesavailable": 60, "mechanical": 47, "ebike": 13, "is_renting": "OUI", "is_returning": "OUI", "duedate": "2024-06-14T18:49:53+00:00", "coordonnees_geo": {"lon": 2.369220033288, "lat": 48.851355779579}, "nom_arrondissement_communes": "Paris", "code_insee_commune": null}, {"stationcode": "22602", "name": "Place Henri Dunant - Gare RER", "is_installed": "OUI", "capacity": 31, "numdocksavailable": 26, "numbikesavailable": 4, "mechanical": 2, "ebike": 2, "is_renting": "OUI", "is_returning": "OUI", "duedate": "2024-06-14T18:43:07+00:00", "coordonnees_geo": {"lon": 2.2909234046643, "lat": 48.788093281931}, "nom_arrondissement_communes": "Fontenay-aux-Roses", "code_insee_commune": null}, {"stationcode": "11201", "name": "Faubourg St-Antoine - Place de la Nation", "is_installed": "OUI", "capacity": 16, "numdocksavailable": 12, "numbikesavailable": 3, "mechanical": 2, "ebike": 1, "is_renting": "OUI", "is_returning": "OUI", "duedate": "2024-06-14T18:47:53+00:00", "coordonnees_geo": {"lon": 2.393606, "lat": 48.8487726}, "nom_arrondissement_communes": "Paris", "code_insee_commune": null}, {"stationcode": "23205", "name": "Parc des Pierrettes", "is_installed": "OUI", "capacity": 23, "numdocksavailable": 22, "numbikesavailable": 1, "mechanical": 0, "ebike": 1, "is_renting": "OUI", "is_returning": "OUI", "duedate": "2024-06-14T18:47:39+00:00", "coordonnees_geo": {"lon": 2.2909969, "lat": 48.7973062}, "nom_arrondissement_communes": "Ch\u00e2tillon", "code_insee_commune": null}, {"stationcode": "32023", "name": "Guy M\u00f4quet - Jean Moulin", "is_installed": "OUI", "capacity": 30, "numdocksavailable": 9, "numbikesavailable": 21, "mechanical": 9, "ebike": 12, "is_renting": "OUI", "is_returning": "OUI", "duedate": "2024-06-14T18:42:22+00:00", "coordonnees_geo": {"lon": 2.363948999931771, "lat": 48.940931521020836}, "nom_arrondissement_communes": "Saint-Denis", "code_insee_commune": null}, {"stationcode": "11001", "name": "Richard Lenoir - Place de la Bastille", "is_installed": "OUI", "capacity": 53, "numdocksavailable": 0, "numbikesavailable": 50, "mechanical": 46, "ebike": 4, "is_renting": "OUI", "is_returning": "OUI", "duedate": "2024-06-14T18:50:25+00:00", "coordonnees_geo": {"lon": 2.3697222, "lat": 48.8538327}, "nom_arrondissement_communes": "Paris", "code_insee_commune": null}, {"stationcode": "12165", "name": "Champs de Manoeuvre - Cartoucherie", "is_installed": "OUI", "capacity": 35, "numdocksavailable": 9, "numbikesavailable": 24, "mechanical": 17, "ebike": 7, "is_renting": "OUI", "is_returning": "OUI", "duedate": "2024-06-14T18:50:29+00:00", "coordonnees_geo": {"lon": 2.447974, "lat": 48.835261}, "nom_arrondissement_communes": "Paris", "code_insee_commune": null}, {"stationcode": "32051", "name": null, "is_installed": "NON", "capacity": null, "numdocksavailable": 200, "numbikesavailable": 0, "mechanical": 0, "ebike": 0, "is_renting": "NON", "is_returning": "NON", "duedate": "2019-06-19T12:26:12+00:00", "coordonnees_geo": null, "nom_arrondissement_communes": null, "code_insee_commune": null}, {"stationcode": "9035", "name": "Gare Saint-Lazare - Place de Budapest", "is_installed": "OUI", "capacity": 44, "numdocksavailable": 36, "numbikesavailable": 7, "mechanical": 4, "ebike": 3, "is_renting": "OUI", "is_returning": "OUI", "duedate": "2024-06-14T18:49:04+00:00", "coordonnees_geo": {"lon": 2.327339, "lat": 48.877753}, "nom_arrondissement_communes": "Paris", "code_insee_commune": null}, {"stationcode": "23204", "name": "Roland Garros - Jean Bouin", "is_installed": "OUI", "capacity": 28, "numdocksavailable": 24, "numbikesavailable": 4, "mechanical": 0, "ebike": 4, "is_renting": "OUI", "is_returning": "OUI", "duedate": "2024-06-14T18:49:18+00:00", "coordonnees_geo": {"lon": 2.2853198638301, "lat": 48.809460857173}, "nom_arrondissement_communes": "Ch\u00e2tillon", "code_insee_commune": null}, {"stationcode": "31301", "name": "Gare RER", "is_installed": "OUI", "capacity": 30, "numdocksavailable": 15, "numbikesavailable": 10, "mechanical": 5, "ebike": 5, "is_renting": "OUI", "is_returning": "OUI", "duedate": "2024-06-14T18:49:20+00:00", "coordonnees_geo": {"lon": 2.4581568985227, "lat": 48.896280181078}, "nom_arrondissement_communes": "Noisy-le-Sec", "code_insee_commune": null}, {"stationcode": "21514", "name": "Place de la Paix - Abb\u00e9 Saint-Pierre", "is_installed": "OUI", "capacity": 24, "numdocksavailable": 23, "numbikesavailable": 1, "mechanical": 0, "ebike": 1, "is_renting": "OUI", "is_returning": "OUI", "duedate": "2024-06-14T18:47:14+00:00", "coordonnees_geo": {"lon": 2.2047570338469806, "lat": 48.86462724459225}, "nom_arrondissement_communes": "Suresnes", "code_insee_commune": null}, {"stationcode": "31303", "name": "Simone Signoret - Paris", "is_installed": "OUI", "capacity": 28, "numdocksavailable": 6, "numbikesavailable": 21, "mechanical": 7, "ebike": 14, "is_renting": "OUI", "is_returning": "OUI", "duedate": "2024-06-14T18:45:37+00:00", "coordonnees_geo": {"lon": 2.465406596265139, "lat": 48.903600624712865}, "nom_arrondissement_communes": "Noisy-le-Sec", "code_insee_commune": null}, {"stationcode": "17010", "name": "Jonqui\u00e8re - Docteur Paul Brousse", "is_installed": "OUI", "capacity": 40, "numdocksavailable": 20, "numbikesavailable": 18, "mechanical": 16, "ebike": 2, "is_renting": "OUI", "is_returning": "OUI", "duedate": "2024-06-14T18:46:43+00:00", "coordonnees_geo": {"lon": 2.318705212173216, "lat": 48.894799816683985}, "nom_arrondissement_communes": "Paris", "code_insee_commune": null}, {"stationcode": "18023", "name": "Ordener - Poissonniers", "is_installed": "OUI", "capacity": 35, "numdocksavailable": 27, "numbikesavailable": 7, "mechanical": 4, "ebike": 3, "is_renting": "OUI", "is_returning": "OUI", "duedate": "2024-06-14T18:49:08+00:00", "coordonnees_geo": {"lon": 2.351288666219873, "lat": 48.891213890844654}, "nom_arrondissement_communes": "Paris", "code_insee_commune": null}, {"stationcode": "8501", "name": "Grand Palais", "is_installed": "NON", "capacity": 0, "numdocksavailable": 0, "numbikesavailable": 0, "mechanical": 0, "ebike": 0, "is_renting": "NON", "is_returning": "NON", "duedate": "2024-06-14T13:06:01+00:00", "coordonnees_geo": {"lon": 2.3109141731562, "lat": 48.868616276811}, "nom_arrondissement_communes": "Paris", "code_insee_commune": null}, {"stationcode": "33019", "name": "Madeleine Vionnet", "is_installed": "OUI", "capacity": 34, "numdocksavailable": 26, "numbikesavailable": 11, "mechanical": 3, "ebike": 8, "is_renting": "OUI", "is_returning": "OUI", "duedate": "2024-06-14T18:42:59+00:00", "coordonnees_geo": {"lon": 2.3740895837545, "lat": 48.902519074064}, "nom_arrondissement_communes": "Aubervilliers", "code_insee_commune": null}, {"stationcode": "16502", "name": "Stade Roland-Garros", "is_installed": "NON", "capacity": 0, "numdocksavailable": 0, "numbikesavailable": 0, "mechanical": 0, "ebike": 0, "is_renting": "NON", "is_returning": "NON", "duedate": "2024-06-14T13:29:21+00:00", "coordonnees_geo": {"lon": 2.255324723148, "lat": 48.84401069203}, "nom_arrondissement_communes": "Paris", "code_insee_commune": null}, {"stationcode": "15501", "name": "Arena Paris Sud", "is_installed": "NON", "capacity": 0, "numdocksavailable": 0, "numbikesavailable": 0, "mechanical": 0, "ebike": 0, "is_renting": "NON", "is_returning": "NON", "duedate": "2024-06-14T13:43:35+00:00", "coordonnees_geo": {"lon": 2.2995228346402, "lat": 48.848596451122}, "nom_arrondissement_communes": "Paris", "code_insee_commune": null}]