[{"stationcode": "20002", "name": "Square de la rue Pix\u00e9r\u00e9court", "is_installed": "OUI", "capacity": 15, "numdocksavailable": 13, "numbikesavailable": 2, "mechanical": 1, "ebike": 1, "is_renting": "OUI", "is_returning": "OUI", "duedate": "2024-06-14T16:47:47+00:00", "coordonnees_geo": {"lon": 2.3960278, "lat": 48.8736824}, "nom_arrondissement_communes": "Paris", "code_insee_commune": null}, {"stationcode": "9036", "name": "Ath\u00e8nes - Clichy", "is_installed": "OUI", "capacity": 20, "numdocksavailable": 10, "numbikesavailable": 8, "mechanical": 4, "ebike": 4, "is_renting": "OUI", "is_returning": "OUI", "duedate": "2024-06-14T16:49:14+00:00", "coordonnees_geo": {"lon": 2.32956021945824, "lat": 48.878113787876}, "nom_arrondissement_communes": "Paris", "code_insee_commune": null}, {"stationcode": "12006", "name": "Gare de Lyon - Van Gogh", "is_installed": "OUI", "capacity": 41, "numdocksavailable": 0, "numbikesavailable": 37, "mechanical": 27, "ebike": 10, "is_renting": "OUI", "is_returning": "OUI", "duedate": "2024-06-14T16:49:33+00:00", "coordonnees_geo": {"lon": 2.3704450240357, "lat": 48.843839785643}, "nom_arrondissement_communes": "Paris", "code_insee_commune": null}, {"stationcode": "12006", "name": "Gare de Lyon - Van Gogh", "is_installed": "OUI", "capacity": 41, "numdocksavailable": 0, "numbikesavailable": 37, "mechanical": 26, "ebike": 11, "is_renting": "OUI", "is_returning": "OUI", "duedate": "2024-06-14T18:50:04+00:00", "coordonnees_geo": {"lon": 2.3704450240357, "lat": 48.843839785643}, "nom_arrondissement_communes": "Paris", "code_insee_commune": null}, {"stationcode": "15125", "name": "Parc Suzanne Lenglen", "is_installed": "OUI", "capacity": 52, "numdocksavailable": 14, "numbikesavailable": 35, "mechanical": 34, "ebike": 1, "is_renting": "OUI", "is_returning": "OUI", "duedate": "2024-06-14T18:50:22+00:00", "coordonnees_geo": {"lon": 2.2765403240919113, "lat": 48.833250690537874}, "nom_arrondissement_communes": "Paris", "code_insee_commune": null}, {"stationcode": "13117", "name": "Stade Georges Carpentier", "is_installed": "OUI", "capacity": 40, "numdocksavailable": 30, "numbikesavailable": 9, "mechanical": 5, "ebike": 4, "is_renting": "OUI", "is_returning": "OUI", "duedate": "2024-06-14T18:47:52+00:00", "coordonnees_geo": {"lon": 2.3668321967125, "lat": 48.820482438381}, "nom_arrondissement_communes": "Paris", "code_insee_commune": null}, {"stationcode": "13027", "name": "Mazagran - Pierre de Coubertin", "is_installed": "OUI", "capacity": 15, "numdocksavailable": 14, "numbikesavailable": 0, "mechanical": 0, "ebike": 0, "is_renting": "OUI", "is_returning": "OUI", "duedate": "2024-06-14T18:42:18+00:00", "coordonnees_geo": {"lon": 2.344226874411106, "lat": 48.816218640260445}, "nom_arrondissement_communes": "Paris", "code_insee_commune": null}, {"stationcode": "10004", "name": "Metz - Faubourg Saint-Denis", "is_installed": "OUI", "capacity": 48, "numdocksavailable": 3, "numbikesavailable": 39, "mechanical": 32, "ebike": 7, "is_renting": "OUI", "is_returning": "OUI", "duedate": "2024-06-14T18:50:26+00:00", "coordonnees_geo": {"lon": 2.353521, "lat": 48.870893}, "nom_arrondissement_communes": "Paris", "code_insee_commune": null}, {"stationcode": "20039", "name": "Belleville - Couronnes", "is_installed": "OUI", "capacity": 50, "numdocksavailable": 39, "numbikesavailable": 11, "mechanical": 4, "ebike": 7, "is_renting": "OUI", "is_returning": "OUI", "duedate": "2024-06-14T18:50:30+00:00", "coordonnees_geo": {"lon": 2.3809862136841, "lat": 48.868831082877}, "nom_arrondissement_communes": "Paris", "code_insee_commune": null}, {"stationcode": "8008", "name": "Joseph Sansboeuf - Saint Lazare", "is_installed": "OUI", "capacity": 18, "numdocksavailable": 13, "numbikesavailable": 4, "mechanical": 4, "ebike": 0, "is_renting": "OUI", "is_returning": "OUI", "duedate": "2024-06-14T18:50:24+00:00", "coordonnees_geo": {"lon": 2.3229019716382027, "lat": 48.87531563065266}, "nom_arrondissement_communes": "Paris", "code_insee_commune": null}, {"stationcode": "21203", "name": "Place Jules Ferry", "is_installed": "OUI", "capacity": 28, "numdocksavailable": 22, "numbikesavailable": 5, "mechanical": 2, "ebike": 3, "is_renting": "OUI", "is_returning": "OUI", "duedate": "2024-06-14T18:46:52+00:00", "coordonnees_geo": {"lon": 2.325837314128876, "lat": 48.812107928414775}, "nom_arrondissement_communes": "Montrouge", "code_insee_commune": null}, {"stationcode": "5034", "name": "Censier - Santeuil", "is_installed": "OUI", "capacity": 69, "numdocksavailable": 14, "numbikesavailable": 53, "mechanical": 41, "ebike": 12, "is_renting": "OUI", "is_returning": "OUI", "duedate": "2024-06-14T18:47:47+00:00", "coordonnees_geo": {"lon": 2.3537524044513702, "lat": 48.840658921385234}, "nom_arrondissement_communes": "Paris", "code_insee_commune": null}, {"stationcode": "19025", "name": "Botzaris - Crim\u00e9e", "is_installed": "OUI", "capacity": 21, "numdocksavailable": 13, "numbikesavailable": 7, "mechanical": 0, "ebike": 7, "is_renting": "OUI", "is_returning": "OUI", "duedate": "2024-06-14T18:50:30+00:00", "coordonnees_geo": {"lon": 2.3887913337477067, "lat": 48.87959698690176}, "nom_arrondissement_communes": "Paris", "code_insee_commune": null}, {"stationcode": "16009", "name": "Saint-Didier - Raymond Poincar\u00e9", "is_installed": "OUI", "capacity": 17, "numdocksavailable": 15, "numbikesavailable": 2, "mechanical": 0, "ebike": 2, "is_renting": "OUI", "is_returning": "OUI", "duedate": "2024-06-14T18:50:19+00:00", "coordonnees_geo": {"lon": 2.285863497192411, "lat": 48.86642312020962}, "nom_arrondissement_communes": "Paris", "code_insee_commune": null}, {"stationcode": "10153", "name": "Gare du Nord - Denain", "is_installed": "OUI", "capacity": 20, "numdocksavailable": 9, "numbikesavailable": 9, "mechanical": 3, "ebike": 6, "is_renting": "OUI", "is_returning": "OUI", "duedate": "2024-06-14T18:49:46+00:00", "coordonnees_geo": {"lon": 2.3544725775719, "lat": 48.879595787608}, "nom_arrondissement_communes": "Paris", "code_insee_commune": null}, {"stationcode": "15072", "name": "Place Fernand Forest", "is_installed": "OUI", "capacity": 33, "numdocksavailable": 6, "numbikesavailable": 26, "mechanical": 23, "ebike": 3, "is_renting": "OUI", "is_returning": "OUI", "duedate": "2024-06-14T18:49:18+00:00", "coordonnees_geo": {"lon": 2.2818631678819656, "lat": 48.849269143835926}, "nom_arrondissement_communes": "Paris", "code_insee_commune": null}, {"stationcode": "16003", "name": "Andr\u00e9 Maurois - Joseph et Marie Hackin", "is_installed": "OUI", "capacity": 29, "numdocksavailable": 14, "numbikesavailable": 12, "mechanical": 6, "ebike": 6, "is_renting": "OUI", "is_returning": "OUI", "duedate": "2024-06-14T18:50:04+00:00", "coordonnees_geo": {"lon": 2.2789591, "lat": 48.8778983}, "nom_arrondissement_communes": "Paris", "code_insee_commune": null}, {"stationcode": "41210", "name": "H\u00f4tel de ville de Fontenay-sous-Bois", "is_installed": "OUI", "capacity": 20, "numdocksavailable": 19, "numbikesavailable": 1, "mechanical": 0, "ebike": 1, "is_renting": "OUI", "is_returning": "OUI", "duedate": "2024-06-14T18:49:41+00:00", "coordonnees_geo": {"lon": 2.4750164151191716, "lat": 48.84949749106274}, "nom_arrondissement_communes": "Fontenay-sous-Bois", "code_insee_commune": null}, {"stationcode": "42304", "name": "Marc Sangnier - Division Leclerc", "is_installed": "OUI", "capacity": 24, "numdocksavailable": 12, "numbikesavailable": 11, "mechanical": 10, "ebike": 1, "is_renting": "OUI", "is_returning": "OUI", "duedate": "2024-06-14T18:49:50+00:00", "coordonnees_geo": {"lon": 2.329955510795116, "lat": 48.78599652305309}, "nom_arrondissement_communes": "Cachan", "code_insee_commune": null}, {"stationcode": "11109", "name": "Pierre Lev\u00e9e - Fontaine Timbaud", "is_installed": "OUI", "capacity": 23, "numdocksavailable": 8, "numbikesavailable": 12, "mechanical": 8, "ebike": 4, "is_renting": "OUI", "is_returning": "OUI", "duedate": "2024-06-14T18:48:31+00:00", "coordonnees_geo": {"lon": 2.3711163550615306, "lat": 48.86632723374305}, "nom_arrondissement_communes": "Paris", "code_insee_commune": null}, {"stationcode": "31021", "name": "R\u00e9sistance - Hoche", "is_installed": "OUI", "capacity": 29, "numdocksavailable": 15, "numbikesavailable": 12, "mechanical": 4, "ebike": 8, "is_renting": "OUI", "is_returning": "OUI", "duedate": "2024-06-14T18:49:25+00:00", "coordonnees_geo": {"lon": 2.435784414410591, "lat": 48.864273423741956}, "nom_arrondissement_communes": "Montreuil", "code_insee_commune": null}, {"stationcode": "16115", "name": "Raffet - Montmorency", "is_installed": "OUI", "capacity": 42, "numdocksavailable": 36, "numbikesavailable": 5, "mechanical": 1, "ebike": 4, "is_renting": "OUI", "is_returning": "OUI", "duedate": "2024-06-14T18:45:07+00:00", "coordonnees_geo": {"lon": 2.2629252456151954, "lat": 48.85258670812}, "nom_arrondissement_communes": "Paris", "code_insee_commune": null}, {"stationcode": "15123", "name": "Commerce - Letellier", "is_installed": "OUI", "capacity": 44, "numdocksavailable": 3, "numbikesavailable": 40, "mechanical": 35, "ebike": 5, "is_renting": "OUI", "is_returning": "OUI", "duedate": "2024-06-14T18:47:52+00:00", "coordonnees_geo": {"lon": 2.2966245196598805, "lat": 48.84797660373612}, "nom_arrondissement_communes": "Paris", "code_insee_commune": null}, {"stationcode": "13039", "name": "Ivry - Simone Weil", "is_installed": "OUI", "capacity": 18, "numdocksavailable": 13, "numbikesavailable": 5, "mechanical": 0, "ebike": 5, "is_renting": "OUI", "is_returning": "OUI", "duedate": "2024-06-14T18:50:24+00:00", "coordonnees_geo": {"lon": 2.3659095168113713, "lat": 48.823283932030755}, "nom_arrondissement_communes": "Paris", "code_insee_commune": null}, {"stationcode": "21031", "name": "Cimeti\u00e8re de Boulogne-Billancourt", "is_installed": "OUI", "capacity": 40, "numdocksavailable": 24, "numbikesavailable": 13, "mechanical": 10, "ebike": 3, "is_renting": "OUI", "is_returning": "OUI", "duedate": "2024-06-14T18:46:44+00:00", "coordonnees_geo": {"lon": 2.252024, "lat": 48.830764}, "nom_arrondissement_communes": "Boulogne-Billancourt", "code_insee_commune": null}, {"stationcode": "21702", "name": "Gare SNCF Vanves-Malakoff", "is_installed": "OUI", "capacity": 51, "numdocksavailable": 35, "numbikesavailable": 16, "mechanical": 2, "ebike": 14, "is_renting": "OUI", "is_returning": "OUI", "duedate": "2024-06-14T18:49:53+00:00", "coordonnees_geo": {"lon": 2.292150005103606, "lat": 48.819002163836444}, "nom_arrondissement_communes": "Vanves", "code_insee_commune": null}, {"stationcode": "17039", "name": "Place Saint-Ferdinand", "is_installed": "OUI", "capacity": 38, "numdocksavailable": 38, "numbikesavailable": 0, "mechanical": 0, "ebike": 0, "is_renting": "OUI", "is_returning": "OUI", "duedate": "2024-06-14T18:44:51+00:00", "coordonnees_geo": {"lon": 2.288518047864942, "lat": 48.87815529789739}, "nom_arrondissement_communes": "Paris", "code_insee_commune": null}, {"stationcode": "22604", "name": "H\u00f4tel de Ville de Fontenay-aux-Roses", "is_installed": "OUI", "capacity": 34, "numdocksavailable": 32, "numbikesavailable": 2, "mechanical": 0, "ebike": 2, "is_renting": "OUI", "is_returning": "OUI", "duedate": "2024-06-14T18:49:47+00:00", "coordonnees_geo": {"lon": 2.2871455930319455, "lat": 48.790844603480856}, "nom_arrondissement_communes": "Fontenay-aux-Roses", "code_insee_commune": null}, {"stationcode": "10012", "name": "Vinaigriers - Magenta", "is_installed": "OUI", "capacity": 25, "numdocksavailable": 11, "numbikesavailable": 12, "mechanical": 11, "ebike": 1, "is_renting": "OUI", "is_returning": "OUI", "duedate": "2024-06-14T18:49:53+00:00", "coordonnees_geo": {"lon": 2.3593052, "lat": 48.8731167}, "nom_arrondissement_communes": "Paris", "code_insee_commune": null}, {"stationcode": "42305", "name": "Vanne - Saussaies", "is_installed": "OUI", "capacity": 20, "numdocksavailable": 15, "numbikesavailable": 5, "mechanical": 0, "ebike": 5, "is_renting": "OUI", "is_returning": "OUI", "duedate": "2024-06-14T18:44:39+00:00", "coordonnees_geo": {"lon": 2.338848, "lat": 48.786404}, "nom_arrondissement_communes": "Cachan", "code_insee_commune": null}, {"stationcode": "13121", "name": "Bruneseau - Quai d'Ivry", "is_installed": "OUI", "capacity": 46, "numdocksavailable": 19, "numbikesavailable": 26, "mechanical": 23, "ebike": 3, "is_renting": "OUI", "is_returning": "OUI", "duedate": "2024-06-14T18:46:33+00:00", "coordonnees_geo": {"lon": 2.388566136360169, "lat": 48.82494563758295}, "nom_arrondissement_communes": "Ivry-sur-Seine", "code_insee_commune": null}, {"stationcode": "5107", "name": "Pontoise - La Tournelle", "is_installed": "OUI", "capacity": 23, "numdocksavailable": 2, "numbikesavailable": 21, "mechanical": 20, "ebike": 1, "is_renting": "OUI", "is_returning": "OUI", "duedate": "2024-06-14T18:49:55+00:00", "coordonnees_geo": {"lon": 2.3524542754922, "lat": 48.850458009188}, "nom_arrondissement_communes": "Paris", "code_insee_commune": null}, {"stationcode": "10018", "name": "Square Alban Satragne", "is_installed": "OUI", "capacity": 30, "numdocksavailable": 0, "numbikesavailable": 29, "mechanical": 20, "ebike": 9, "is_renting": "OUI", "is_returning": "OUI", "duedate": "2024-06-14T18:49:47+00:00", "coordonnees_geo": {"lon": 2.3559567333359, "lat": 48.875388227727}, "nom_arrondissement_communes": "Paris", "code_insee_commune": null}, {"stationcode": "20007", "name": "Buzenval - Avron", "is_installed": "OUI", "capacity": 50, "numdocksavailable": 36, "numbikesavailable": 14, "mechanical": 9, "ebike": 5, "is_renting": "OUI", "is_returning": "OUI", "duedate": "2024-06-14T18:49:58+00:00", "coordonnees_geo": {"lon": 2.401513597307666, "lat": 48.851617204998654}, "nom_arrondissement_communes": "Paris", "code_insee_commune": null}, {"stationcode": "12043", "name": "Daumesnil - H\u00e9brard", "is_installed": "OUI", "capacity": 40, "numdocksavailable": 0, "numbikesavailable": 37, "mechanical": 32, "ebike": 5, "is_renting": "OUI", "is_returning": "OUI", "duedate": "2024-06-14T18:48:57+00:00", "coordonnees_geo": {"lon": 2.38474, "lat": 48.8429}, "nom_arrondissement_communes": "Paris", "code_insee_commune": null}, {"stationcode": "32001", "name": "Proudhon - Pr\u00e9sident Wilson", "is_installed": "OUI", "capacity": 30, "numdocksavailable": 25, "numbikesavailable": 5, "mechanical": 4, "ebike": 1, "is_renting": "OUI", "is_returning": "OUI", "duedate": "2024-06-14T18:49:03+00:00", "coordonnees_geo": {"lon": 2.3584905266762, "lat": 48.906442763495}, "nom_arrondissement_communes": "Saint-Denis", "code_insee_commune": null}, {"stationcode": "31025", "name": "Paul Signac - Aristide Briand", "is_installed": "OUI", "capacity": 35, "numdocksavailable": 20, "numbikesavailable": 14, "mechanical": 0, "ebike": 14, "is_renting": "OUI", "is_returning": "OUI", "duedate": "2024-06-14T18:49:55+00:00", "coordonnees_geo": {"lon": 2.4502260982990265, "lat": 48.86950262156371}, "nom_arrondissement_communes": "Montreuil", "code_insee_commune": null}, {"stationcode": "13033", "name": "Porte d'Italie", "is_installed": "OUI", "capacity": 13, "numdocksavailable": 7, "numbikesavailable": 6, "mechanical": 0, "ebike": 6, "is_renting": "OUI", "is_returning": "OUI", "duedate": "2024-06-14T18:49:34+00:00", "coordonnees_geo": {"lon": 2.360236309468746, "lat": 48.817161987718954}, "nom_arrondissement_communes": "Paris", "code_insee_commune": null}, {"stationcode": "20122", "name": "Vitruve - Davout", "is_installed": "OUI", "capacity": 23, "numdocksavailable": 23, "numbikesavailable": 0, "mechanical": 0, "ebike": 0, "is_renting": "OUI", "is_returning": "OUI", "duedate": "2024-06-14T18:49:11+00:00", "coordonnees_geo": {"lon": 2.4091592812626543, "lat": 48.86053161154489}, "nom_arrondissement_communes": "Paris", "code_insee_commune": null}, {"stationcode": "16020", "name": "Place de la Porte de Passy", "is_installed": "OUI", "capacity": 36, "numdocksavailable": 34, "numbikesavailable": 2, "mechanical": 2, "ebike": 0, "is_renting": "OUI", "is_returning": "OUI", "duedate": "2024-06-14T18:48:57+00:00", "coordonnees_geo": {"lon": 2.2644165538827115, "lat": 48.857341095470794}, "nom_arrondissement_communes": "Paris", "code_insee_commune": null}, {"stationcode": "18027", "name": "Damr\u00e9mont - Ordener", "is_installed": "OUI", "capacity": 30, "numdocksavailable": 22, "numbikesavailable": 4, "mechanical": 1, "ebike": 3, "is_renting": "OUI", "is_returning": "OUI", "duedate": "2024-06-14T18:49:56+00:00", "coordonnees_geo": {"lon": 2.336266523912805, "lat": 48.893400392981874}, "nom_arrondissement_communes": "Paris", "code_insee_commune": null}, {"stationcode": "4003", "name": "Quai aux Fleurs - Pont Saint-Louis", "is_installed": "OUI", "capacity": 21, "numdocksavailable": 1, "numbikesavailable": 20, "mechanical": 11, "ebike": 9, "is_renting": "OUI", "is_returning": "OUI", "duedate": "2024-06-14T18:50:09+00:00", "coordonnees_geo": {"lon": 2.352195717394352, "lat": 48.85291595620935}, "nom_arrondissement_communes": "Paris", "code_insee_commune": null}, {"stationcode": "14101", "name": "Gare Montparnasse - Edgar Quinet", "is_installed": "OUI", "capacity": 33, "numdocksavailable": 5, "numbikesavailable": 25, "mechanical": 14, "ebike": 11, "is_renting": "OUI", "is_returning": "OUI", "duedate": "2024-06-14T18:48:02+00:00", "coordonnees_geo": {"lon": 2.3233232282801, "lat": 48.841487851079}, "nom_arrondissement_communes": "Paris", "code_insee_commune": null}, {"stationcode": "8020", "name": "Batignolles - Beudant", "is_installed": "OUI", "capacity": 44, "numdocksavailable": 37, "numbikesavailable": 5, "mechanical": 0, "ebike": 5, "is_renting": "OUI", "is_returning": "OUI", "duedate": "2024-06-14T18:50:25+00:00", "coordonnees_geo": {"lon": 2.319852970540523, "lat": 48.88216401466375}, "nom_arrondissement_communes": "Paris", "code_insee_commune": null}, {"stationcode": "17015", "name": "Place de L\u00e9vis", "is_installed": "OUI", "capacity": 48, "numdocksavailable": 44, "numbikesavailable": 4, "mechanical": 2, "ebike": 2, "is_renting": "OUI", "is_returning": "OUI", "duedate": "2024-06-14T18:48:38+00:00", "coordonnees_geo": {"lon": 2.3131933808326726, "lat": 48.883546851533254}, "nom_arrondissement_communes": "Paris", "code_insee_commune": null}, {"stationcode": "22501", "name": "Th\u00e9\u00e2tre de La Garenne", "is_installed": "OUI", "capacity": 20, "numdocksavailable": 12, "numbikesavailable": 8, "mechanical": 3, "ebike": 5, "is_renting": "OUI", "is_returning": "OUI", "duedate": "2024-06-14T18:46:52+00:00", "coordonnees_geo": {"lon": 2.2345951981176, "lat": 48.905658361454}, "nom_arrondissement_communes": "La Garenne-Colombes", "code_insee_commune": null}, {"stationcode": "23003", "name": "Pr\u00e9sident Wilson - Baudin", "is_installed": "OUI", "capacity": 28, "numdocksavailable": 12, "numbikesavailable": 16, "mechanical": 9, "ebike": 7, "is_renting": "OUI", "is_returning": "OUI", "duedate": "2024-06-14T18:45:07+00:00", "coordonnees_geo": {"lon": 2.2849336266517644, "lat": 48.89826887103676}, "nom_arrondissement_communes": "Levallois-Perret", "code_insee_commune": null}, {"stationcode": "14131", "name": "Jourdan - Monticelli", "is_installed": "OUI", "capacity": 30, "numdocksavailable": 26, "numbikesavailable": 3, "mechanical": 1, "ebike": 2, "is_renting": "OUI", "is_returning": "OUI", "duedate": "2024-06-14T18:46:13+00:00", "coordonnees_geo": {"lon": 2.329095, "lat": 48.822032}, "nom_arrondissement_communes": "Paris", "code_insee_commune": null}, {"stationcode": "17023", "name": "Porte d'Asni\u00e8res", "is_installed": "OUI", "capacity": 36, "numdocksavailable": 24, "numbikesavailable": 10, "mechanical": 8, "ebike": 2, "is_renting": "OUI", "is_returning": "OUI", "duedate": "2024-06-14T18:49:36+00:00", "coordonnees_geo": {"lon": 2.3036286234855656, "lat": 48.89035817610495}, "nom_arrondissement_communes": "Paris", "code_insee_commune": null}, {"stationcode": "44007", "name": "Camille Groult - Guy M\u00f4quet", "is_installed": "OUI", "capacity": 22, "numdocksavailable": 8, "numbikesavailable": 14, "mechanical": 10, "ebike": 4, "is_renting": "OUI", "is_returning": "OUI", "duedate": "2024-06-14T18:50:22+00:00", "coordonnees_geo": {"lon": 2.3976725712418556, "lat": 48.787482746521306}, "nom_arrondissement_communes": "Vitry-sur-Seine", "code_insee_commune": null}, {"stationcode": "4016", "name": "Lobau - H\u00f4tel de Ville", "is_installed": "OUI", "capacity": 60, "numdocksavailable": 4, "numbikesavailable": 52, "mechanical": 40, "ebike": 12, "is_renting": "OUI", "is_returning": "OUI", "duedate": "2024-06-14T18:50:24+00:00", "coordonnees_geo": {"lon": 2.3532536, "lat": 48.8562118}, "nom_arrondissement_communes": "Paris", "code_insee_commune": null}, {"stationcode": "17003", "name": "Jacques Kellner - Saint-Ouen", "is_installed": "OUI", "capacity": 45, "numdocksavailable": 33, "numbikesavailable": 11, "mechanical": 8, "ebike": 3, "is_renting": "OUI", "is_returning": "OUI", "duedate": "2024-06-14T18:47:06+00:00", "coordonnees_geo": {"lon": 2.327897409164145, "lat": 48.895809485802886}, "nom_arrondissement_communes": "Paris", "code_insee_commune": null}, {"stationcode": "42501", "name": "Raspail - Albert Schweitzer", "is_installed": "OUI", "capacity": 28, "numdocksavailable": 10, "numbikesavailable": 17, "mechanical": 6, "ebike": 11, "is_renting": "OUI", "is_returning": "OUI", "duedate": "2024-06-14T18:48:26+00:00", "coordonnees_geo": {"lon": 2.34395871, "lat": 48.81031545}, "nom_arrondissement_communes": "Gentilly", "code_insee_commune": null}, {"stationcode": "21217", "name": "Louis Rolland - R\u00e9publique", "is_installed": "OUI", "capacity": 26, "numdocksavailable": 22, "numbikesavailable": 4, "mechanical": 2, "ebike": 2, "is_renting": "OUI", "is_returning": "OUI", "duedate": "2024-06-14T18:41:17+00:00", "coordonnees_geo": {"lon": 2.3193106434955717, "lat": 48.81710889740748}, "nom_arrondissement_communes": "Montrouge", "code_insee_commune": null}, {"stationcode": "9114", "name": "Faubourg Poissonni\u00e8re - Dunkerque", "is_installed": "OUI", "capacity": 30, "numdocksavailable": 20, "numbikesavailable": 10, "mechanical": 3, "ebike": 7, "is_renting": "OUI", "is_returning": "OUI", "duedate": "2024-06-14T18:45:36+00:00", "coordonnees_geo": {"lon": 2.349934279918671, "lat": 48.880883445404436}, "nom_arrondissement_communes": "Paris", "code_insee_commune": null}, {"stationcode": "16011", "name": "Victor Hugo - La Pompe", "is_installed": "OUI", "capacity": 41, "numdocksavailable": 39, "numbikesavailable": 2, "mechanical": 0, "ebike": 2, "is_renting": "OUI", "is_returning": "OUI", "duedate": "2024-06-14T18:46:57+00:00", "coordonnees_geo": {"lon": 2.28146318346262, "lat": 48.86795222470859}, "nom_arrondissement_communes": "Paris", "code_insee_commune": null}, {"stationcode": "25001", "name": "Colmar - Victor Hugo", "is_installed": "OUI", "capacity": 32, "numdocksavailable": 24, "numbikesavailable": 5, "mechanical": 1, "ebike": 4, "is_renting": "OUI", "is_returning": "OUI", "duedate": "2024-06-14T18:49:01+00:00", "coordonnees_geo": {"lon": 2.173960916697979, "lat": 48.88652251096166}, "nom_arrondissement_communes": "Rueil-Malmaison", "code_insee_commune": null}, {"stationcode": "44101", "name": "Place Mongolfier", "is_installed": "OUI", "capacity": 39, "numdocksavailable": 2, "numbikesavailable": 37, "mechanical": 32, "ebike": 5, "is_renting": "OUI", "is_returning": "OUI", "duedate": "2024-06-14T18:50:30+00:00", "coordonnees_geo": {"lon": 2.4592879414558415, "lat": 48.815160030060376}, "nom_arrondissement_communes": "Saint-Maurice", "code_insee_commune": null}, {"stationcode": "10165", "name": "Gare de l'Est - Place du 11 Novembre 1918", "is_installed": "OUI", "capacity": 40, "numdocksavailable": 9, "numbikesavailable": 26, "mechanical": 20, "ebike": 6, "is_renting": "OUI", "is_returning": "OUI", "duedate": "2024-06-14T18:49:19+00:00", "coordonnees_geo": {"lon": 2.3585464, "lat": 48.876327}, "nom_arrondissement_communes": "Paris", "code_insee_commune": null}, {"stationcode": "22303", "name": "Lucien Lanternier - Le Luth", "is_installed": "OUI", "capacity": 27, "numdocksavailable": 11, "numbikesavailable": 16, "mechanical": 13, "ebike": 3, "is_renting": "OUI", "is_returning": "OUI", "duedate": "2024-06-14T18:48:24+00:00", "coordonnees_geo": {"lon": 2.2889783978462224, "lat": 48.93159430558871}, "nom_arrondissement_communes": "Gennevilliers", "code_insee_commune": null}, {"stationcode": "92001", "name": "Mairie de quartier du Plateau - Mont-Val\u00e9rien", "is_installed": "OUI", "capacity": 20, "numdocksavailable": 16, "numbikesavailable": 4, "mechanical": 0, "ebike": 4, "is_renting": "OUI", "is_returning": "OUI", "duedate": "2024-06-14T18:41:09+00:00", "coordonnees_geo": {"lon": 2.2072437, "lat": 48.8799933}, "nom_arrondissement_communes": "Nanterre", "code_insee_commune": null}, {"stationcode": "43010", "name": "La Jarry - Place Diderot", "is_installed": "OUI", "capacity": 25, "numdocksavailable": 19, "numbikesavailable": 6, "mechanical": 5, "ebike": 1, "is_renting": "OUI", "is_returning": "OUI", "duedate": "2024-06-14T18:45:19+00:00", "coordonnees_geo": {"lon": 2.452013790607453, "lat": 48.849726940367326}, "nom_arrondissement_communes": "Vincennes", "code_insee_commune": null}, {"stationcode": "17107", "name": "Berthier - Place Stuart Merril", "is_installed": "OUI", "capacity": 37, "numdocksavailable": 31, "numbikesavailable": 4, "mechanical": 0, "ebike": 4, "is_renting": "OUI", "is_returning": "OUI", "duedate": "2024-06-14T18:43:57+00:00", "coordonnees_geo": {"lon": 2.2933450341224675, "lat": 48.885927922355044}, "nom_arrondissement_communes": "Paris", "code_insee_commune": null}, {"stationcode": "16002", "name": "Pergol\u00e8se - Malakoff", "is_installed": "OUI", "capacity": 38, "numdocksavailable": 35, "numbikesavailable": 1, "mechanical": 0, "ebike": 1, "is_renting": "OUI", "is_returning": "OUI", "duedate": "2024-06-14T18:50:11+00:00", "coordonnees_geo": {"lon": 2.2842781618237495, "lat": 48.87521088779225}, "nom_arrondissement_communes": "Paris", "code_insee_commune": null}, {"stationcode": "6027", "name": "Blaise-Desgoffe - Vaugirard", "is_installed": "OUI", "capacity": 32, "numdocksavailable": 21, "numbikesavailable": 10, "mechanical": 5, "ebike": 5, "is_renting": "OUI", "is_returning": "OUI", "duedate": "2024-06-14T18:47:33+00:00", "coordonnees_geo": {"lon": 2.3242672160268, "lat": 48.846128877747}, "nom_arrondissement_communes": "Paris", "code_insee_commune": null}, {"stationcode": "15005", "name": "Place Jacques et Th\u00e9r\u00e8se Tr\u00e9fou\u00ebl", "is_installed": "OUI", "capacity": 43, "numdocksavailable": 30, "numbikesavailable": 10, "mechanical": 4, "ebike": 6, "is_renting": "OUI", "is_returning": "OUI", "duedate": "2024-06-14T18:48:38+00:00", "coordonnees_geo": {"lon": 2.3125657439232, "lat": 48.842726498317}, "nom_arrondissement_communes": "Paris", "code_insee_commune": null}, {"stationcode": "21401", "name": "Mairie de Clamart", "is_installed": "OUI", "capacity": 33, "numdocksavailable": 26, "numbikesavailable": 5, "mechanical": 1, "ebike": 4, "is_renting": "OUI", "is_returning": "OUI", "duedate": "2024-06-14T18:41:26+00:00", "coordonnees_geo": {"lon": 2.262151, "lat": 48.800612}, "nom_arrondissement_communes": "Clamart", "code_insee_commune": null}, {"stationcode": "13044", "name": "Place Jeanne d'Arc", "is_installed": "OUI", "capacity": 36, "numdocksavailable": 31, "numbikesavailable": 4, "mechanical": 1, "ebike": 3, "is_renting": "OUI", "is_returning": "OUI", "duedate": "2024-06-14T18:47:31+00:00", "coordonnees_geo": {"lon": 2.369126, "lat": 48.829575}, "nom_arrondissement_communes": "Paris", "code_insee_commune": null}, {"stationcode": "9027", "name": "Douai - Pierre Fontaine", "is_installed": "OUI", "capacity": 25, "numdocksavailable": 20, "numbikesavailable": 5, "mechanical": 1, "ebike": 4, "is_renting": "OUI", "is_returning": "OUI", "duedate": "2024-06-14T18:46:26+00:00", "coordonnees_geo": {"lon": 2.33324121683836, "lat": 48.88229101148092}, "nom_arrondissement_communes": "Paris", "code_insee_commune": null}, {"stationcode": "4020", "name": "Place Edmond Michelet", "is_installed": "OUI", "capacity": 23, "numdocksavailable": 3, "numbikesavailable": 20, "mechanical": 16, "ebike": 4, "is_renting": "OUI", "is_returning": "OUI", "duedate": "2024-06-14T18:49:05+00:00", "coordonnees_geo": {"lon": 2.3500636965036, "lat": 48.860134890542}, "nom_arrondissement_communes": "Paris", "code_insee_commune": null}, {"stationcode": "11017", "name": "Charonne - Bureau", "is_installed": "OUI", "capacity": 47, "numdocksavailable": 35, "numbikesavailable": 11, "mechanical": 5, "ebike": 6, "is_renting": "OUI", "is_returning": "OUI", "duedate": "2024-06-14T18:48:00+00:00", "coordonnees_geo": {"lon": 2.396093, "lat": 48.854176}, "nom_arrondissement_communes": "Paris", "code_insee_commune": null}, {"stationcode": "7017", "name": "La Motte-Picquet - La Tour Maubourg", "is_installed": "OUI", "capacity": 40, "numdocksavailable": 17, "numbikesavailable": 20, "mechanical": 13, "ebike": 7, "is_renting": "OUI", "is_returning": "OUI", "duedate": "2024-06-14T18:49:24+00:00", "coordonnees_geo": {"lon": 2.3096215831203, "lat": 48.856926701847}, "nom_arrondissement_communes": "Paris", "code_insee_commune": null}, {"stationcode": "15311", "name": "Quai du Pr\u00e9sident Roosevelt - Pont Aval", "is_installed": "OUI", "capacity": 30, "numdocksavailable": 13, "numbikesavailable": 17, "mechanical": 14, "ebike": 3, "is_renting": "OUI", "is_returning": "OUI", "duedate": "2024-06-14T18:49:05+00:00", "coordonnees_geo": {"lon": 2.2656820714473724, "lat": 48.8343883676388}, "nom_arrondissement_communes": "Paris", "code_insee_commune": null}, {"stationcode": "35006", "name": "Delizy - Louis Nadot", "is_installed": "OUI", "capacity": 22, "numdocksavailable": 11, "numbikesavailable": 10, "mechanical": 2, "ebike": 8, "is_renting": "OUI", "is_returning": "OUI", "duedate": "2024-06-14T18:49:32+00:00", "coordonnees_geo": {"lon": 2.4094578623771667, "lat": 48.896212845581346}, "nom_arrondissement_communes": "Pantin", "code_insee_commune": null}, {"stationcode": "41205", "name": "Mar\u00e9chal Joffre - Verdun", "is_installed": "OUI", "capacity": 20, "numdocksavailable": 11, "numbikesavailable": 8, "mechanical": 0, "ebike": 8, "is_renting": "OUI", "is_returning": "OUI", "duedate": "2024-06-14T18:48:29+00:00", "coordonnees_geo": {"lon": 2.470307, "lat": 48.85385}, "nom_arrondissement_communes": "Fontenay-sous-Bois", "code_insee_commune": null}, {"stationcode": "17111", "name": "Lemercier - Cardinet", "is_installed": "OUI", "capacity": 24, "numdocksavailable": 14, "numbikesavailable": 9, "mechanical": 4, "ebike": 5, "is_renting": "OUI", "is_returning": "OUI", "duedate": "2024-06-14T18:50:21+00:00", "coordonnees_geo": {"lon": 2.317377626895905, "lat": 48.890097168851746}, "nom_arrondissement_communes": "Paris", "code_insee_commune": null}, {"stationcode": "44016", "name": "Balzac - Olympes de Gouges", "is_installed": "OUI", "capacity": 28, "numdocksavailable": 7, "numbikesavailable": 20, "mechanical": 9, "ebike": 11, "is_renting": "OUI", "is_returning": "OUI", "duedate": "2024-06-14T18:47:26+00:00", "coordonnees_geo": {"lon": 2.4006786569952965, "lat": 48.77850332486751}, "nom_arrondissement_communes": "Vitry-sur-Seine", "code_insee_commune": null}, {"stationcode": "15011", "name": "Cambronne - Villa Croix Nivert", "is_installed": "OUI", "capacity": 62, "numdocksavailable": 43, "numbikesavailable": 19, "mechanical": 9, "ebike": 10, "is_renting": "OUI", "is_returning": "OUI", "duedate": "2024-06-14T18:47:50+00:00", "coordonnees_geo": {"lon": 2.3017574474216, "lat": 48.845847561366}, "nom_arrondissement_communes": "Paris", "code_insee_commune": null}, {"stationcode": "51002", "name": "Placette Gr\u00e9goire Collas", "is_installed": "OUI", "capacity": 25, "numdocksavailable": 17, "numbikesavailable": 8, "mechanical": 3, "ebike": 5, "is_renting": "OUI", "is_returning": "OUI", "duedate": "2024-06-14T18:49:15+00:00", "coordonnees_geo": {"lon": 2.2487476095557213, "lat": 48.94342014002797}, "nom_arrondissement_communes": "Argenteuil", "code_insee_commune": null}, {"stationcode": "4021", "name": "Centre Georges Pompidou", "is_installed": "OUI", "capacity": 26, "numdocksavailable": 11, "numbikesavailable": 14, "mechanical": 9, "ebike": 5, "is_renting": "OUI", "is_returning": "OUI", "duedate": "2024-06-14T18:50:28+00:00", "coordonnees_geo": {"lon": 2.352581, "lat": 48.861419}, "nom_arrondissement_communes": "Paris", "code_insee_commune": null}, {"stationcode": "32601", "name": "Porte des Lilas - Faidherbe", "is_installed": "OUI", "capacity": 39, "numdocksavailable": 32, "numbikesavailable": 7, "mechanical": 0, "ebike": 7, "is_renting": "OUI", "is_returning": "OUI", "duedate": "2024-06-14T18:47:32+00:00", "coordonnees_geo": {"lon": 2.4120327830314636, "lat": 48.87861855668978}, "nom_arrondissement_communes": "Les Lilas", "code_insee_commune": null}, {"stationcode": "33016", "name": "Fort d'Aubervilliers", "is_installed": "OUI", "capacity": 22, "numdocksavailable": 3, "numbikesavailable": 17, "mechanical": 12, "ebike": 5, "is_renting": "OUI", "is_returning": "OUI", "duedate": "2024-06-14T18:48:09+00:00", "coordonnees_geo": {"lon": 2.4035281687974925, "lat": 48.91502382370325}, "nom_arrondissement_communes": "Aubervilliers", "code_insee_commune": null}, {"stationcode": "17123", "name": "Mstislav Rostropovitch - Berthier", "is_installed": "OUI", "capacity": 18, "numdocksavailable": 13, "numbikesavailable": 5, "mechanical": 1, "ebike": 4, "is_renting": "OUI", "is_returning": "OUI", "duedate": "2024-06-14T18:47:11+00:00", "coordonnees_geo": {"lon": 2.309234105050564, "lat": 48.892120821173975}, "nom_arrondissement_communes": "Paris", "code_insee_commune": null}, {"stationcode": "6012", "name": "Saint-Germain - Ciseaux", "is_installed": "OUI", "capacity": 18, "numdocksavailable": 5, "numbikesavailable": 13, "mechanical": 11, "ebike": 2, "is_renting": "OUI", "is_returning": "OUI", "duedate": "2024-06-14T18:48:26+00:00", "coordonnees_geo": {"lon": 2.3344654618827, "lat": 48.853305277595}, "nom_arrondissement_communes": "Paris", "code_insee_commune": null}, {"stationcode": "15071", "name": "Suffren - Champ de Mars", "is_installed": "OUI", "capacity": 23, "numdocksavailable": 19, "numbikesavailable": 3, "mechanical": 1, "ebike": 2, "is_renting": "OUI", "is_returning": "OUI", "duedate": "2024-06-14T18:45:58+00:00", "coordonnees_geo": {"lon": 2.2952168, "lat": 48.8547194}, "nom_arrondissement_communes": "Paris", "code_insee_commune": null}, {"stationcode": "8201", "name": "Ars\u00e8ne Houssaye - Friedland", "is_installed": "OUI", "capacity": 29, "numdocksavailable": 29, "numbikesavailable": 0, "mechanical": 0, "ebike": 0, "is_renting": "OUI", "is_returning": "OUI", "duedate": "2024-06-14T18:44:19+00:00", "coordonnees_geo": {"lon": 2.2994716674148, "lat": 48.874510616163}, "nom_arrondissement_communes": "Paris", "code_insee_commune": null}, {"stationcode": "10162", "name": "Alexandre Parodi - Quai de Valmy", "is_installed": "OUI", "capacity": 24, "numdocksavailable": 14, "numbikesavailable": 8, "mechanical": 2, "ebike": 6, "is_renting": "OUI", "is_returning": "OUI", "duedate": "2024-06-14T18:50:06+00:00", "coordonnees_geo": {"lon": 2.3665961623192, "lat": 48.879359419425}, "nom_arrondissement_communes": "Paris", "code_insee_commune": null}, {"stationcode": "21319", "name": "Esplanade du Foncet - Camille Desmoulins", "is_installed": "OUI", "capacity": 28, "numdocksavailable": 13, "numbikesavailable": 15, "mechanical": 15, "ebike": 0, "is_renting": "OUI", "is_returning": "OUI", "duedate": "2024-06-14T18:50:20+00:00", "coordonnees_geo": {"lon": 2.2606857866048813, "lat": 48.827090233494964}, "nom_arrondissement_communes": "Issy-les-Moulineaux", "code_insee_commune": null}, {"stationcode": "18030", "name": "Joseph Dijon - Ornano", "is_installed": "OUI", "capacity": 37, "numdocksavailable": 26, "numbikesavailable": 9, "mechanical": 7, "ebike": 2, "is_renting": "OUI", "is_returning": "OUI", "duedate": "2024-06-14T18:48:50+00:00", "coordonnees_geo": {"lon": 2.3476678133010864, "lat": 48.89374453351521}, "nom_arrondissement_communes": "Paris", "code_insee_commune": null}, {"stationcode": "92006", "name": "Place Nelson Mandela", "is_installed": "OUI", "capacity": 30, "numdocksavailable": 28, "numbikesavailable": 0, "mechanical": 0, "ebike": 0, "is_renting": "OUI", "is_returning": "OUI", "duedate": "2024-06-14T18:50:29+00:00", "coordonnees_geo": {"lon": 2.2182820737361912, "lat": 48.897874318180556}, "nom_arrondissement_communes": "Nanterre", "code_insee_commune": null}, {"stationcode": "5024", "name": "Place Monge", "is_installed": "OUI", "capacity": 21, "numdocksavailable": 8, "numbikesavailable": 12, "mechanical": 7, "ebike": 5, "is_renting": "OUI", "is_returning": "OUI", "duedate": "2024-06-14T18:47:57+00:00", "coordonnees_geo": {"lon": 2.3524079471827, "lat": 48.842761803051}, "nom_arrondissement_communes": "Paris", "code_insee_commune": null}, {"stationcode": "31005", "name": "Square Denise Buisson", "is_installed": "OUI", "capacity": 45, "numdocksavailable": 35, "numbikesavailable": 7, "mechanical": 2, "ebike": 5, "is_renting": "OUI", "is_returning": "OUI", "duedate": "2024-06-14T18:49:25+00:00", "coordonnees_geo": {"lon": 2.426436245441437, "lat": 48.8562322730982}, "nom_arrondissement_communes": "Montreuil", "code_insee_commune": null}, {"stationcode": "21314", "name": "Chemin de Bretagne", "is_installed": "OUI", "capacity": 29, "numdocksavailable": 13, "numbikesavailable": 16, "mechanical": 13, "ebike": 3, "is_renting": "OUI", "is_returning": "OUI", "duedate": "2024-06-14T18:49:32+00:00", "coordonnees_geo": {"lon": 2.2588385956052, "lat": 48.824753068884}, "nom_arrondissement_communes": "Issy-les-Moulineaux", "code_insee_commune": null}, {"stationcode": "12005", "name": "Crozatier - Faubourg Saint-Antoine", "is_installed": "OUI", "capacity": 42, "numdocksavailable": 0, "numbikesavailable": 39, "mechanical": 32, "ebike": 7, "is_renting": "OUI", "is_returning": "OUI", "duedate": "2024-06-14T18:48:03+00:00", "coordonnees_geo": {"lon": 2.378901366211, "lat": 48.850440013405}, "nom_arrondissement_communes": "Paris", "code_insee_commune": null}, {"stationcode": "13516", "name": "Glaci\u00e8re - Soeur Catherine Marie", "is_installed": "OUI", "capacity": 40, "numdocksavailable": 29, "numbikesavailable": 11, "mechanical": 8, "ebike": 3, "is_renting": "OUI", "is_returning": "OUI", "duedate": "2024-06-14T18:49:29+00:00", "coordonnees_geo": {"lon": 2.343570403754711, "lat": 48.829522989420596}, "nom_arrondissement_communes": "Paris", "code_insee_commune": null}, {"stationcode": "12155", "name": "Rottembourg - G\u00e9n\u00e9ral Michel Bizot", "is_installed": "OUI", "capacity": 43, "numdocksavailable": 11, "numbikesavailable": 32, "mechanical": 28, "ebike": 4, "is_renting": "OUI", "is_returning": "OUI", "duedate": "2024-06-14T18:49:49+00:00", "coordonnees_geo": {"lon": 2.4044052511453633, "lat": 48.83787825992554}, "nom_arrondissement_communes": "Paris", "code_insee_commune": null}, {"stationcode": "9011", "name": "Geoffroy - Marie", "is_installed": "OUI", "capacity": 20, "numdocksavailable": 16, "numbikesavailable": 3, "mechanical": 0, "ebike": 3, "is_renting": "OUI", "is_returning": "OUI", "duedate": "2024-06-14T18:49:38+00:00", "coordonnees_geo": {"lon": 2.344513876337893, "lat": 48.873781940593325}, "nom_arrondissement_communes": "Paris", "code_insee_commune": null}, {"stationcode": "13025", "name": "Place de Rungis", "is_installed": "OUI", "capacity": 32, "numdocksavailable": 14, "numbikesavailable": 15, "mechanical": 13, "ebike": 2, "is_renting": "OUI", "is_returning": "OUI", "duedate": "2024-06-14T18:50:30+00:00", "coordonnees_geo": {"lon": 2.347382729482953, "lat": 48.82245594764965}, "nom_arrondissement_communes": "Paris", "code_insee_commune": null}, {"stationcode": "12028", "name": "Vivaldi - Antoine-Julien H\u00e9nard", "is_installed": "OUI", "capacity": 27, "numdocksavailable": 16, "numbikesavailable": 10, "mechanical": 6, "ebike": 4, "is_renting": "OUI", "is_returning": "OUI", "duedate": "2024-06-14T18:48:12+00:00", "coordonnees_geo": {"lon": 2.389728979467376, "lat": 48.841923663276546}, "nom_arrondissement_communes": "Paris", "code_insee_commune": null}, {"stationcode": "9034", "name": "Godot de Mauroy - Madeleine", "is_installed": "OUI", "capacity": 22, "numdocksavailable": 9, "numbikesavailable": 12, "mechanical": 11, "ebike": 1, "is_renting": "OUI", "is_returning": "OUI", "duedate": "2024-06-14T18:07:28+00:00", "coordonnees_geo": {"lon": 2.326347, "lat": 48.869789}, "nom_arrondissement_communes": "Paris", "code_insee_commune": null}]