[{"stationcode": "1017", "name": "Saint-Honor\u00e9 - 29 juillet", "is_installed": "OUI", "capacity": 20, "numdocksavailable": 8, "numbikesavailable": 12, "mechanical": 10, "ebike": 2, "is_renting": "OUI", "is_returning": "OUI", "duedate": "2024-06-16T05:52:32+00:00", "coordonnees_geo": {"lon": 2.330567417577153, "lat": 48.86557114282421}, "nom_arrondissement_communes": "Paris", "code_insee_commune": null}, {"stationcode": "6201", "name": "Saint P\u00e8res - Saint Germain", "is_installed": "OUI", "capacity": 22, "numdocksavailable": 5, "numbikesavailable": 17, "mechanical": 17, "ebike": 0, "is_renting": "OUI", "is_returning": "OUI", "duedate": "2024-06-16T05:54:39+00:00", "coordonnees_geo": {"lon": 2.3300181032703, "lat": 48.853729675265}, "nom_arrondissement_communes": "Paris", "code_insee_commune": null}, {"stationcode": "6026", "name": "Saint-Placide - Cherche Midi", "is_installed": "OUI", "capacity": 66, "numdocksavailable": 43, "numbikesavailable": 22, "mechanical": 15, "ebike": 7, "is_renting": "OUI", "is_returning": "OUI", "duedate": "2024-06-16T05:52:55+00:00", "coordonnees_geo": {"lon": 2.325317971408367, "lat": 48.8490535919234}, "nom_arrondissement_communes": "Paris", "code_insee_commune": null}, {"stationcode": "22601", "name": "Marx Dormoy - Ch\u00e2teau Sainte-Barbe", "is_installed": "OUI", "capacity": 22, "numdocksavailable": 18, "numbikesavailable": 3, "mechanical": 1, "ebike": 2, "is_renting": "OUI", "is_returning": "OUI", "duedate": "2024-06-16T05:52:11+00:00", "coordonnees_geo": {"lon": 2.297856844961643, "lat": 48.791782341055324}, "nom_arrondissement_communes": "Fontenay-aux-Roses", "code_insee_commune": null}, {"stationcode": "1023", "name": "Saint-Honor\u00e9 - Mus\u00e9e du Louvre", "is_installed": "OUI", "capacity": 22, "numdocksavailable": 16, "numbikesavailable": 4, "mechanical": 2, "ebike": 2, "is_renting": "OUI", "is_returning": "OUI", "duedate": "2024-06-16T05:50:08+00:00", "coordonnees_geo": {"lon": 2.3348781846405, "lat": 48.863443132848}, "nom_arrondissement_communes": "Paris", "code_insee_commune": null}, {"stationcode": "5003", "name": "Le Goff - Gay-Lussac", "is_installed": "OUI", "capacity": 35, "numdocksavailable": 18, "numbikesavailable": 17, "mechanical": 13, "ebike": 4, "is_renting": "OUI", "is_returning": "OUI", "duedate": "2024-06-16T05:46:54+00:00", "coordonnees_geo": {"lon": 2.3412207886576653, "lat": 48.8461024009786}, "nom_arrondissement_communes": "Paris", "code_insee_commune": null}, {"stationcode": "14201", "name": "Decr\u00e8s - Al\u00e9sia", "is_installed": "OUI", "capacity": 30, "numdocksavailable": 23, "numbikesavailable": 7, "mechanical": 1, "ebike": 6, "is_renting": "OUI", "is_returning": "OUI", "duedate": "2024-06-16T05:52:51+00:00", "coordonnees_geo": {"lon": 2.3139070151575, "lat": 48.832200060759}, "nom_arrondissement_communes": "Paris", "code_insee_commune": null}, {"stationcode": "3007", "name": "Archives - Pastourelle", "is_installed": "OUI", "capacity": 28, "numdocksavailable": 15, "numbikesavailable": 9, "mechanical": 8, "ebike": 1, "is_renting": "OUI", "is_returning": "OUI", "duedate": "2024-06-16T05:46:45+00:00", "coordonnees_geo": {"lon": 2.3595041, "lat": 48.8623615}, "nom_arrondissement_communes": "Paris", "code_insee_commune": null}, {"stationcode": "28005", "name": "Jean Jaur\u00e8s - Paul Lafargue", "is_installed": "OUI", "capacity": 28, "numdocksavailable": 13, "numbikesavailable": 14, "mechanical": 6, "ebike": 8, "is_renting": "OUI", "is_returning": "OUI", "duedate": "2024-06-16T05:54:34+00:00", "coordonnees_geo": {"lon": 2.2484488785267, "lat": 48.884933177666}, "nom_arrondissement_communes": "Puteaux", "code_insee_commune": null}, {"stationcode": "18112", "name": "Arthur Ranc - H\u00f4pital Bichat", "is_installed": "OUI", "capacity": 26, "numdocksavailable": 19, "numbikesavailable": 7, "mechanical": 2, "ebike": 5, "is_renting": "OUI", "is_returning": "OUI", "duedate": "2024-06-16T05:53:25+00:00", "coordonnees_geo": {"lon": 2.333521842956543, "lat": 48.8978712500682}, "nom_arrondissement_communes": "Paris", "code_insee_commune": null}, {"stationcode": "42028", "name": "Verdun - Carnot", "is_installed": "OUI", "capacity": 28, "numdocksavailable": 12, "numbikesavailable": 15, "mechanical": 4, "ebike": 11, "is_renting": "OUI", "is_returning": "OUI", "duedate": "2024-06-16T05:54:24+00:00", "coordonnees_geo": {"lon": 2.373795211315155, "lat": 48.808439376064946}, "nom_arrondissement_communes": "Ivry-sur-Seine", "code_insee_commune": null}, {"stationcode": "2109", "name": "R\u00e9aumur - Montmartre", "is_installed": "OUI", "capacity": 19, "numdocksavailable": 16, "numbikesavailable": 3, "mechanical": 0, "ebike": 3, "is_renting": "OUI", "is_returning": "OUI", "duedate": "2024-06-16T05:52:02+00:00", "coordonnees_geo": {"lon": 2.3438260338876, "lat": 48.868230999759}, "nom_arrondissement_communes": "Paris", "code_insee_commune": null}, {"stationcode": "16010", "name": "Belles Feuilles - Place de Mexico", "is_installed": "OUI", "capacity": 23, "numdocksavailable": 21, "numbikesavailable": 2, "mechanical": 2, "ebike": 0, "is_renting": "OUI", "is_returning": "OUI", "duedate": "2024-06-16T05:46:11+00:00", "coordonnees_geo": {"lon": 2.2829206287861, "lat": 48.865804746474}, "nom_arrondissement_communes": "Paris", "code_insee_commune": null}, {"stationcode": "19046", "name": "Porte de Pantin.", "is_installed": "OUI", "capacity": 33, "numdocksavailable": 31, "numbikesavailable": 1, "mechanical": 0, "ebike": 1, "is_renting": "OUI", "is_returning": "OUI", "duedate": "2024-06-16T05:45:40+00:00", "coordonnees_geo": {"lon": 2.3950181901455, "lat": 48.889199725577}, "nom_arrondissement_communes": "Paris", "code_insee_commune": null}, {"stationcode": "32022", "name": "Henri Barbusse - Marcel Cachin", "is_installed": "OUI", "capacity": 37, "numdocksavailable": 12, "numbikesavailable": 25, "mechanical": 5, "ebike": 20, "is_renting": "OUI", "is_returning": "OUI", "duedate": "2024-06-16T05:53:57+00:00", "coordonnees_geo": {"lon": 2.3720374971659, "lat": 48.93742089281}, "nom_arrondissement_communes": "Saint-Denis", "code_insee_commune": null}, {"stationcode": "1008", "name": "Les Halles - Saint-Eustache", "is_installed": "OUI", "capacity": 32, "numdocksavailable": 20, "numbikesavailable": 11, "mechanical": 10, "ebike": 1, "is_renting": "OUI", "is_returning": "OUI", "duedate": "2024-06-16T05:47:42+00:00", "coordonnees_geo": {"lon": 2.342623919248581, "lat": 48.86362695901683}, "nom_arrondissement_communes": "Paris", "code_insee_commune": null}, {"stationcode": "9019", "name": "Victor Mass\u00e9 - Jean-Baptiste Pigalle", "is_installed": "OUI", "capacity": 18, "numdocksavailable": 15, "numbikesavailable": 3, "mechanical": 1, "ebike": 2, "is_renting": "OUI", "is_returning": "OUI", "duedate": "2024-06-16T05:52:39+00:00", "coordonnees_geo": {"lon": 2.3366955667734, "lat": 48.8811043724}, "nom_arrondissement_communes": "Paris", "code_insee_commune": null}, {"stationcode": "44004", "name": "Place de l'Eglise - Vitry-sur-Seine", "is_installed": "OUI", "capacity": 28, "numdocksavailable": 2, "numbikesavailable": 26, "mechanical": 11, "ebike": 15, "is_renting": "OUI", "is_returning": "OUI", "duedate": "2024-06-16T05:54:23+00:00", "coordonnees_geo": {"lon": 2.395057752728462, "lat": 48.791922819921815}, "nom_arrondissement_communes": "Vitry-sur-Seine", "code_insee_commune": null}, {"stationcode": "13202", "name": "Place Farhat Hached", "is_installed": "OUI", "capacity": 28, "numdocksavailable": 24, "numbikesavailable": 3, "mechanical": 2, "ebike": 1, "is_renting": "OUI", "is_returning": "OUI", "duedate": "2024-06-16T05:53:05+00:00", "coordonnees_geo": {"lon": 2.3819742271533, "lat": 48.825806194537}, "nom_arrondissement_communes": "Paris", "code_insee_commune": null}, {"stationcode": "6029", "name": "Vaugirard - Monsieur le Prince", "is_installed": "OUI", "capacity": 26, "numdocksavailable": 23, "numbikesavailable": 2, "mechanical": 1, "ebike": 1, "is_renting": "OUI", "is_returning": "OUI", "duedate": "2024-06-16T05:54:07+00:00", "coordonnees_geo": {"lon": 2.3411329463124, "lat": 48.848951441614}, "nom_arrondissement_communes": "Paris", "code_insee_commune": null}, {"stationcode": "12202", "name": "Charenton - Wattignies", "is_installed": "OUI", "capacity": 40, "numdocksavailable": 12, "numbikesavailable": 27, "mechanical": 23, "ebike": 4, "is_renting": "OUI", "is_returning": "OUI", "duedate": "2024-06-16T05:52:49+00:00", "coordonnees_geo": {"lon": 2.3916775206425, "lat": 48.836919119234}, "nom_arrondissement_communes": "Paris", "code_insee_commune": null}, {"stationcode": "20010", "name": "Sorbier - Gasnier-Guy", "is_installed": "OUI", "capacity": 34, "numdocksavailable": 15, "numbikesavailable": 18, "mechanical": 14, "ebike": 4, "is_renting": "OUI", "is_returning": "OUI", "duedate": "2024-06-16T05:54:38+00:00", "coordonnees_geo": {"lon": 2.39365965127945, "lat": 48.86521763101122}, "nom_arrondissement_communes": "Paris", "code_insee_commune": null}, {"stationcode": "23301", "name": "Les Blagis", "is_installed": "OUI", "capacity": 27, "numdocksavailable": 1, "numbikesavailable": 26, "mechanical": 20, "ebike": 6, "is_renting": "OUI", "is_returning": "OUI", "duedate": "2024-06-16T05:53:39+00:00", "coordonnees_geo": {"lon": 2.302526, "lat": 48.785205}, "nom_arrondissement_communes": "Sceaux", "code_insee_commune": null}, {"stationcode": "42210", "name": "Victor Hugo - Paul Eluard", "is_installed": "OUI", "capacity": 32, "numdocksavailable": 5, "numbikesavailable": 27, "mechanical": 21, "ebike": 6, "is_renting": "OUI", "is_returning": "OUI", "duedate": "2024-06-16T05:49:57+00:00", "coordonnees_geo": {"lon": 2.4114319673051, "lat": 48.819602554907}, "nom_arrondissement_communes": "Charenton-le-Pont", "code_insee_commune": null}, {"stationcode": "34013", "name": "Blanqui - Docteur Bauer", "is_installed": "OUI", "capacity": 28, "numdocksavailable": 8, "numbikesavailable": 19, "mechanical": 6, "ebike": 13, "is_renting": "OUI", "is_returning": "OUI", "duedate": "2024-06-16T05:54:25+00:00", "coordonnees_geo": {"lon": 2.3407192814591, "lat": 48.907735489085}, "nom_arrondissement_communes": "Saint-Ouen-sur-Seine", "code_insee_commune": null}, {"stationcode": "44008", "name": "Youri Gagarine - Commune de Paris", "is_installed": "OUI", "capacity": 33, "numdocksavailable": 6, "numbikesavailable": 26, "mechanical": 9, "ebike": 17, "is_renting": "OUI", "is_returning": "OUI", "duedate": "2024-06-16T05:54:26+00:00", "coordonnees_geo": {"lon": 2.3939734697342, "lat": 48.782427463041}, "nom_arrondissement_communes": "Vitry-sur-Seine", "code_insee_commune": null}, {"stationcode": "48012", "name": "Stalingrad - Henri Luisette", "is_installed": "OUI", "capacity": 26, "numdocksavailable": 0, "numbikesavailable": 26, "mechanical": 1, "ebike": 25, "is_renting": "OUI", "is_returning": "OUI", "duedate": "2024-06-16T05:52:47+00:00", "coordonnees_geo": {"lon": 2.366935946761926, "lat": 48.78363092456589}, "nom_arrondissement_communes": "Villejuif", "code_insee_commune": null}, {"stationcode": "23303", "name": "Gare de Robinson", "is_installed": "OUI", "capacity": 30, "numdocksavailable": 25, "numbikesavailable": 5, "mechanical": 4, "ebike": 1, "is_renting": "OUI", "is_returning": "OUI", "duedate": "2024-06-16T05:48:32+00:00", "coordonnees_geo": {"lon": 2.281828634440899, "lat": 48.7799259211605}, "nom_arrondissement_communes": "Sceaux", "code_insee_commune": null}, {"stationcode": "20048", "name": "Bagnolet - Place Saint-Blaise", "is_installed": "OUI", "capacity": 28, "numdocksavailable": 26, "numbikesavailable": 2, "mechanical": 1, "ebike": 1, "is_renting": "OUI", "is_returning": "OUI", "duedate": "2024-06-16T05:49:54+00:00", "coordonnees_geo": {"lon": 2.40334, "lat": 48.85973}, "nom_arrondissement_communes": "Paris", "code_insee_commune": null}, {"stationcode": "23202", "name": "Henri Barbusse - Gabriel P\u00e9ri", "is_installed": "OUI", "capacity": 27, "numdocksavailable": 16, "numbikesavailable": 11, "mechanical": 0, "ebike": 11, "is_renting": "OUI", "is_returning": "OUI", "duedate": "2024-06-16T05:51:06+00:00", "coordonnees_geo": {"lon": 2.2874166362216, "lat": 48.801773795836}, "nom_arrondissement_communes": "Ch\u00e2tillon", "code_insee_commune": null}, {"stationcode": "13049", "name": "Vincent Auriol - Louise Weiss", "is_installed": "OUI", "capacity": 22, "numdocksavailable": 11, "numbikesavailable": 10, "mechanical": 9, "ebike": 1, "is_renting": "OUI", "is_returning": "OUI", "duedate": "2024-06-16T05:51:48+00:00", "coordonnees_geo": {"lon": 2.3703888058662, "lat": 48.834001935501}, "nom_arrondissement_communes": "Paris", "code_insee_commune": null}, {"stationcode": "13051", "name": "Halle Freyssinet - Parvis Alan Turing", "is_installed": "OUI", "capacity": 23, "numdocksavailable": 22, "numbikesavailable": 1, "mechanical": 1, "ebike": 0, "is_renting": "OUI", "is_returning": "OUI", "duedate": "2024-06-16T05:51:48+00:00", "coordonnees_geo": {"lon": 2.3711421713233, "lat": 48.832846814471}, "nom_arrondissement_communes": "Paris", "code_insee_commune": null}, {"stationcode": "17202", "name": "Mariotte - Batignolles", "is_installed": "OUI", "capacity": 20, "numdocksavailable": 16, "numbikesavailable": 4, "mechanical": 3, "ebike": 1, "is_renting": "OUI", "is_returning": "OUI", "duedate": "2024-06-16T05:52:24+00:00", "coordonnees_geo": {"lon": 2.321469503475, "lat": 48.884571659595}, "nom_arrondissement_communes": "Paris", "code_insee_commune": null}, {"stationcode": "8202", "name": "Londres - Europe", "is_installed": "OUI", "capacity": 27, "numdocksavailable": 21, "numbikesavailable": 5, "mechanical": 2, "ebike": 3, "is_renting": "OUI", "is_returning": "OUI", "duedate": "2024-06-16T05:47:09+00:00", "coordonnees_geo": {"lon": 2.3248164693922, "lat": 48.878618556803}, "nom_arrondissement_communes": "Paris", "code_insee_commune": null}, {"stationcode": "23206", "name": "B\u00e9ranger - F\u00e9lix Faure", "is_installed": "OUI", "capacity": 28, "numdocksavailable": 26, "numbikesavailable": 2, "mechanical": 1, "ebike": 1, "is_renting": "OUI", "is_returning": "OUI", "duedate": "2024-06-16T05:44:41+00:00", "coordonnees_geo": {"lon": 2.2848263373723436, "lat": 48.80404828621485}, "nom_arrondissement_communes": "Ch\u00e2tillon", "code_insee_commune": null}, {"stationcode": "18010", "name": "Riquet - Marx Dormoy", "is_installed": "OUI", "capacity": 26, "numdocksavailable": 26, "numbikesavailable": 0, "mechanical": 0, "ebike": 0, "is_renting": "NON", "is_returning": "NON", "duedate": "2023-08-08T15:42:30+00:00", "coordonnees_geo": {"lon": 2.3601756244898, "lat": 48.89021003702}, "nom_arrondissement_communes": "Paris", "code_insee_commune": null}, {"stationcode": "42030", "name": "St\u00e9phanie Bouvard - Gambetta", "is_installed": "OUI", "capacity": 30, "numdocksavailable": 12, "numbikesavailable": 17, "mechanical": 12, "ebike": 5, "is_renting": "OUI", "is_returning": "OUI", "duedate": "2024-06-16T05:51:48+00:00", "coordonnees_geo": {"lon": 2.4024386957288, "lat": 48.814548138856}, "nom_arrondissement_communes": "Ivry-sur-Seine", "code_insee_commune": null}, {"stationcode": "23703", "name": "Gare de Chaville Rive Gauche", "is_installed": "OUI", "capacity": 18, "numdocksavailable": 13, "numbikesavailable": 4, "mechanical": 0, "ebike": 4, "is_renting": "OUI", "is_returning": "OUI", "duedate": "2024-06-16T05:49:23+00:00", "coordonnees_geo": {"lon": 2.188277207314968, "lat": 48.80516030434533}, "nom_arrondissement_communes": "Chaville", "code_insee_commune": null}, {"stationcode": "51008", "name": "Martyrs de Ch\u00e2teaubriant - Jean Grandel", "is_installed": "OUI", "capacity": 38, "numdocksavailable": 26, "numbikesavailable": 12, "mechanical": 7, "ebike": 5, "is_renting": "OUI", "is_returning": "OUI", "duedate": "2024-06-16T05:52:11+00:00", "coordonnees_geo": {"lon": 2.211214, "lat": 48.951432}, "nom_arrondissement_communes": "Argenteuil", "code_insee_commune": null}, {"stationcode": "24101", "name": "Place Charles de Gaulle", "is_installed": "OUI", "capacity": 24, "numdocksavailable": 20, "numbikesavailable": 4, "mechanical": 1, "ebike": 3, "is_renting": "OUI", "is_returning": "OUI", "duedate": "2024-06-16T05:50:02+00:00", "coordonnees_geo": {"lon": 2.1894485725692, "lat": 48.826073335699}, "nom_arrondissement_communes": "Ville-d'Avray", "code_insee_commune": null}, {"stationcode": "15203", "name": "Porte de Versailles", "is_installed": "OUI", "capacity": 28, "numdocksavailable": 3, "numbikesavailable": 25, "mechanical": 20, "ebike": 5, "is_renting": "OUI", "is_returning": "OUI", "duedate": "2024-06-16T05:53:37+00:00", "coordonnees_geo": {"lon": 2.2875617349045, "lat": 48.832324016657}, "nom_arrondissement_communes": "Paris", "code_insee_commune": null}, {"stationcode": "25007", "name": "Bons Raisins - Voltaire", "is_installed": "OUI", "capacity": 24, "numdocksavailable": 20, "numbikesavailable": 3, "mechanical": 0, "ebike": 3, "is_renting": "OUI", "is_returning": "OUI", "duedate": "2024-06-16T05:46:54+00:00", "coordonnees_geo": {"lon": 2.1947155570850896, "lat": 48.87282451461399}, "nom_arrondissement_communes": "Rueil-Malmaison", "code_insee_commune": null}, {"stationcode": "19006", "name": "Mathis - Flandre", "is_installed": "OUI", "capacity": 55, "numdocksavailable": 35, "numbikesavailable": 20, "mechanical": 8, "ebike": 12, "is_renting": "OUI", "is_returning": "OUI", "duedate": "2024-06-16T05:53:24+00:00", "coordonnees_geo": {"lon": 2.3762554675340652, "lat": 48.8906429898976}, "nom_arrondissement_communes": "Paris", "code_insee_commune": null}, {"stationcode": "13024", "name": "Bobillot - Tolbiac", "is_installed": "OUI", "capacity": 33, "numdocksavailable": 5, "numbikesavailable": 26, "mechanical": 15, "ebike": 11, "is_renting": "OUI", "is_returning": "OUI", "duedate": "2024-06-16T05:52:38+00:00", "coordonnees_geo": {"lon": 2.350204177200794, "lat": 48.8255961335041}, "nom_arrondissement_communes": "Paris", "code_insee_commune": null}, {"stationcode": "24004", "name": "Paix - Verdun", "is_installed": "OUI", "capacity": 35, "numdocksavailable": 15, "numbikesavailable": 20, "mechanical": 10, "ebike": 10, "is_renting": "OUI", "is_returning": "OUI", "duedate": "2024-06-16T05:54:13+00:00", "coordonnees_geo": {"lon": 2.261173, "lat": 48.900504}, "nom_arrondissement_communes": "Courbevoie", "code_insee_commune": null}, {"stationcode": "13015", "name": "Chevaleret - Louise Weiss", "is_installed": "OUI", "capacity": 35, "numdocksavailable": 21, "numbikesavailable": 14, "mechanical": 12, "ebike": 2, "is_renting": "OUI", "is_returning": "OUI", "duedate": "2024-06-16T05:53:51+00:00", "coordonnees_geo": {"lon": 2.371211388119954, "lat": 48.83258651335057}, "nom_arrondissement_communes": "Paris", "code_insee_commune": null}, {"stationcode": "23041", "name": "G\u00e9n\u00e9ral Leclerc - Bi\u00e8vre", "is_installed": "OUI", "capacity": 25, "numdocksavailable": 20, "numbikesavailable": 5, "mechanical": 2, "ebike": 3, "is_renting": "OUI", "is_returning": "OUI", "duedate": "2024-06-16T05:52:50+00:00", "coordonnees_geo": {"lon": 2.3166695237159733, "lat": 48.782414428747316}, "nom_arrondissement_communes": "Bourg-la-Reine", "code_insee_commune": null}, {"stationcode": "8052", "name": "Balzac - Champs Elys\u00e9es", "is_installed": "OUI", "capacity": 30, "numdocksavailable": 28, "numbikesavailable": 2, "mechanical": 2, "ebike": 0, "is_renting": "OUI", "is_returning": "OUI", "duedate": "2024-06-16T05:48:38+00:00", "coordonnees_geo": {"lon": 2.3001953959465, "lat": 48.872699639621}, "nom_arrondissement_communes": "Paris", "code_insee_commune": null}, {"stationcode": "31104", "name": "Mairie de Rosny-sous-Bois", "is_installed": "OUI", "capacity": 30, "numdocksavailable": 18, "numbikesavailable": 11, "mechanical": 7, "ebike": 4, "is_renting": "OUI", "is_returning": "OUI", "duedate": "2024-06-16T05:47:06+00:00", "coordonnees_geo": {"lon": 2.4865807592869, "lat": 48.871256519012}, "nom_arrondissement_communes": "Rosny-sous-Bois", "code_insee_commune": null}, {"stationcode": "15012", "name": "Cambronne - Mademoiselle", "is_installed": "OUI", "capacity": 67, "numdocksavailable": 35, "numbikesavailable": 32, "mechanical": 25, "ebike": 7, "is_renting": "OUI", "is_returning": "OUI", "duedate": "2024-06-16T05:54:08+00:00", "coordonnees_geo": {"lon": 2.30230766886348, "lat": 48.843277330035214}, "nom_arrondissement_communes": "Paris", "code_insee_commune": null}, {"stationcode": "18016", "name": "Francoeur - Caulaincourt", "is_installed": "OUI", "capacity": 34, "numdocksavailable": 24, "numbikesavailable": 10, "mechanical": 4, "ebike": 6, "is_renting": "OUI", "is_returning": "OUI", "duedate": "2024-06-16T05:54:31+00:00", "coordonnees_geo": {"lon": 2.342529706656933, "lat": 48.8899944409612}, "nom_arrondissement_communes": "Paris", "code_insee_commune": null}, {"stationcode": "19117", "name": "Euryale Dehaynin - Loire", "is_installed": "OUI", "capacity": 30, "numdocksavailable": 24, "numbikesavailable": 4, "mechanical": 1, "ebike": 3, "is_renting": "OUI", "is_returning": "OUI", "duedate": "2024-06-16T05:54:41+00:00", "coordonnees_geo": {"lon": 2.3774591088294987, "lat": 48.886248917304805}, "nom_arrondissement_communes": "Paris", "code_insee_commune": null}, {"stationcode": "34010", "name": "H\u00f4tel de Ville de Saint-Ouen", "is_installed": "OUI", "capacity": 48, "numdocksavailable": 20, "numbikesavailable": 27, "mechanical": 17, "ebike": 10, "is_renting": "OUI", "is_returning": "OUI", "duedate": "2024-06-16T05:53:41+00:00", "coordonnees_geo": {"lon": 2.3340076807601, "lat": 48.911380185786}, "nom_arrondissement_communes": "Saint-Ouen-sur-Seine", "code_insee_commune": null}, {"stationcode": "15041", "name": "Franquet - Labrouste", "is_installed": "OUI", "capacity": 37, "numdocksavailable": 15, "numbikesavailable": 21, "mechanical": 13, "ebike": 8, "is_renting": "OUI", "is_returning": "OUI", "duedate": "2024-06-16T05:54:12+00:00", "coordonnees_geo": {"lon": 2.306762784719467, "lat": 48.83287705011431}, "nom_arrondissement_communes": "Paris", "code_insee_commune": null}, {"stationcode": "10003", "name": "Hauteville - Bonne Nouvelle", "is_installed": "OUI", "capacity": 17, "numdocksavailable": 1, "numbikesavailable": 15, "mechanical": 12, "ebike": 3, "is_renting": "OUI", "is_returning": "OUI", "duedate": "2024-06-16T05:52:11+00:00", "coordonnees_geo": {"lon": 2.3496496368327, "lat": 48.87077436024}, "nom_arrondissement_communes": "Paris", "code_insee_commune": null}, {"stationcode": "41103", "name": "Place de la vache noire", "is_installed": "OUI", "capacity": 25, "numdocksavailable": 15, "numbikesavailable": 9, "mechanical": 2, "ebike": 7, "is_renting": "OUI", "is_returning": "OUI", "duedate": "2024-06-16T05:51:01+00:00", "coordonnees_geo": {"lon": 2.327060401439667, "lat": 48.81040517059777}, "nom_arrondissement_communes": "Arcueil", "code_insee_commune": null}, {"stationcode": "13028", "name": "Gouthi\u00e8re - Poterne des Peupliers", "is_installed": "OUI", "capacity": 33, "numdocksavailable": 7, "numbikesavailable": 23, "mechanical": 18, "ebike": 5, "is_renting": "OUI", "is_returning": "OUI", "duedate": "2024-06-16T05:52:13+00:00", "coordonnees_geo": {"lon": 2.351342, "lat": 48.820507}, "nom_arrondissement_communes": "Paris", "code_insee_commune": null}, {"stationcode": "42303", "name": "Place Eustache Deschamps", "is_installed": "OUI", "capacity": 20, "numdocksavailable": 3, "numbikesavailable": 17, "mechanical": 12, "ebike": 5, "is_renting": "OUI", "is_returning": "OUI", "duedate": "2024-06-16T05:52:27+00:00", "coordonnees_geo": {"lon": 2.336637, "lat": 48.793855}, "nom_arrondissement_communes": "Cachan", "code_insee_commune": null}, {"stationcode": "48002", "name": "LCL Campus - Place Oscar Niemeyer", "is_installed": "OUI", "capacity": 37, "numdocksavailable": 14, "numbikesavailable": 21, "mechanical": 5, "ebike": 16, "is_renting": "OUI", "is_returning": "OUI", "duedate": "2024-06-16T05:54:23+00:00", "coordonnees_geo": {"lon": 2.363983690738678, "lat": 48.805342480621576}, "nom_arrondissement_communes": "Villejuif", "code_insee_commune": null}, {"stationcode": "30003", "name": "Moscou - Edouard Vaillant", "is_installed": "OUI", "capacity": 30, "numdocksavailable": 1, "numbikesavailable": 26, "mechanical": 15, "ebike": 11, "is_renting": "OUI", "is_returning": "OUI", "duedate": "2024-06-16T05:52:21+00:00", "coordonnees_geo": {"lon": 2.4689837335263, "lat": 48.90755810177}, "nom_arrondissement_communes": "Bobigny", "code_insee_commune": null}, {"stationcode": "35013", "name": "Guillaume Tell - Parc Henri Barbusse", "is_installed": "OUI", "capacity": 20, "numdocksavailable": 11, "numbikesavailable": 9, "mechanical": 1, "ebike": 8, "is_renting": "OUI", "is_returning": "OUI", "duedate": "2024-06-16T05:47:35+00:00", "coordonnees_geo": {"lon": 2.4198862910270695, "lat": 48.88958925894009}, "nom_arrondissement_communes": "Pantin", "code_insee_commune": null}, {"stationcode": "20020", "name": "Pyr\u00e9n\u00e9es - Charles Renouvier", "is_installed": "OUI", "capacity": 29, "numdocksavailable": 24, "numbikesavailable": 5, "mechanical": 2, "ebike": 3, "is_renting": "OUI", "is_returning": "OUI", "duedate": "2024-06-16T05:54:34+00:00", "coordonnees_geo": {"lon": 2.400421852042113, "lat": 48.86095933229224}, "nom_arrondissement_communes": "Paris", "code_insee_commune": null}, {"stationcode": "12008", "name": "Hector Malot - Daumesnil", "is_installed": "OUI", "capacity": 54, "numdocksavailable": 37, "numbikesavailable": 16, "mechanical": 14, "ebike": 2, "is_renting": "OUI", "is_returning": "OUI", "duedate": "2024-06-16T05:54:41+00:00", "coordonnees_geo": {"lon": 2.3770876228809357, "lat": 48.84693552991762}, "nom_arrondissement_communes": "Paris", "code_insee_commune": null}, {"stationcode": "12119", "name": "Dom-P\u00e9rignon - Gravelle", "is_installed": "OUI", "capacity": 50, "numdocksavailable": 8, "numbikesavailable": 39, "mechanical": 22, "ebike": 17, "is_renting": "OUI", "is_returning": "OUI", "duedate": "2024-06-16T05:53:41+00:00", "coordonnees_geo": {"lon": 2.409880310297, "lat": 48.825481574435}, "nom_arrondissement_communes": "Paris", "code_insee_commune": null}, {"stationcode": "20032", "name": "Square des Amandiers", "is_installed": "OUI", "capacity": 12, "numdocksavailable": 4, "numbikesavailable": 8, "mechanical": 5, "ebike": 3, "is_renting": "OUI", "is_returning": "OUI", "duedate": "2024-06-16T05:47:43+00:00", "coordonnees_geo": {"lon": 2.3891324177384377, "lat": 48.86615630668046}, "nom_arrondissement_communes": "Paris", "code_insee_commune": null}, {"stationcode": "15050", "name": "Dominique Pado - Croix Nivert", "is_installed": "OUI", "capacity": 22, "numdocksavailable": 2, "numbikesavailable": 20, "mechanical": 14, "ebike": 6, "is_renting": "OUI", "is_returning": "OUI", "duedate": "2024-06-16T05:53:45+00:00", "coordonnees_geo": {"lon": 2.2897250577807426, "lat": 48.83648798164934}, "nom_arrondissement_communes": "Paris", "code_insee_commune": null}, {"stationcode": "16025", "name": "Jean de la Fontaine - Boulainvilliers", "is_installed": "OUI", "capacity": 68, "numdocksavailable": 32, "numbikesavailable": 33, "mechanical": 22, "ebike": 11, "is_renting": "OUI", "is_returning": "OUI", "duedate": "2024-06-16T05:52:06+00:00", "coordonnees_geo": {"lon": 2.2758664190769196, "lat": 48.85264791461651}, "nom_arrondissement_communes": "Paris", "code_insee_commune": null}, {"stationcode": "18021", "name": "Marcadet - Ramey", "is_installed": "OUI", "capacity": 21, "numdocksavailable": 14, "numbikesavailable": 7, "mechanical": 5, "ebike": 2, "is_renting": "OUI", "is_returning": "OUI", "duedate": "2024-06-16T05:53:22+00:00", "coordonnees_geo": {"lon": 2.3449019, "lat": 48.890875}, "nom_arrondissement_communes": "Paris", "code_insee_commune": null}, {"stationcode": "16116", "name": "George Sand - Jean de La Fontaine", "is_installed": "OUI", "capacity": 29, "numdocksavailable": 6, "numbikesavailable": 23, "mechanical": 18, "ebike": 5, "is_renting": "OUI", "is_returning": "OUI", "duedate": "2024-06-16T05:53:04+00:00", "coordonnees_geo": {"lon": 2.268257387525699, "lat": 48.84986918764119}, "nom_arrondissement_communes": "Paris", "code_insee_commune": null}, {"stationcode": "20013", "name": "Alexandre Dumas - Place de la R\u00e9union", "is_installed": "OUI", "capacity": 45, "numdocksavailable": 24, "numbikesavailable": 21, "mechanical": 11, "ebike": 10, "is_renting": "OUI", "is_returning": "OUI", "duedate": "2024-06-16T05:54:40+00:00", "coordonnees_geo": {"lon": 2.3997703687646292, "lat": 48.85533710742046}, "nom_arrondissement_communes": "Paris", "code_insee_commune": null}, {"stationcode": "15045", "name": "Porte de la Plaine", "is_installed": "OUI", "capacity": 35, "numdocksavailable": 33, "numbikesavailable": 2, "mechanical": 0, "ebike": 2, "is_renting": "OUI", "is_returning": "OUI", "duedate": "2024-06-16T05:49:52+00:00", "coordonnees_geo": {"lon": 2.2924277186393742, "lat": 48.82805169605981}, "nom_arrondissement_communes": "Paris", "code_insee_commune": null}, {"stationcode": "14005", "name": "Ren\u00e9 Coty - Place Denfert-Rochereau", "is_installed": "OUI", "capacity": 36, "numdocksavailable": 6, "numbikesavailable": 30, "mechanical": 20, "ebike": 10, "is_renting": "OUI", "is_returning": "OUI", "duedate": "2024-06-16T05:48:34+00:00", "coordonnees_geo": {"lon": 2.3329411447048, "lat": 48.833056477316}, "nom_arrondissement_communes": "Paris", "code_insee_commune": null}, {"stationcode": "21023", "name": "Ancienne Mairie - Andr\u00e9 Morizet", "is_installed": "OUI", "capacity": 25, "numdocksavailable": 18, "numbikesavailable": 7, "mechanical": 5, "ebike": 2, "is_renting": "OUI", "is_returning": "OUI", "duedate": "2024-06-16T05:53:50+00:00", "coordonnees_geo": {"lon": 2.234077, "lat": 48.838311}, "nom_arrondissement_communes": "Boulogne-Billancourt", "code_insee_commune": null}, {"stationcode": "31105", "name": "Lavoisier - Missak Manouchian", "is_installed": "OUI", "capacity": 18, "numdocksavailable": 1, "numbikesavailable": 17, "mechanical": 10, "ebike": 7, "is_renting": "OUI", "is_returning": "OUI", "duedate": "2024-06-16T05:53:18+00:00", "coordonnees_geo": {"lon": 2.495676465332508, "lat": 48.86286468896063}, "nom_arrondissement_communes": "Rosny-sous-Bois", "code_insee_commune": null}, {"stationcode": "30004", "name": "Jean Jaur\u00e8s - Place de la Lib\u00e9ration", "is_installed": "OUI", "capacity": 30, "numdocksavailable": 1, "numbikesavailable": 28, "mechanical": 11, "ebike": 17, "is_renting": "OUI", "is_returning": "OUI", "duedate": "2024-06-16T05:52:36+00:00", "coordonnees_geo": {"lon": 2.4391458057475, "lat": 48.90617751921}, "nom_arrondissement_communes": "Bobigny", "code_insee_commune": null}, {"stationcode": "8046", "name": "Marceau - Pr\u00e9sident Wilson", "is_installed": "OUI", "capacity": 32, "numdocksavailable": 22, "numbikesavailable": 9, "mechanical": 8, "ebike": 1, "is_renting": "OUI", "is_returning": "OUI", "duedate": "2024-06-16T05:52:21+00:00", "coordonnees_geo": {"lon": 2.3002513, "lat": 48.8652359}, "nom_arrondissement_communes": "Paris", "code_insee_commune": null}, {"stationcode": "22701", "name": "G\u00e9n\u00e9ral Leclerc - R\u00e9publique", "is_installed": "OUI", "capacity": 30, "numdocksavailable": 3, "numbikesavailable": 27, "mechanical": 16, "ebike": 11, "is_renting": "OUI", "is_returning": "OUI", "duedate": "2024-06-16T05:50:37+00:00", "coordonnees_geo": {"lon": 2.2682306702811, "lat": 48.915885074177}, "nom_arrondissement_communes": "Bois-Colombes", "code_insee_commune": null}, {"stationcode": "22404", "name": "Pierre Brossolette - 12 F\u00e9vrier 1934", "is_installed": "OUI", "capacity": 25, "numdocksavailable": 12, "numbikesavailable": 13, "mechanical": 1, "ebike": 12, "is_renting": "OUI", "is_returning": "OUI", "duedate": "2024-06-16T05:53:47+00:00", "coordonnees_geo": {"lon": 2.3076123744249344, "lat": 48.8176962416867}, "nom_arrondissement_communes": "Malakoff", "code_insee_commune": null}, {"stationcode": "20110", "name": "Gambetta - Tourelles", "is_installed": "OUI", "capacity": 20, "numdocksavailable": 14, "numbikesavailable": 5, "mechanical": 0, "ebike": 5, "is_renting": "OUI", "is_returning": "OUI", "duedate": "2024-06-16T05:51:21+00:00", "coordonnees_geo": {"lon": 2.4059921130538, "lat": 48.875337902264}, "nom_arrondissement_communes": "Paris", "code_insee_commune": null}, {"stationcode": "21218", "name": "Gabriel P\u00e9ri - Place de la Lib\u00e9ration", "is_installed": "OUI", "capacity": 18, "numdocksavailable": 6, "numbikesavailable": 11, "mechanical": 3, "ebike": 8, "is_renting": "OUI", "is_returning": "OUI", "duedate": "2024-06-16T05:52:09+00:00", "coordonnees_geo": {"lon": 2.3117361743705, "lat": 48.819828421929}, "nom_arrondissement_communes": "Montrouge", "code_insee_commune": null}, {"stationcode": "17006", "name": "Guy M\u00f4quet - Compoint", "is_installed": "OUI", "capacity": 36, "numdocksavailable": 22, "numbikesavailable": 12, "mechanical": 4, "ebike": 8, "is_renting": "OUI", "is_returning": "OUI", "duedate": "2024-06-16T05:52:18+00:00", "coordonnees_geo": {"lon": 2.32321947813034, "lat": 48.89213559044868}, "nom_arrondissement_communes": "Paris", "code_insee_commune": null}, {"stationcode": "20005", "name": "Reynaldo Hahn - Lagny", "is_installed": "OUI", "capacity": 19, "numdocksavailable": 11, "numbikesavailable": 7, "mechanical": 4, "ebike": 3, "is_renting": "OUI", "is_returning": "OUI", "duedate": "2024-06-16T05:49:48+00:00", "coordonnees_geo": {"lon": 2.412330328844772, "lat": 48.849266043601794}, "nom_arrondissement_communes": "Paris", "code_insee_commune": null}, {"stationcode": "21207", "name": "Verdier - R\u00e9publique", "is_installed": "OUI", "capacity": 29, "numdocksavailable": 23, "numbikesavailable": 6, "mechanical": 1, "ebike": 5, "is_renting": "OUI", "is_returning": "OUI", "duedate": "2024-06-16T05:50:10+00:00", "coordonnees_geo": {"lon": 2.31739372015, "lat": 48.815403766277}, "nom_arrondissement_communes": "Montrouge", "code_insee_commune": null}, {"stationcode": "10031", "name": "Louis Blanc - Aqueduc", "is_installed": "OUI", "capacity": 37, "numdocksavailable": 10, "numbikesavailable": 25, "mechanical": 15, "ebike": 10, "is_renting": "OUI", "is_returning": "OUI", "duedate": "2024-06-16T05:53:54+00:00", "coordonnees_geo": {"lon": 2.3635615780949593, "lat": 48.88203018259946}, "nom_arrondissement_communes": "Paris", "code_insee_commune": null}, {"stationcode": "11016", "name": "Philippe-Auguste", "is_installed": "OUI", "capacity": 48, "numdocksavailable": 43, "numbikesavailable": 5, "mechanical": 1, "ebike": 4, "is_renting": "OUI", "is_returning": "OUI", "duedate": "2024-06-16T05:52:56+00:00", "coordonnees_geo": {"lon": 2.3932945355773, "lat": 48.851853488265}, "nom_arrondissement_communes": "Paris", "code_insee_commune": null}, {"stationcode": "12122", "name": "Bois de Vincennes - Polygone", "is_installed": "OUI", "capacity": 51, "numdocksavailable": 51, "numbikesavailable": 0, "mechanical": 0, "ebike": 0, "is_renting": "OUI", "is_returning": "OUI", "duedate": "2024-06-16T05:54:20+00:00", "coordonnees_geo": {"lon": 2.431421081436563, "lat": 48.83544491617421}, "nom_arrondissement_communes": "Paris", "code_insee_commune": null}, {"stationcode": "15120", "name": "Colonel Pierre Avia", "is_installed": "OUI", "capacity": 29, "numdocksavailable": 12, "numbikesavailable": 16, "mechanical": 13, "ebike": 3, "is_renting": "OUI", "is_returning": "OUI", "duedate": "2024-06-16T05:54:25+00:00", "coordonnees_geo": {"lon": 2.275342586850291, "lat": 48.8296843300915}, "nom_arrondissement_communes": "Paris", "code_insee_commune": null}, {"stationcode": "21205", "name": "Arthur Auger - Jean Jaur\u00e8s", "is_installed": "OUI", "capacity": 26, "numdocksavailable": 17, "numbikesavailable": 8, "mechanical": 1, "ebike": 7, "is_renting": "OUI", "is_returning": "OUI", "duedate": "2024-06-16T05:54:38+00:00", "coordonnees_geo": {"lon": 2.3069277405738835, "lat": 48.813736445585235}, "nom_arrondissement_communes": "Montrouge", "code_insee_commune": null}, {"stationcode": "16023", "name": "Passy - Place du Costa Rica", "is_installed": "OUI", "capacity": 33, "numdocksavailable": 29, "numbikesavailable": 4, "mechanical": 0, "ebike": 4, "is_renting": "OUI", "is_returning": "OUI", "duedate": "2024-06-16T05:53:59+00:00", "coordonnees_geo": {"lon": 2.2839655, "lat": 48.8584893}, "nom_arrondissement_communes": "Paris", "code_insee_commune": null}, {"stationcode": "24007", "name": "Jean-Baptiste Charcot - Sainte-Genevi\u00e8ve", "is_installed": "OUI", "capacity": 21, "numdocksavailable": 3, "numbikesavailable": 18, "mechanical": 7, "ebike": 11, "is_renting": "OUI", "is_returning": "OUI", "duedate": "2024-06-16T05:51:55+00:00", "coordonnees_geo": {"lon": 2.278892956674099, "lat": 48.90310883721567}, "nom_arrondissement_communes": "Courbevoie", "code_insee_commune": null}, {"stationcode": "6004", "name": "Regard - Rennes", "is_installed": "OUI", "capacity": 46, "numdocksavailable": 19, "numbikesavailable": 27, "mechanical": 24, "ebike": 3, "is_renting": "OUI", "is_returning": "OUI", "duedate": "2024-06-16T05:53:46+00:00", "coordonnees_geo": {"lon": 2.3268555477262, "lat": 48.847385404956}, "nom_arrondissement_communes": "Paris", "code_insee_commune": null}, {"stationcode": "15114", "name": "Pasteur - Cotentin", "is_installed": "OUI", "capacity": 33, "numdocksavailable": 28, "numbikesavailable": 4, "mechanical": 1, "ebike": 3, "is_renting": "OUI", "is_returning": "OUI", "duedate": "2024-06-16T05:54:38+00:00", "coordonnees_geo": {"lon": 2.316356, "lat": 48.8389284}, "nom_arrondissement_communes": "Paris", "code_insee_commune": null}, {"stationcode": "19014", "name": "Lorraine - Jean Jaur\u00e8s", "is_installed": "OUI", "capacity": 19, "numdocksavailable": 2, "numbikesavailable": 17, "mechanical": 7, "ebike": 10, "is_renting": "OUI", "is_returning": "OUI", "duedate": "2024-06-16T05:52:54+00:00", "coordonnees_geo": {"lon": 2.3825772, "lat": 48.8863865}, "nom_arrondissement_communes": "Paris", "code_insee_commune": null}, {"stationcode": "15044", "name": "Dantzig - Lefebvre", "is_installed": "OUI", "capacity": 33, "numdocksavailable": 25, "numbikesavailable": 8, "mechanical": 0, "ebike": 8, "is_renting": "OUI", "is_returning": "OUI", "duedate": "2024-06-16T05:54:17+00:00", "coordonnees_geo": {"lon": 2.295934036374092, "lat": 48.83013921586756}, "nom_arrondissement_communes": "Paris", "code_insee_commune": null}, {"stationcode": "12040", "name": "Porte de Charenton", "is_installed": "OUI", "capacity": 67, "numdocksavailable": 32, "numbikesavailable": 32, "mechanical": 13, "ebike": 19, "is_renting": "OUI", "is_returning": "OUI", "duedate": "2024-06-16T05:54:29+00:00", "coordonnees_geo": {"lon": 2.3989107459783554, "lat": 48.83124010585643}, "nom_arrondissement_communes": "Paris", "code_insee_commune": null}, {"stationcode": "25002", "name": "H\u00f4tel de Ville de Rueil-Malmaison", "is_installed": "OUI", "capacity": 20, "numdocksavailable": 10, "numbikesavailable": 10, "mechanical": 3, "ebike": 7, "is_renting": "OUI", "is_returning": "OUI", "duedate": "2024-06-16T05:52:03+00:00", "coordonnees_geo": {"lon": 2.181724, "lat": 48.878194}, "nom_arrondissement_communes": "Rueil-Malmaison", "code_insee_commune": null}, {"stationcode": "19001", "name": "Crim\u00e9e - Ourcq", "is_installed": "OUI", "capacity": 56, "numdocksavailable": 18, "numbikesavailable": 37, "mechanical": 19, "ebike": 18, "is_renting": "OUI", "is_returning": "OUI", "duedate": "2024-06-16T05:53:52+00:00", "coordonnees_geo": {"lon": 2.3729460884673, "lat": 48.894104140316}, "nom_arrondissement_communes": "Paris", "code_insee_commune": null}, {"stationcode": "21007", "name": "Rond-Point Rhin et Danube", "is_installed": "OUI", "capacity": 53, "numdocksavailable": 42, "numbikesavailable": 10, "mechanical": 8, "ebike": 2, "is_renting": "OUI", "is_returning": "OUI", "duedate": "2024-06-16T05:50:17+00:00", "coordonnees_geo": {"lon": 2.2280225157737736, "lat": 48.840452820991764}, "nom_arrondissement_communes": "Boulogne-Billancourt", "code_insee_commune": null}, {"stationcode": "19007", "name": "Flandre - Ourcq", "is_installed": "OUI", "capacity": 30, "numdocksavailable": 3, "numbikesavailable": 25, "mechanical": 7, "ebike": 18, "is_renting": "OUI", "is_returning": "OUI", "duedate": "2024-06-16T05:52:05+00:00", "coordonnees_geo": {"lon": 2.3790915682911873, "lat": 48.89260159189023}, "nom_arrondissement_communes": "Paris", "code_insee_commune": null}, {"stationcode": "21016", "name": "Point du Jour - Jean Jaur\u00e8s", "is_installed": "OUI", "capacity": 40, "numdocksavailable": 28, "numbikesavailable": 11, "mechanical": 5, "ebike": 6, "is_renting": "OUI", "is_returning": "OUI", "duedate": "2024-06-16T05:48:49+00:00", "coordonnees_geo": {"lon": 2.245911467014621, "lat": 48.828753141436465}, "nom_arrondissement_communes": "Boulogne-Billancourt", "code_insee_commune": null}]