[{"stationcode": "42211", "name": "S\u00e9minaire de Conflans - Libert\u00e9", "is_installed": "OUI", "capacity": 26, "numdocksavailable": 7, "numbikesavailable": 19, "mechanical": 5, "ebike": 14, "is_renting": "OUI", "is_returning": "OUI", "duedate": "2024-06-13T21:53:51+00:00", "coordonnees_geo": {"lon": 2.404179, "lat": 48.823194}, "nom_arrondissement_communes": "Charenton-le-Pont", "code_insee_commune": null}, {"stationcode": "2012", "name": "Choiseul - Quatre Septembre", "is_installed": "OUI", "capacity": 44, "numdocksavailable": 42, "numbikesavailable": 1, "mechanical": 0, "ebike": 1, "is_renting": "OUI", "is_returning": "OUI", "duedate": "2024-06-13T21:47:10+00:00", "coordonnees_geo": {"lon": 2.3359975218772893, "lat": 48.8699355331869}, "nom_arrondissement_communes": "Paris", "code_insee_commune": null}, {"stationcode": "12163", "name": "Hippodrome Paris-Vincennes", "is_installed": "OUI", "capacity": 42, "numdocksavailable": 41, "numbikesavailable": 1, "mechanical": 1, "ebike": 0, "is_renting": "OUI", "is_returning": "OUI", "duedate": "2024-06-13T21:53:14+00:00", "coordonnees_geo": {"lon": 2.446271181106568, "lat": 48.82048387758518}, "nom_arrondissement_communes": "Paris", "code_insee_commune": null}, {"stationcode": "3002", "name": "Saint-Gilles - Turenne", "is_installed": "OUI", "capacity": 18, "numdocksavailable": 14, "numbikesavailable": 4, "mechanical": 3, "ebike": 1, "is_renting": "OUI", "is_returning": "OUI", "duedate": "2024-06-13T21:51:32+00:00", "coordonnees_geo": {"lon": 2.3647149920992, "lat": 48.858158956779}, "nom_arrondissement_communes": "Paris", "code_insee_commune": null}, {"stationcode": "4101", "name": "Bastille - Beaumarchais", "is_installed": "OUI", "capacity": 23, "numdocksavailable": 8, "numbikesavailable": 13, "mechanical": 12, "ebike": 1, "is_renting": "OUI", "is_returning": "OUI", "duedate": "2024-06-13T21:53:56+00:00", "coordonnees_geo": {"lon": 2.3685702681541, "lat": 48.853833463852}, "nom_arrondissement_communes": "Paris", "code_insee_commune": null}, {"stationcode": "21509", "name": "Gardenat Lapostol - Franklin Roosevelt", "is_installed": "OUI", "capacity": 24, "numdocksavailable": 22, "numbikesavailable": 2, "mechanical": 1, "ebike": 1, "is_renting": "OUI", "is_returning": "OUI", "duedate": "2024-06-13T21:47:30+00:00", "coordonnees_geo": {"lon": 2.222505, "lat": 48.871839}, "nom_arrondissement_communes": "Suresnes", "code_insee_commune": null}, {"stationcode": "1012", "name": "Jean-Jacques Rousseau - Deux Ecus", "is_installed": "OUI", "capacity": 22, "numdocksavailable": 20, "numbikesavailable": 2, "mechanical": 1, "ebike": 1, "is_renting": "OUI", "is_returning": "OUI", "duedate": "2024-06-13T21:48:56+00:00", "coordonnees_geo": {"lon": 2.3414635285735126, "lat": 48.86297805972131}, "nom_arrondissement_communes": "Paris", "code_insee_commune": null}, {"stationcode": "2004", "name": "Square Pierre Lazareff", "is_installed": "OUI", "capacity": 17, "numdocksavailable": 15, "numbikesavailable": 1, "mechanical": 0, "ebike": 1, "is_renting": "OUI", "is_returning": "OUI", "duedate": "2024-06-13T21:54:22+00:00", "coordonnees_geo": {"lon": 2.3483933508396, "lat": 48.867141720746}, "nom_arrondissement_communes": "Paris", "code_insee_commune": null}, {"stationcode": "35012", "name": "Candale - Mehul", "is_installed": "OUI", "capacity": 25, "numdocksavailable": 17, "numbikesavailable": 6, "mechanical": 3, "ebike": 3, "is_renting": "OUI", "is_returning": "OUI", "duedate": "2024-06-13T21:54:09+00:00", "coordonnees_geo": {"lon": 2.414379715919495, "lat": 48.8893935006175}, "nom_arrondissement_communes": "Pantin", "code_insee_commune": null}, {"stationcode": "21505", "name": "\u00c9douard Vaillant - Place Jean Jaur\u00e8s", "is_installed": "OUI", "capacity": 24, "numdocksavailable": 21, "numbikesavailable": 3, "mechanical": 0, "ebike": 3, "is_renting": "OUI", "is_returning": "OUI", "duedate": "2024-06-13T21:50:47+00:00", "coordonnees_geo": {"lon": 2.2089037319128613, "lat": 48.86265537999924}, "nom_arrondissement_communes": "Suresnes", "code_insee_commune": null}, {"stationcode": "2016", "name": "Aboukir - Alexandrie", "is_installed": "OUI", "capacity": 21, "numdocksavailable": 3, "numbikesavailable": 17, "mechanical": 15, "ebike": 2, "is_renting": "OUI", "is_returning": "OUI", "duedate": "2024-06-13T21:53:13+00:00", "coordonnees_geo": {"lon": 2.3502043269474897, "lat": 48.86868344444473}, "nom_arrondissement_communes": "Paris", "code_insee_commune": null}, {"stationcode": "4007", "name": "Place de la Bastille - Bourdon", "is_installed": "OUI", "capacity": 35, "numdocksavailable": 13, "numbikesavailable": 21, "mechanical": 20, "ebike": 1, "is_renting": "OUI", "is_returning": "OUI", "duedate": "2024-06-13T21:53:32+00:00", "coordonnees_geo": {"lon": 2.3681089282036, "lat": 48.852364355271}, "nom_arrondissement_communes": "Paris", "code_insee_commune": null}, {"stationcode": "44001", "name": "Quai Jules Guesde - Saint-Simon", "is_installed": "OUI", "capacity": 30, "numdocksavailable": 6, "numbikesavailable": 23, "mechanical": 14, "ebike": 9, "is_renting": "OUI", "is_returning": "OUI", "duedate": "2024-06-13T21:52:12+00:00", "coordonnees_geo": {"lon": 2.4089661620274, "lat": 48.80391487219}, "nom_arrondissement_communes": "Vitry-sur-Seine", "code_insee_commune": null}, {"stationcode": "33020", "name": "Waldeck Rochet - Germaine Tillon", "is_installed": "OUI", "capacity": 31, "numdocksavailable": 25, "numbikesavailable": 6, "mechanical": 4, "ebike": 2, "is_renting": "OUI", "is_returning": "OUI", "duedate": "2024-06-13T21:52:15+00:00", "coordonnees_geo": {"lon": 2.3676301538944244, "lat": 48.91105960199651}, "nom_arrondissement_communes": "Aubervilliers", "code_insee_commune": null}, {"stationcode": "32019", "name": "Place du 8 mai 1945.", "is_installed": "OUI", "capacity": 30, "numdocksavailable": 6, "numbikesavailable": 24, "mechanical": 8, "ebike": 16, "is_renting": "OUI", "is_returning": "OUI", "duedate": "2024-06-13T21:46:18+00:00", "coordonnees_geo": {"lon": 2.3566243797541, "lat": 48.938882272105}, "nom_arrondissement_communes": "Saint-Denis", "code_insee_commune": null}, {"stationcode": "9039", "name": "Chauss\u00e9e d'Antin - Haussmann", "is_installed": "OUI", "capacity": 24, "numdocksavailable": 22, "numbikesavailable": 2, "mechanical": 0, "ebike": 2, "is_renting": "OUI", "is_returning": "OUI", "duedate": "2024-06-13T21:53:04+00:00", "coordonnees_geo": {"lon": 2.33359, "lat": 48.87243}, "nom_arrondissement_communes": "Paris", "code_insee_commune": null}, {"stationcode": "22506", "name": "Gare des Vall\u00e9es", "is_installed": "OUI", "capacity": 20, "numdocksavailable": 1, "numbikesavailable": 18, "mechanical": 9, "ebike": 9, "is_renting": "OUI", "is_returning": "OUI", "duedate": "2024-06-13T21:50:41+00:00", "coordonnees_geo": {"lon": 2.257726, "lat": 48.913179}, "nom_arrondissement_communes": "La Garenne-Colombes", "code_insee_commune": null}, {"stationcode": "1026", "name": "Place du Lieutenant Henri Karcher", "is_installed": "OUI", "capacity": 30, "numdocksavailable": 28, "numbikesavailable": 2, "mechanical": 2, "ebike": 0, "is_renting": "OUI", "is_returning": "OUI", "duedate": "2024-06-13T21:52:01+00:00", "coordonnees_geo": {"lon": 2.3400671035051346, "lat": 48.863490871724466}, "nom_arrondissement_communes": "Paris", "code_insee_commune": null}, {"stationcode": "18015", "name": "Custine - Ramey", "is_installed": "OUI", "capacity": 41, "numdocksavailable": 8, "numbikesavailable": 31, "mechanical": 5, "ebike": 26, "is_renting": "OUI", "is_returning": "OUI", "duedate": "2024-06-13T21:54:18+00:00", "coordonnees_geo": {"lon": 2.3469526693225, "lat": 48.888735896947}, "nom_arrondissement_communes": "Paris", "code_insee_commune": null}, {"stationcode": "1116", "name": "Ventadour - Op\u00e9ra", "is_installed": "OUI", "capacity": 27, "numdocksavailable": 27, "numbikesavailable": 0, "mechanical": 0, "ebike": 0, "is_renting": "OUI", "is_returning": "OUI", "duedate": "2024-06-13T21:44:36+00:00", "coordonnees_geo": {"lon": 2.3343884482519, "lat": 48.866810653323}, "nom_arrondissement_communes": "Paris", "code_insee_commune": null}, {"stationcode": "12164", "name": "Stade Pershing", "is_installed": "OUI", "capacity": 26, "numdocksavailable": 26, "numbikesavailable": 0, "mechanical": 0, "ebike": 0, "is_renting": "OUI", "is_returning": "OUI", "duedate": "2024-06-13T21:49:15+00:00", "coordonnees_geo": {"lon": 2.4583535268903, "lat": 48.829107826857}, "nom_arrondissement_communes": "Paris", "code_insee_commune": null}, {"stationcode": "1017", "name": "Saint-Honor\u00e9 - 29 juillet", "is_installed": "OUI", "capacity": 20, "numdocksavailable": 19, "numbikesavailable": 0, "mechanical": 0, "ebike": 0, "is_renting": "OUI", "is_returning": "OUI", "duedate": "2024-06-13T21:52:41+00:00", "coordonnees_geo": {"lon": 2.330567417577153, "lat": 48.86557114282421}, "nom_arrondissement_communes": "Paris", "code_insee_commune": null}, {"stationcode": "23107", "name": "Gare de S\u00e8vres - Ville d'Avray", "is_installed": "OUI", "capacity": 22, "numdocksavailable": 22, "numbikesavailable": 0, "mechanical": 0, "ebike": 0, "is_renting": "OUI", "is_returning": "OUI", "duedate": "2024-06-13T21:47:34+00:00", "coordonnees_geo": {"lon": 2.2001516849313, "lat": 48.826262366227}, "nom_arrondissement_communes": "S\u00e8vres", "code_insee_commune": null}, {"stationcode": "6201", "name": "Saint P\u00e8res - Saint Germain", "is_installed": "OUI", "capacity": 22, "numdocksavailable": 12, "numbikesavailable": 10, "mechanical": 5, "ebike": 5, "is_renting": "OUI", "is_returning": "OUI", "duedate": "2024-06-13T21:53:34+00:00", "coordonnees_geo": {"lon": 2.3300181032703, "lat": 48.853729675265}, "nom_arrondissement_communes": "Paris", "code_insee_commune": null}, {"stationcode": "6026", "name": "Saint-Placide - Cherche Midi", "is_installed": "OUI", "capacity": 66, "numdocksavailable": 60, "numbikesavailable": 5, "mechanical": 2, "ebike": 3, "is_renting": "OUI", "is_returning": "OUI", "duedate": "2024-06-13T21:54:25+00:00", "coordonnees_geo": {"lon": 2.325317971408367, "lat": 48.8490535919234}, "nom_arrondissement_communes": "Paris", "code_insee_commune": null}, {"stationcode": "22601", "name": "Marx Dormoy - Ch\u00e2teau Sainte-Barbe", "is_installed": "OUI", "capacity": 22, "numdocksavailable": 16, "numbikesavailable": 5, "mechanical": 1, "ebike": 4, "is_renting": "OUI", "is_returning": "OUI", "duedate": "2024-06-13T21:50:12+00:00", "coordonnees_geo": {"lon": 2.297856844961643, "lat": 48.791782341055324}, "nom_arrondissement_communes": "Fontenay-aux-Roses", "code_insee_commune": null}, {"stationcode": "5003", "name": "Le Goff - Gay-Lussac", "is_installed": "OUI", "capacity": 35, "numdocksavailable": 30, "numbikesavailable": 4, "mechanical": 2, "ebike": 2, "is_renting": "OUI", "is_returning": "OUI", "duedate": "2024-06-13T21:49:11+00:00", "coordonnees_geo": {"lon": 2.3412207886576653, "lat": 48.8461024009786}, "nom_arrondissement_communes": "Paris", "code_insee_commune": null}, {"stationcode": "19202", "name": "Marseillaise - Grenade", "is_installed": "OUI", "capacity": 45, "numdocksavailable": 33, "numbikesavailable": 12, "mechanical": 3, "ebike": 9, "is_renting": "OUI", "is_returning": "OUI", "duedate": "2024-06-13T21:47:44+00:00", "coordonnees_geo": {"lon": 2.3979396821544, "lat": 48.889371092747}, "nom_arrondissement_communes": "Paris", "code_insee_commune": null}, {"stationcode": "17021", "name": "Jouffroy d'Abbans - Villiers", "is_installed": "OUI", "capacity": 34, "numdocksavailable": 28, "numbikesavailable": 5, "mechanical": 1, "ebike": 4, "is_renting": "OUI", "is_returning": "OUI", "duedate": "2024-06-13T21:54:19+00:00", "coordonnees_geo": {"lon": 2.3056533560157, "lat": 48.884215547037}, "nom_arrondissement_communes": "Paris", "code_insee_commune": null}, {"stationcode": "27001", "name": "Square Victor Basch", "is_installed": "OUI", "capacity": 20, "numdocksavailable": 19, "numbikesavailable": 1, "mechanical": 1, "ebike": 0, "is_renting": "OUI", "is_returning": "OUI", "duedate": "2024-06-13T21:54:25+00:00", "coordonnees_geo": {"lon": 2.2289156913757, "lat": 48.914304862261}, "nom_arrondissement_communes": "Colombes", "code_insee_commune": null}, {"stationcode": "3007", "name": "Archives - Pastourelle", "is_installed": "OUI", "capacity": 28, "numdocksavailable": 8, "numbikesavailable": 17, "mechanical": 13, "ebike": 4, "is_renting": "OUI", "is_returning": "OUI", "duedate": "2024-06-13T21:53:46+00:00", "coordonnees_geo": {"lon": 2.3595041, "lat": 48.8623615}, "nom_arrondissement_communes": "Paris", "code_insee_commune": null}, {"stationcode": "31020", "name": "R\u00e9sistance - Parmentier", "is_installed": "OUI", "capacity": 35, "numdocksavailable": 26, "numbikesavailable": 9, "mechanical": 4, "ebike": 5, "is_renting": "OUI", "is_returning": "OUI", "duedate": "2024-06-13T21:53:25+00:00", "coordonnees_geo": {"lon": 2.436705082654953, "lat": 48.85965138131299}, "nom_arrondissement_communes": "Montreuil", "code_insee_commune": null}, {"stationcode": "35005", "name": "Quai de l'Aisne - G\u00e9n\u00e9ral Leclerc", "is_installed": "OUI", "capacity": 27, "numdocksavailable": 19, "numbikesavailable": 7, "mechanical": 2, "ebike": 5, "is_renting": "OUI", "is_returning": "OUI", "duedate": "2024-06-13T21:50:41+00:00", "coordonnees_geo": {"lon": 2.400571, "lat": 48.895713}, "nom_arrondissement_communes": "Pantin", "code_insee_commune": null}, {"stationcode": "10201", "name": "Magenta - Chabrol", "is_installed": "OUI", "capacity": 24, "numdocksavailable": 5, "numbikesavailable": 19, "mechanical": 15, "ebike": 4, "is_renting": "OUI", "is_returning": "OUI", "duedate": "2024-06-13T21:50:41+00:00", "coordonnees_geo": {"lon": 2.3560990020633, "lat": 48.876495350882}, "nom_arrondissement_communes": "Paris", "code_insee_commune": null}, {"stationcode": "16139", "name": "Suresnes - Muette \u00e0 Neuilly", "is_installed": "OUI", "capacity": 30, "numdocksavailable": 23, "numbikesavailable": 4, "mechanical": 3, "ebike": 1, "is_renting": "OUI", "is_returning": "OUI", "duedate": "2024-06-13T21:52:19+00:00", "coordonnees_geo": {"lon": 2.266000919044, "lat": 48.868570404348}, "nom_arrondissement_communes": "Paris", "code_insee_commune": null}, {"stationcode": "6007", "name": "Br\u00e9a - Raspail", "is_installed": "OUI", "capacity": 24, "numdocksavailable": 20, "numbikesavailable": 3, "mechanical": 1, "ebike": 2, "is_renting": "OUI", "is_returning": "OUI", "duedate": "2024-06-13T21:53:11+00:00", "coordonnees_geo": {"lon": 2.3297942217634, "lat": 48.842738478258}, "nom_arrondissement_communes": "Paris", "code_insee_commune": null}, {"stationcode": "42028", "name": "Verdun - Carnot", "is_installed": "OUI", "capacity": 28, "numdocksavailable": 2, "numbikesavailable": 24, "mechanical": 1, "ebike": 23, "is_renting": "OUI", "is_returning": "OUI", "duedate": "2024-06-13T21:53:27+00:00", "coordonnees_geo": {"lon": 2.373795211315155, "lat": 48.808439376064946}, "nom_arrondissement_communes": "Ivry-sur-Seine", "code_insee_commune": null}, {"stationcode": "12166", "name": "Parc Floral du Bel Air", "is_installed": "OUI", "capacity": 25, "numdocksavailable": 22, "numbikesavailable": 3, "mechanical": 2, "ebike": 1, "is_renting": "OUI", "is_returning": "OUI", "duedate": "2024-06-13T21:52:50+00:00", "coordonnees_geo": {"lon": 2.438560165464878, "lat": 48.839285711865735}, "nom_arrondissement_communes": "Paris", "code_insee_commune": null}, {"stationcode": "21119", "name": "Belfort - Victor Hugo", "is_installed": "OUI", "capacity": 24, "numdocksavailable": 2, "numbikesavailable": 22, "mechanical": 12, "ebike": 10, "is_renting": "OUI", "is_returning": "OUI", "duedate": "2024-06-13T21:51:42+00:00", "coordonnees_geo": {"lon": 2.3172724, "lat": 48.9018492}, "nom_arrondissement_communes": "Clichy", "code_insee_commune": null}, {"stationcode": "16010", "name": "Belles Feuilles - Place de Mexico", "is_installed": "OUI", "capacity": 23, "numdocksavailable": 20, "numbikesavailable": 3, "mechanical": 3, "ebike": 0, "is_renting": "OUI", "is_returning": "OUI", "duedate": "2024-06-13T21:52:57+00:00", "coordonnees_geo": {"lon": 2.2829206287861, "lat": 48.865804746474}, "nom_arrondissement_communes": "Paris", "code_insee_commune": null}, {"stationcode": "2020", "name": "Danielle Casanova - Op\u00e9ra", "is_installed": "OUI", "capacity": 20, "numdocksavailable": 16, "numbikesavailable": 3, "mechanical": 0, "ebike": 3, "is_renting": "OUI", "is_returning": "OUI", "duedate": "2024-06-13T21:51:57+00:00", "coordonnees_geo": {"lon": 2.3333894088864, "lat": 48.867643242297}, "nom_arrondissement_communes": "Paris", "code_insee_commune": null}, {"stationcode": "32020", "name": "Jules Guesdes - Carnot", "is_installed": "OUI", "capacity": 16, "numdocksavailable": 7, "numbikesavailable": 9, "mechanical": 2, "ebike": 7, "is_renting": "OUI", "is_returning": "OUI", "duedate": "2024-06-13T21:54:00+00:00", "coordonnees_geo": {"lon": 2.3508992046117783, "lat": 48.93828169931872}, "nom_arrondissement_communes": "Saint-Denis", "code_insee_commune": null}, {"stationcode": "27006", "name": "Victor Hugo - Gare", "is_installed": "OUI", "capacity": 22, "numdocksavailable": 7, "numbikesavailable": 14, "mechanical": 9, "ebike": 5, "is_renting": "OUI", "is_returning": "OUI", "duedate": "2024-06-13T21:52:56+00:00", "coordonnees_geo": {"lon": 2.2600970417261, "lat": 48.923133952658}, "nom_arrondissement_communes": "Colombes", "code_insee_commune": null}, {"stationcode": "1008", "name": "Les Halles - Saint-Eustache", "is_installed": "OUI", "capacity": 32, "numdocksavailable": 29, "numbikesavailable": 1, "mechanical": 1, "ebike": 0, "is_renting": "OUI", "is_returning": "OUI", "duedate": "2024-06-13T21:52:15+00:00", "coordonnees_geo": {"lon": 2.342623919248581, "lat": 48.86362695901683}, "nom_arrondissement_communes": "Paris", "code_insee_commune": null}, {"stationcode": "2006", "name": "Place des Victoires", "is_installed": "OUI", "capacity": 24, "numdocksavailable": 23, "numbikesavailable": 1, "mechanical": 0, "ebike": 1, "is_renting": "OUI", "is_returning": "OUI", "duedate": "2024-06-13T21:52:35+00:00", "coordonnees_geo": {"lon": 2.3420333, "lat": 48.8660354}, "nom_arrondissement_communes": "Paris", "code_insee_commune": null}, {"stationcode": "44004", "name": "Place de l'Eglise - Vitry-sur-Seine", "is_installed": "OUI", "capacity": 28, "numdocksavailable": 1, "numbikesavailable": 27, "mechanical": 25, "ebike": 2, "is_renting": "OUI", "is_returning": "OUI", "duedate": "2024-06-13T21:53:28+00:00", "coordonnees_geo": {"lon": 2.395057752728462, "lat": 48.791922819921815}, "nom_arrondissement_communes": "Vitry-sur-Seine", "code_insee_commune": null}, {"stationcode": "8004", "name": "Malesherbes - Place de la Madeleine", "is_installed": "OUI", "capacity": 67, "numdocksavailable": 64, "numbikesavailable": 2, "mechanical": 1, "ebike": 1, "is_renting": "OUI", "is_returning": "OUI", "duedate": "2024-06-13T21:45:10+00:00", "coordonnees_geo": {"lon": 2.323243509808, "lat": 48.870406028483}, "nom_arrondissement_communes": "Paris", "code_insee_commune": null}, {"stationcode": "12202", "name": "Charenton - Wattignies", "is_installed": "OUI", "capacity": 40, "numdocksavailable": 3, "numbikesavailable": 37, "mechanical": 34, "ebike": 3, "is_renting": "OUI", "is_returning": "OUI", "duedate": "2024-06-13T21:52:16+00:00", "coordonnees_geo": {"lon": 2.3916775206425, "lat": 48.836919119234}, "nom_arrondissement_communes": "Paris", "code_insee_commune": null}, {"stationcode": "20010", "name": "Sorbier - Gasnier-Guy", "is_installed": "OUI", "capacity": 34, "numdocksavailable": 23, "numbikesavailable": 10, "mechanical": 0, "ebike": 10, "is_renting": "OUI", "is_returning": "OUI", "duedate": "2024-06-13T21:52:13+00:00", "coordonnees_geo": {"lon": 2.39365965127945, "lat": 48.86521763101122}, "nom_arrondissement_communes": "Paris", "code_insee_commune": null}, {"stationcode": "12016", "name": "Saint-Mande - Picpus", "is_installed": "OUI", "capacity": 35, "numdocksavailable": 17, "numbikesavailable": 17, "mechanical": 7, "ebike": 10, "is_renting": "OUI", "is_returning": "OUI", "duedate": "2024-06-13T21:52:26+00:00", "coordonnees_geo": {"lon": 2.4015686296482, "lat": 48.845127728278}, "nom_arrondissement_communes": "Paris", "code_insee_commune": null}, {"stationcode": "42210", "name": "Victor Hugo - Paul Eluard", "is_installed": "OUI", "capacity": 32, "numdocksavailable": 1, "numbikesavailable": 29, "mechanical": 20, "ebike": 9, "is_renting": "OUI", "is_returning": "OUI", "duedate": "2024-06-13T21:53:04+00:00", "coordonnees_geo": {"lon": 2.4114319673051, "lat": 48.819602554907}, "nom_arrondissement_communes": "Charenton-le-Pont", "code_insee_commune": null}, {"stationcode": "34013", "name": "Blanqui - Docteur Bauer", "is_installed": "OUI", "capacity": 28, "numdocksavailable": 1, "numbikesavailable": 24, "mechanical": 10, "ebike": 14, "is_renting": "OUI", "is_returning": "OUI", "duedate": "2024-06-13T21:53:52+00:00", "coordonnees_geo": {"lon": 2.3407192814591, "lat": 48.907735489085}, "nom_arrondissement_communes": "Saint-Ouen-sur-Seine", "code_insee_commune": null}, {"stationcode": "44008", "name": "Youri Gagarine - Commune de Paris", "is_installed": "OUI", "capacity": 33, "numdocksavailable": 5, "numbikesavailable": 28, "mechanical": 13, "ebike": 15, "is_renting": "OUI", "is_returning": "OUI", "duedate": "2024-06-13T21:54:10+00:00", "coordonnees_geo": {"lon": 2.3939734697342, "lat": 48.782427463041}, "nom_arrondissement_communes": "Vitry-sur-Seine", "code_insee_commune": null}, {"stationcode": "20140", "name": "Paganini - Davout", "is_installed": "OUI", "capacity": 22, "numdocksavailable": 18, "numbikesavailable": 4, "mechanical": 3, "ebike": 1, "is_renting": "OUI", "is_returning": "OUI", "duedate": "2024-06-13T21:47:41+00:00", "coordonnees_geo": {"lon": 2.412021, "lat": 48.85135}, "nom_arrondissement_communes": "Paris", "code_insee_commune": null}, {"stationcode": "48012", "name": "Stalingrad - Henri Luisette", "is_installed": "OUI", "capacity": 26, "numdocksavailable": 22, "numbikesavailable": 4, "mechanical": 0, "ebike": 4, "is_renting": "OUI", "is_returning": "OUI", "duedate": "2024-06-13T21:52:30+00:00", "coordonnees_geo": {"lon": 2.366935946761926, "lat": 48.78363092456589}, "nom_arrondissement_communes": "Villejuif", "code_insee_commune": null}, {"stationcode": "15018", "name": "Dutot - Place Alleray", "is_installed": "OUI", "capacity": 56, "numdocksavailable": 24, "numbikesavailable": 31, "mechanical": 17, "ebike": 14, "is_renting": "OUI", "is_returning": "OUI", "duedate": "2024-06-13T21:52:44+00:00", "coordonnees_geo": {"lon": 2.3071701095578, "lat": 48.836826091766}, "nom_arrondissement_communes": "Paris", "code_insee_commune": null}, {"stationcode": "20048", "name": "Bagnolet - Place Saint-Blaise", "is_installed": "OUI", "capacity": 28, "numdocksavailable": 28, "numbikesavailable": 0, "mechanical": 0, "ebike": 0, "is_renting": "OUI", "is_returning": "OUI", "duedate": "2024-06-13T21:52:16+00:00", "coordonnees_geo": {"lon": 2.40334, "lat": 48.85973}, "nom_arrondissement_communes": "Paris", "code_insee_commune": null}, {"stationcode": "10166", "name": "Strasbourg - Saint-Denis", "is_installed": "OUI", "capacity": 16, "numdocksavailable": 9, "numbikesavailable": 6, "mechanical": 5, "ebike": 1, "is_renting": "OUI", "is_returning": "OUI", "duedate": "2024-06-13T21:54:20+00:00", "coordonnees_geo": {"lon": 2.3542908579111, "lat": 48.869601642433}, "nom_arrondissement_communes": "Paris", "code_insee_commune": null}, {"stationcode": "13049", "name": "Vincent Auriol - Louise Weiss", "is_installed": "OUI", "capacity": 22, "numdocksavailable": 19, "numbikesavailable": 3, "mechanical": 0, "ebike": 3, "is_renting": "OUI", "is_returning": "OUI", "duedate": "2024-06-13T21:48:20+00:00", "coordonnees_geo": {"lon": 2.3703888058662, "lat": 48.834001935501}, "nom_arrondissement_communes": "Paris", "code_insee_commune": null}, {"stationcode": "13051", "name": "Halle Freyssinet - Parvis Alan Turing", "is_installed": "OUI", "capacity": 23, "numdocksavailable": 23, "numbikesavailable": 0, "mechanical": 0, "ebike": 0, "is_renting": "OUI", "is_returning": "OUI", "duedate": "2024-06-13T21:49:27+00:00", "coordonnees_geo": {"lon": 2.3711421713233, "lat": 48.832846814471}, "nom_arrondissement_communes": "Paris", "code_insee_commune": null}, {"stationcode": "17202", "name": "Mariotte - Batignolles", "is_installed": "OUI", "capacity": 20, "numdocksavailable": 17, "numbikesavailable": 3, "mechanical": 1, "ebike": 2, "is_renting": "OUI", "is_returning": "OUI", "duedate": "2024-06-13T21:52:52+00:00", "coordonnees_geo": {"lon": 2.321469503475, "lat": 48.884571659595}, "nom_arrondissement_communes": "Paris", "code_insee_commune": null}, {"stationcode": "8202", "name": "Londres - Europe", "is_installed": "OUI", "capacity": 27, "numdocksavailable": 22, "numbikesavailable": 4, "mechanical": 2, "ebike": 2, "is_renting": "OUI", "is_returning": "OUI", "duedate": "2024-06-13T21:51:51+00:00", "coordonnees_geo": {"lon": 2.3248164693922, "lat": 48.878618556803}, "nom_arrondissement_communes": "Paris", "code_insee_commune": null}, {"stationcode": "19018", "name": "Cit\u00e9 de la Musique", "is_installed": "OUI", "capacity": 60, "numdocksavailable": 37, "numbikesavailable": 21, "mechanical": 12, "ebike": 9, "is_renting": "OUI", "is_returning": "OUI", "duedate": "2024-06-13T21:54:24+00:00", "coordonnees_geo": {"lon": 2.3925811931922, "lat": 48.888796556487}, "nom_arrondissement_communes": "Paris", "code_insee_commune": null}, {"stationcode": "18010", "name": "Riquet - Marx Dormoy", "is_installed": "OUI", "capacity": 26, "numdocksavailable": 26, "numbikesavailable": 0, "mechanical": 0, "ebike": 0, "is_renting": "NON", "is_returning": "NON", "duedate": "2023-08-08T15:42:30+00:00", "coordonnees_geo": {"lon": 2.3601756244898, "lat": 48.89021003702}, "nom_arrondissement_communes": "Paris", "code_insee_commune": null}, {"stationcode": "10202", "name": "Bichat - Grange aux Belles", "is_installed": "OUI", "capacity": 30, "numdocksavailable": 20, "numbikesavailable": 8, "mechanical": 6, "ebike": 2, "is_renting": "OUI", "is_returning": "OUI", "duedate": "2024-06-13T21:51:33+00:00", "coordonnees_geo": {"lon": 2.365015, "lat": 48.873688}, "nom_arrondissement_communes": "Paris", "code_insee_commune": null}, {"stationcode": "42030", "name": "St\u00e9phanie Bouvard - Gambetta", "is_installed": "OUI", "capacity": 30, "numdocksavailable": 0, "numbikesavailable": 29, "mechanical": 18, "ebike": 11, "is_renting": "OUI", "is_returning": "OUI", "duedate": "2024-06-13T21:53:41+00:00", "coordonnees_geo": {"lon": 2.4024386957288, "lat": 48.814548138856}, "nom_arrondissement_communes": "Ivry-sur-Seine", "code_insee_commune": null}, {"stationcode": "23703", "name": "Gare de Chaville Rive Gauche", "is_installed": "OUI", "capacity": 18, "numdocksavailable": 17, "numbikesavailable": 1, "mechanical": 0, "ebike": 1, "is_renting": "OUI", "is_returning": "OUI", "duedate": "2024-06-13T21:51:40+00:00", "coordonnees_geo": {"lon": 2.188277207314968, "lat": 48.80516030434533}, "nom_arrondissement_communes": "Chaville", "code_insee_commune": null}, {"stationcode": "5027", "name": "Gobelins - Port-Royal", "is_installed": "OUI", "capacity": 40, "numdocksavailable": 1, "numbikesavailable": 37, "mechanical": 33, "ebike": 4, "is_renting": "OUI", "is_returning": "OUI", "duedate": "2024-06-13T21:52:38+00:00", "coordonnees_geo": {"lon": 2.3515201359987, "lat": 48.837135900263}, "nom_arrondissement_communes": "Paris", "code_insee_commune": null}, {"stationcode": "20142", "name": "M\u00fbriers - P\u00e8re Lachaise", "is_installed": "OUI", "capacity": 20, "numdocksavailable": 13, "numbikesavailable": 7, "mechanical": 1, "ebike": 6, "is_renting": "OUI", "is_returning": "OUI", "duedate": "2024-06-13T21:51:01+00:00", "coordonnees_geo": {"lon": 2.39164982067019, "lat": 48.864130509668044}, "nom_arrondissement_communes": "Paris", "code_insee_commune": null}, {"stationcode": "51008", "name": "Martyrs de Ch\u00e2teaubriant - Jean Grandel", "is_installed": "OUI", "capacity": 38, "numdocksavailable": 23, "numbikesavailable": 15, "mechanical": 6, "ebike": 9, "is_renting": "OUI", "is_returning": "OUI", "duedate": "2024-06-13T21:52:22+00:00", "coordonnees_geo": {"lon": 2.211214, "lat": 48.951432}, "nom_arrondissement_communes": "Argenteuil", "code_insee_commune": null}, {"stationcode": "18135", "name": "Ney - Porte de Montmartre", "is_installed": "OUI", "capacity": 24, "numdocksavailable": 14, "numbikesavailable": 9, "mechanical": 3, "ebike": 6, "is_renting": "OUI", "is_returning": "OUI", "duedate": "2024-06-13T21:50:12+00:00", "coordonnees_geo": {"lon": 2.3364872, "lat": 48.897918}, "nom_arrondissement_communes": "Paris", "code_insee_commune": null}, {"stationcode": "24101", "name": "Place Charles de Gaulle", "is_installed": "OUI", "capacity": 24, "numdocksavailable": 20, "numbikesavailable": 4, "mechanical": 0, "ebike": 4, "is_renting": "OUI", "is_returning": "OUI", "duedate": "2024-06-13T21:46:26+00:00", "coordonnees_geo": {"lon": 2.1894485725692, "lat": 48.826073335699}, "nom_arrondissement_communes": "Ville-d'Avray", "code_insee_commune": null}, {"stationcode": "34011", "name": "Clef des Champs - Albert Dhalenne", "is_installed": "OUI", "capacity": 28, "numdocksavailable": 14, "numbikesavailable": 10, "mechanical": 2, "ebike": 8, "is_renting": "OUI", "is_returning": "OUI", "duedate": "2024-06-13T21:53:35+00:00", "coordonnees_geo": {"lon": 2.330665, "lat": 48.914938}, "nom_arrondissement_communes": "Saint-Ouen-sur-Seine", "code_insee_commune": null}, {"stationcode": "21329", "name": "Gare - Aristide Briand", "is_installed": "OUI", "capacity": 29, "numdocksavailable": 0, "numbikesavailable": 29, "mechanical": 19, "ebike": 10, "is_renting": "OUI", "is_returning": "OUI", "duedate": "2024-06-13T21:53:07+00:00", "coordonnees_geo": {"lon": 2.2555950104387, "lat": 48.821410564722}, "nom_arrondissement_communes": "Issy-les-Moulineaux", "code_insee_commune": null}, {"stationcode": "15203", "name": "Porte de Versailles", "is_installed": "OUI", "capacity": 28, "numdocksavailable": 22, "numbikesavailable": 5, "mechanical": 3, "ebike": 2, "is_renting": "OUI", "is_returning": "OUI", "duedate": "2024-06-13T21:54:19+00:00", "coordonnees_geo": {"lon": 2.2875617349045, "lat": 48.832324016657}, "nom_arrondissement_communes": "Paris", "code_insee_commune": null}, {"stationcode": "8040", "name": "Pierre Charron - Champs-Elys\u00e9es", "is_installed": "OUI", "capacity": 32, "numdocksavailable": 29, "numbikesavailable": 0, "mechanical": 0, "ebike": 0, "is_renting": "OUI", "is_returning": "OUI", "duedate": "2024-06-13T21:52:28+00:00", "coordonnees_geo": {"lon": 2.3043501377106, "lat": 48.870103359864}, "nom_arrondissement_communes": "Paris", "code_insee_commune": null}, {"stationcode": "21002", "name": "Place Denfert-Rochereau", "is_installed": "OUI", "capacity": 20, "numdocksavailable": 0, "numbikesavailable": 19, "mechanical": 12, "ebike": 7, "is_renting": "OUI", "is_returning": "OUI", "duedate": "2024-06-13T21:52:30+00:00", "coordonnees_geo": {"lon": 2.245987951755524, "lat": 48.843252536286684}, "nom_arrondissement_communes": "Boulogne-Billancourt", "code_insee_commune": null}, {"stationcode": "13024", "name": "Bobillot - Tolbiac", "is_installed": "OUI", "capacity": 33, "numdocksavailable": 1, "numbikesavailable": 32, "mechanical": 12, "ebike": 20, "is_renting": "OUI", "is_returning": "OUI", "duedate": "2024-06-13T21:50:20+00:00", "coordonnees_geo": {"lon": 2.350204177200794, "lat": 48.8255961335041}, "nom_arrondissement_communes": "Paris", "code_insee_commune": null}, {"stationcode": "24004", "name": "Paix - Verdun", "is_installed": "OUI", "capacity": 35, "numdocksavailable": 22, "numbikesavailable": 12, "mechanical": 9, "ebike": 3, "is_renting": "OUI", "is_returning": "OUI", "duedate": "2024-06-13T21:52:47+00:00", "coordonnees_geo": {"lon": 2.261173, "lat": 48.900504}, "nom_arrondissement_communes": "Courbevoie", "code_insee_commune": null}, {"stationcode": "8018", "name": "Saint-Augustin", "is_installed": "OUI", "capacity": 31, "numdocksavailable": 31, "numbikesavailable": 0, "mechanical": 0, "ebike": 0, "is_renting": "OUI", "is_returning": "OUI", "duedate": "2024-06-13T21:51:23+00:00", "coordonnees_geo": {"lon": 2.319786250591278, "lat": 48.8762009747008}, "nom_arrondissement_communes": "Paris", "code_insee_commune": null}, {"stationcode": "23041", "name": "G\u00e9n\u00e9ral Leclerc - Bi\u00e8vre", "is_installed": "OUI", "capacity": 25, "numdocksavailable": 18, "numbikesavailable": 6, "mechanical": 5, "ebike": 1, "is_renting": "OUI", "is_returning": "OUI", "duedate": "2024-06-13T21:53:13+00:00", "coordonnees_geo": {"lon": 2.3166695237159733, "lat": 48.782414428747316}, "nom_arrondissement_communes": "Bourg-la-Reine", "code_insee_commune": null}, {"stationcode": "24005", "name": "Edith Cavell - Volta", "is_installed": "OUI", "capacity": 33, "numdocksavailable": 16, "numbikesavailable": 17, "mechanical": 10, "ebike": 7, "is_renting": "OUI", "is_returning": "OUI", "duedate": "2024-06-13T21:53:23+00:00", "coordonnees_geo": {"lon": 2.269354350864887, "lat": 48.901616564286975}, "nom_arrondissement_communes": "Courbevoie", "code_insee_commune": null}, {"stationcode": "8052", "name": "Balzac - Champs Elys\u00e9es", "is_installed": "OUI", "capacity": 30, "numdocksavailable": 30, "numbikesavailable": 0, "mechanical": 0, "ebike": 0, "is_renting": "OUI", "is_returning": "OUI", "duedate": "2024-06-13T21:53:53+00:00", "coordonnees_geo": {"lon": 2.3001953959465, "lat": 48.872699639621}, "nom_arrondissement_communes": "Paris", "code_insee_commune": null}, {"stationcode": "31104", "name": "Mairie de Rosny-sous-Bois", "is_installed": "OUI", "capacity": 30, "numdocksavailable": 11, "numbikesavailable": 17, "mechanical": 11, "ebike": 6, "is_renting": "OUI", "is_returning": "OUI", "duedate": "2024-06-13T21:50:04+00:00", "coordonnees_geo": {"lon": 2.4865807592869, "lat": 48.871256519012}, "nom_arrondissement_communes": "Rosny-sous-Bois", "code_insee_commune": null}, {"stationcode": "15069", "name": "F\u00e9lix Faure - Convention", "is_installed": "OUI", "capacity": 44, "numdocksavailable": 3, "numbikesavailable": 40, "mechanical": 36, "ebike": 4, "is_renting": "OUI", "is_returning": "OUI", "duedate": "2024-06-13T21:51:12+00:00", "coordonnees_geo": {"lon": 2.288386600849503, "lat": 48.841249336041045}, "nom_arrondissement_communes": "Paris", "code_insee_commune": null}, {"stationcode": "13116", "name": "Place du Docteur Yersin", "is_installed": "OUI", "capacity": 50, "numdocksavailable": 47, "numbikesavailable": 3, "mechanical": 1, "ebike": 2, "is_renting": "OUI", "is_returning": "OUI", "duedate": "2024-06-13T21:49:54+00:00", "coordonnees_geo": {"lon": 2.3725583776831627, "lat": 48.82010494991975}, "nom_arrondissement_communes": "Paris", "code_insee_commune": null}, {"stationcode": "11111", "name": "L\u00e9on Frot - Charonne", "is_installed": "OUI", "capacity": 19, "numdocksavailable": 0, "numbikesavailable": 18, "mechanical": 16, "ebike": 2, "is_renting": "OUI", "is_returning": "OUI", "duedate": "2024-06-13T21:53:39+00:00", "coordonnees_geo": {"lon": 2.387217085372007, "lat": 48.854963800335234}, "nom_arrondissement_communes": "Paris", "code_insee_commune": null}, {"stationcode": "13006", "name": "Dum\u00e9ril - Jeanne d'Arc", "is_installed": "OUI", "capacity": 40, "numdocksavailable": 8, "numbikesavailable": 31, "mechanical": 23, "ebike": 8, "is_renting": "OUI", "is_returning": "OUI", "duedate": "2024-06-13T21:54:17+00:00", "coordonnees_geo": {"lon": 2.357108449556404, "lat": 48.83815160808658}, "nom_arrondissement_communes": "Paris", "code_insee_commune": null}, {"stationcode": "48006", "name": "Maxime Gorki - Paul Vaillant-Couturier", "is_installed": "OUI", "capacity": 20, "numdocksavailable": 18, "numbikesavailable": 2, "mechanical": 1, "ebike": 1, "is_renting": "OUI", "is_returning": "OUI", "duedate": "2024-06-13T21:52:18+00:00", "coordonnees_geo": {"lon": 2.3683342337608337, "lat": 48.79673508795443}, "nom_arrondissement_communes": "Villejuif", "code_insee_commune": null}, {"stationcode": "15012", "name": "Cambronne - Mademoiselle", "is_installed": "OUI", "capacity": 67, "numdocksavailable": 18, "numbikesavailable": 49, "mechanical": 35, "ebike": 14, "is_renting": "OUI", "is_returning": "OUI", "duedate": "2024-06-13T21:54:24+00:00", "coordonnees_geo": {"lon": 2.30230766886348, "lat": 48.843277330035214}, "nom_arrondissement_communes": "Paris", "code_insee_commune": null}, {"stationcode": "15053", "name": "Lecourbe - Convention", "is_installed": "OUI", "capacity": 46, "numdocksavailable": 2, "numbikesavailable": 44, "mechanical": 26, "ebike": 18, "is_renting": "OUI", "is_returning": "OUI", "duedate": "2024-06-13T21:54:16+00:00", "coordonnees_geo": {"lon": 2.2915197908878326, "lat": 48.83923319241899}, "nom_arrondissement_communes": "Paris", "code_insee_commune": null}, {"stationcode": "9025", "name": "Taitbout - Ch\u00e2teaudun", "is_installed": "OUI", "capacity": 39, "numdocksavailable": 35, "numbikesavailable": 4, "mechanical": 4, "ebike": 0, "is_renting": "OUI", "is_returning": "OUI", "duedate": "2024-06-13T21:54:27+00:00", "coordonnees_geo": {"lon": 2.335356677933531, "lat": 48.876383969379}, "nom_arrondissement_communes": "Paris", "code_insee_commune": null}, {"stationcode": "15041", "name": "Franquet - Labrouste", "is_installed": "OUI", "capacity": 37, "numdocksavailable": 24, "numbikesavailable": 13, "mechanical": 7, "ebike": 6, "is_renting": "OUI", "is_returning": "OUI", "duedate": "2024-06-13T21:51:23+00:00", "coordonnees_geo": {"lon": 2.306762784719467, "lat": 48.83287705011431}, "nom_arrondissement_communes": "Paris", "code_insee_commune": null}, {"stationcode": "10003", "name": "Hauteville - Bonne Nouvelle", "is_installed": "OUI", "capacity": 17, "numdocksavailable": 14, "numbikesavailable": 2, "mechanical": 2, "ebike": 0, "is_renting": "OUI", "is_returning": "OUI", "duedate": "2024-06-13T21:50:07+00:00", "coordonnees_geo": {"lon": 2.3496496368327, "lat": 48.87077436024}, "nom_arrondissement_communes": "Paris", "code_insee_commune": null}, {"stationcode": "11022", "name": "Roquette - Auguste Laurent", "is_installed": "OUI", "capacity": 16, "numdocksavailable": 3, "numbikesavailable": 10, "mechanical": 7, "ebike": 3, "is_renting": "OUI", "is_returning": "OUI", "duedate": "2024-06-13T21:02:01+00:00", "coordonnees_geo": {"lon": 2.381797702650783, "lat": 48.858001906023354}, "nom_arrondissement_communes": "Paris", "code_insee_commune": null}, {"stationcode": "41103", "name": "Place de la vache noire", "is_installed": "OUI", "capacity": 25, "numdocksavailable": 24, "numbikesavailable": 1, "mechanical": 0, "ebike": 1, "is_renting": "OUI", "is_returning": "OUI", "duedate": "2024-06-13T21:52:10+00:00", "coordonnees_geo": {"lon": 2.327060401439667, "lat": 48.81040517059777}, "nom_arrondissement_communes": "Arcueil", "code_insee_commune": null}, {"stationcode": "13028", "name": "Gouthi\u00e8re - Poterne des Peupliers", "is_installed": "OUI", "capacity": 33, "numdocksavailable": 15, "numbikesavailable": 17, "mechanical": 15, "ebike": 2, "is_renting": "OUI", "is_returning": "OUI", "duedate": "2024-06-13T21:53:26+00:00", "coordonnees_geo": {"lon": 2.351342, "lat": 48.820507}, "nom_arrondissement_communes": "Paris", "code_insee_commune": null}, {"stationcode": "14027", "name": "Gergovie - Al\u00e9sia", "is_installed": "OUI", "capacity": 36, "numdocksavailable": 21, "numbikesavailable": 13, "mechanical": 11, "ebike": 2, "is_renting": "OUI", "is_returning": "OUI", "duedate": "2024-06-13T21:52:55+00:00", "coordonnees_geo": {"lon": 2.318882101207347, "lat": 48.83088717455243}, "nom_arrondissement_communes": "Paris", "code_insee_commune": null}, {"stationcode": "42303", "name": "Place Eustache Deschamps", "is_installed": "OUI", "capacity": 20, "numdocksavailable": 3, "numbikesavailable": 17, "mechanical": 10, "ebike": 7, "is_renting": "OUI", "is_returning": "OUI", "duedate": "2024-06-13T21:54:19+00:00", "coordonnees_geo": {"lon": 2.336637, "lat": 48.793855}, "nom_arrondissement_communes": "Cachan", "code_insee_commune": null}, {"stationcode": "48002", "name": "LCL Campus - Place Oscar Niemeyer", "is_installed": "OUI", "capacity": 37, "numdocksavailable": 14, "numbikesavailable": 23, "mechanical": 5, "ebike": 18, "is_renting": "OUI", "is_returning": "OUI", "duedate": "2024-06-13T21:49:29+00:00", "coordonnees_geo": {"lon": 2.363983690738678, "lat": 48.805342480621576}, "nom_arrondissement_communes": "Villejuif", "code_insee_commune": null}]