[{"stationcode": "14124", "name": "David Weill - Parc Montsouris", "is_installed": "OUI", "capacity": 22, "numdocksavailable": 10, "numbikesavailable": 9, "mechanical": 4, "ebike": 5, "is_renting": "OUI", "is_returning": "OUI", "duedate": "2024-06-15T01:45:25+00:00", "coordonnees_geo": {"lon": 2.333725690841675, "lat": 48.821092374256104}, "nom_arrondissement_communes": "Paris", "code_insee_commune": null}, {"stationcode": "21006", "name": "Marcelin Berthelot", "is_installed": "OUI", "capacity": 27, "numdocksavailable": 9, "numbikesavailable": 18, "mechanical": 12, "ebike": 6, "is_renting": "OUI", "is_returning": "OUI", "duedate": "2024-06-15T01:48:46+00:00", "coordonnees_geo": {"lon": 2.233161628246308, "lat": 48.8415473058801}, "nom_arrondissement_communes": "Boulogne-Billancourt", "code_insee_commune": null}, {"stationcode": "6025", "name": "Assas - Rennes", "is_installed": "OUI", "capacity": 32, "numdocksavailable": 22, "numbikesavailable": 10, "mechanical": 9, "ebike": 1, "is_renting": "OUI", "is_returning": "OUI", "duedate": "2024-06-15T01:49:00+00:00", "coordonnees_geo": {"lon": 2.32851454623001, "lat": 48.8492084999386}, "nom_arrondissement_communes": "Paris", "code_insee_commune": null}, {"stationcode": "21015", "name": "Nationale - Place Jules Guesde", "is_installed": "OUI", "capacity": 23, "numdocksavailable": 12, "numbikesavailable": 11, "mechanical": 7, "ebike": 4, "is_renting": "OUI", "is_returning": "OUI", "duedate": "2024-06-15T01:51:03+00:00", "coordonnees_geo": {"lon": 2.2416052222251897, "lat": 48.82753962462998}, "nom_arrondissement_communes": "Boulogne-Billancourt", "code_insee_commune": null}, {"stationcode": "44003", "name": "Gabriel P\u00e9ri - Danielle Casanova", "is_installed": "OUI", "capacity": 20, "numdocksavailable": 4, "numbikesavailable": 16, "mechanical": 13, "ebike": 3, "is_renting": "OUI", "is_returning": "OUI", "duedate": "2024-06-15T01:50:52+00:00", "coordonnees_geo": {"lon": 2.4025777, "lat": 48.790114}, "nom_arrondissement_communes": "Vitry-sur-Seine", "code_insee_commune": null}, {"stationcode": "15034", "name": "Lakanal - Commerce", "is_installed": "OUI", "capacity": 53, "numdocksavailable": 13, "numbikesavailable": 38, "mechanical": 35, "ebike": 3, "is_renting": "OUI", "is_returning": "OUI", "duedate": "2024-06-15T01:51:02+00:00", "coordonnees_geo": {"lon": 2.294059172272682, "lat": 48.84442462786544}, "nom_arrondissement_communes": "Paris", "code_insee_commune": null}, {"stationcode": "5028", "name": "Censier - Jardin des Plantes", "is_installed": "OUI", "capacity": 28, "numdocksavailable": 0, "numbikesavailable": 27, "mechanical": 24, "ebike": 3, "is_renting": "OUI", "is_returning": "OUI", "duedate": "2024-06-15T01:50:45+00:00", "coordonnees_geo": {"lon": 2.355475388467312, "lat": 48.84107178161383}, "nom_arrondissement_communes": "Paris", "code_insee_commune": null}, {"stationcode": "22203", "name": "Tertres - Fontaine", "is_installed": "OUI", "capacity": 28, "numdocksavailable": 21, "numbikesavailable": 7, "mechanical": 0, "ebike": 7, "is_renting": "OUI", "is_returning": "OUI", "duedate": "2024-06-15T01:50:00+00:00", "coordonnees_geo": {"lon": 2.306235730648041, "lat": 48.787553654715644}, "nom_arrondissement_communes": "Bagneux", "code_insee_commune": null}, {"stationcode": "41202", "name": "Gare Rer de Fontenay sous Bois", "is_installed": "OUI", "capacity": 61, "numdocksavailable": 55, "numbikesavailable": 6, "mechanical": 2, "ebike": 4, "is_renting": "OUI", "is_returning": "OUI", "duedate": "2024-06-15T01:51:10+00:00", "coordonnees_geo": {"lon": 2.4630465, "lat": 48.8436279}, "nom_arrondissement_communes": "Fontenay-sous-Bois", "code_insee_commune": null}, {"stationcode": "11030", "name": "Oberkampf - R\u00e9publique", "is_installed": "OUI", "capacity": 24, "numdocksavailable": 20, "numbikesavailable": 1, "mechanical": 0, "ebike": 1, "is_renting": "OUI", "is_returning": "OUI", "duedate": "2024-06-15T01:51:09+00:00", "coordonnees_geo": {"lon": 2.37611478491, "lat": 48.86531608707}, "nom_arrondissement_communes": "Paris", "code_insee_commune": null}, {"stationcode": "35020", "name": "Marcelle - Thalie", "is_installed": "OUI", "capacity": 20, "numdocksavailable": 13, "numbikesavailable": 5, "mechanical": 0, "ebike": 5, "is_renting": "OUI", "is_returning": "OUI", "duedate": "2024-06-15T01:47:57+00:00", "coordonnees_geo": {"lon": 2.4137883, "lat": 48.8835462}, "nom_arrondissement_communes": "Pantin", "code_insee_commune": null}, {"stationcode": "1020", "name": "Cambon - Rivoli", "is_installed": "OUI", "capacity": 40, "numdocksavailable": 33, "numbikesavailable": 6, "mechanical": 6, "ebike": 0, "is_renting": "OUI", "is_returning": "OUI", "duedate": "2024-06-15T01:45:38+00:00", "coordonnees_geo": {"lon": 2.3251800647137, "lat": 48.866143390992}, "nom_arrondissement_communes": "Paris", "code_insee_commune": null}, {"stationcode": "22402", "name": "Jean Jaur\u00e8s - Salvador Allende", "is_installed": "OUI", "capacity": 43, "numdocksavailable": 32, "numbikesavailable": 11, "mechanical": 2, "ebike": 9, "is_renting": "OUI", "is_returning": "OUI", "duedate": "2024-06-15T01:48:07+00:00", "coordonnees_geo": {"lon": 2.3026576638221745, "lat": 48.821475594736775}, "nom_arrondissement_communes": "Malakoff", "code_insee_commune": null}, {"stationcode": "11039", "name": "Richard Lenoir - Jean-Pierre Timbaud", "is_installed": "OUI", "capacity": 36, "numdocksavailable": 14, "numbikesavailable": 22, "mechanical": 20, "ebike": 2, "is_renting": "OUI", "is_returning": "OUI", "duedate": "2024-06-15T01:50:16+00:00", "coordonnees_geo": {"lon": 2.3693370749669, "lat": 48.865804276686}, "nom_arrondissement_communes": "Paris", "code_insee_commune": null}, {"stationcode": "17013", "name": "Legendre - Dulong", "is_installed": "OUI", "capacity": 23, "numdocksavailable": 18, "numbikesavailable": 5, "mechanical": 3, "ebike": 2, "is_renting": "OUI", "is_returning": "OUI", "duedate": "2024-06-15T01:49:19+00:00", "coordonnees_geo": {"lon": 2.316423766314984, "lat": 48.885325169402904}, "nom_arrondissement_communes": "Paris", "code_insee_commune": null}, {"stationcode": "16008", "name": "Galil\u00e9e - Kl\u00e9ber", "is_installed": "OUI", "capacity": 32, "numdocksavailable": 29, "numbikesavailable": 3, "mechanical": 1, "ebike": 2, "is_renting": "OUI", "is_returning": "OUI", "duedate": "2024-06-15T01:46:38+00:00", "coordonnees_geo": {"lon": 2.290781380114821, "lat": 48.86741186571367}, "nom_arrondissement_communes": "Paris", "code_insee_commune": null}, {"stationcode": "11026", "name": "Chemin Vert - Saint-Maur", "is_installed": "OUI", "capacity": 45, "numdocksavailable": 5, "numbikesavailable": 39, "mechanical": 26, "ebike": 13, "is_renting": "OUI", "is_returning": "OUI", "duedate": "2024-06-15T01:51:15+00:00", "coordonnees_geo": {"lon": 2.381299026310444, "lat": 48.86112461407359}, "nom_arrondissement_communes": "Paris", "code_insee_commune": null}, {"stationcode": "41601", "name": "G\u00e9n\u00e9ral De Gaulle - Alouette", "is_installed": "OUI", "capacity": 26, "numdocksavailable": 4, "numbikesavailable": 21, "mechanical": 10, "ebike": 11, "is_renting": "OUI", "is_returning": "OUI", "duedate": "2024-06-15T01:50:47+00:00", "coordonnees_geo": {"lon": 2.4175664, "lat": 48.839109}, "nom_arrondissement_communes": "Saint-Mand\u00e9", "code_insee_commune": null}, {"stationcode": "9010", "name": "Rochechouart lamartine", "is_installed": "OUI", "capacity": 24, "numdocksavailable": 21, "numbikesavailable": 2, "mechanical": 2, "ebike": 0, "is_renting": "OUI", "is_returning": "OUI", "duedate": "2024-06-15T01:47:14+00:00", "coordonnees_geo": {"lon": 2.344393021854, "lat": 48.876719895109}, "nom_arrondissement_communes": "Paris", "code_insee_commune": null}, {"stationcode": "18009", "name": "Jean-Fran\u00e7ois L\u00e9pine - Stephenson", "is_installed": "OUI", "capacity": 22, "numdocksavailable": 5, "numbikesavailable": 14, "mechanical": 5, "ebike": 9, "is_renting": "OUI", "is_returning": "OUI", "duedate": "2024-06-15T01:50:36+00:00", "coordonnees_geo": {"lon": 2.356855627529275, "lat": 48.88611466796807}, "nom_arrondissement_communes": "Paris", "code_insee_commune": null}, {"stationcode": "16038", "name": "Molitor - Chardon-Lagache", "is_installed": "OUI", "capacity": 34, "numdocksavailable": 29, "numbikesavailable": 5, "mechanical": 4, "ebike": 1, "is_renting": "OUI", "is_returning": "OUI", "duedate": "2024-06-15T01:47:37+00:00", "coordonnees_geo": {"lon": 2.2656840831041336, "lat": 48.84520880183234}, "nom_arrondissement_communes": "Paris", "code_insee_commune": null}, {"stationcode": "11105", "name": "Parmentier - R\u00e9publique", "is_installed": "OUI", "capacity": 50, "numdocksavailable": 22, "numbikesavailable": 28, "mechanical": 26, "ebike": 2, "is_renting": "OUI", "is_returning": "OUI", "duedate": "2024-06-15T01:50:32+00:00", "coordonnees_geo": {"lon": 2.3750124, "lat": 48.8644954}, "nom_arrondissement_communes": "Paris", "code_insee_commune": null}, {"stationcode": "17125", "name": "Marie-Georges Picquart - Pereire", "is_installed": "OUI", "capacity": 32, "numdocksavailable": 31, "numbikesavailable": 1, "mechanical": 0, "ebike": 1, "is_renting": "OUI", "is_returning": "OUI", "duedate": "2024-06-15T01:45:45+00:00", "coordonnees_geo": {"lon": 2.3111706599593163, "lat": 48.88863669349711}, "nom_arrondissement_communes": "Paris", "code_insee_commune": null}, {"stationcode": "43005", "name": "Gare RER de Vincennes", "is_installed": "OUI", "capacity": 51, "numdocksavailable": 40, "numbikesavailable": 10, "mechanical": 2, "ebike": 8, "is_renting": "OUI", "is_returning": "OUI", "duedate": "2024-06-15T01:48:31+00:00", "coordonnees_geo": {"lon": 2.433383166790009, "lat": 48.847563015126106}, "nom_arrondissement_communes": "Vincennes", "code_insee_commune": null}, {"stationcode": "16136", "name": "Th\u00e9ophile Gautier - Fran\u00e7ois Millet", "is_installed": "OUI", "capacity": 30, "numdocksavailable": 1, "numbikesavailable": 27, "mechanical": 26, "ebike": 1, "is_renting": "OUI", "is_returning": "OUI", "duedate": "2024-06-15T01:50:42+00:00", "coordonnees_geo": {"lon": 2.273029983043671, "lat": 48.85034821320644}, "nom_arrondissement_communes": "Paris", "code_insee_commune": null}, {"stationcode": "19022", "name": "March\u00e9 Secr\u00e9tan", "is_installed": "OUI", "capacity": 26, "numdocksavailable": 3, "numbikesavailable": 20, "mechanical": 8, "ebike": 12, "is_renting": "OUI", "is_returning": "OUI", "duedate": "2024-06-15T01:50:44+00:00", "coordonnees_geo": {"lon": 2.373463287949562, "lat": 48.88125496379482}, "nom_arrondissement_communes": "Paris", "code_insee_commune": null}, {"stationcode": "15103", "name": "Cauchy - C\u00e9vennes", "is_installed": "OUI", "capacity": 51, "numdocksavailable": 33, "numbikesavailable": 18, "mechanical": 13, "ebike": 5, "is_renting": "OUI", "is_returning": "OUI", "duedate": "2024-06-15T01:50:29+00:00", "coordonnees_geo": {"lon": 2.275132834911347, "lat": 48.8433725710224}, "nom_arrondissement_communes": "Paris", "code_insee_commune": null}, {"stationcode": "24001", "name": "Arche - L\u00e9onard de Vinci", "is_installed": "OUI", "capacity": 28, "numdocksavailable": 18, "numbikesavailable": 10, "mechanical": 4, "ebike": 6, "is_renting": "OUI", "is_returning": "OUI", "duedate": "2024-06-15T01:50:22+00:00", "coordonnees_geo": {"lon": 2.2383723043644914, "lat": 48.89790972494496}, "nom_arrondissement_communes": "Courbevoie", "code_insee_commune": null}, {"stationcode": "22016", "name": "Charles de Gaulle - Sablonville", "is_installed": "OUI", "capacity": 26, "numdocksavailable": 25, "numbikesavailable": 1, "mechanical": 0, "ebike": 1, "is_renting": "OUI", "is_returning": "OUI", "duedate": "2024-06-15T01:48:09+00:00", "coordonnees_geo": {"lon": 2.2763770446181297, "lat": 48.87991924860035}, "nom_arrondissement_communes": "Neuilly-sur-Seine", "code_insee_commune": null}, {"stationcode": "14136", "name": "Auguste Cain - Jean Moulin", "is_installed": "OUI", "capacity": 40, "numdocksavailable": 28, "numbikesavailable": 11, "mechanical": 4, "ebike": 7, "is_renting": "OUI", "is_returning": "OUI", "duedate": "2024-06-15T01:49:18+00:00", "coordonnees_geo": {"lon": 2.3210415244102482, "lat": 48.82577028927573}, "nom_arrondissement_communes": "Paris", "code_insee_commune": null}, {"stationcode": "13002", "name": "Arago - Glaci\u00e8re", "is_installed": "OUI", "capacity": 27, "numdocksavailable": 2, "numbikesavailable": 25, "mechanical": 15, "ebike": 10, "is_renting": "OUI", "is_returning": "OUI", "duedate": "2024-06-15T01:46:06+00:00", "coordonnees_geo": {"lon": 2.3445770524322067, "lat": 48.83486054775774}, "nom_arrondissement_communes": "Paris", "code_insee_commune": null}, {"stationcode": "15046", "name": "Parc Georges Brassens - Brancion", "is_installed": "OUI", "capacity": 29, "numdocksavailable": 4, "numbikesavailable": 25, "mechanical": 9, "ebike": 16, "is_renting": "OUI", "is_returning": "OUI", "duedate": "2024-06-15T01:51:07+00:00", "coordonnees_geo": {"lon": 2.3022570088505745, "lat": 48.83227829269761}, "nom_arrondissement_communes": "Paris", "code_insee_commune": null}, {"stationcode": "46001", "name": "Place Paul Eluard", "is_installed": "OUI", "capacity": 19, "numdocksavailable": 3, "numbikesavailable": 15, "mechanical": 7, "ebike": 8, "is_renting": "OUI", "is_returning": "OUI", "duedate": "2024-06-15T01:47:39+00:00", "coordonnees_geo": {"lon": 2.4144977331161503, "lat": 48.7672039733195}, "nom_arrondissement_communes": "Choisy-le-Roi", "code_insee_commune": null}, {"stationcode": "16040", "name": "Exelmans - Michel-Ange", "is_installed": "OUI", "capacity": 33, "numdocksavailable": 20, "numbikesavailable": 12, "mechanical": 10, "ebike": 2, "is_renting": "OUI", "is_returning": "OUI", "duedate": "2024-06-15T01:50:28+00:00", "coordonnees_geo": {"lon": 2.2597770800669053, "lat": 48.84309486651855}, "nom_arrondissement_communes": "Paris", "code_insee_commune": null}, {"stationcode": "19029", "name": "Seine - Flandre", "is_installed": "OUI", "capacity": 19, "numdocksavailable": 18, "numbikesavailable": 1, "mechanical": 0, "ebike": 1, "is_renting": "OUI", "is_returning": "OUI", "duedate": "2024-06-15T01:49:00+00:00", "coordonnees_geo": {"lon": 2.3746193200349808, "lat": 48.886785741479684}, "nom_arrondissement_communes": "Paris", "code_insee_commune": null}, {"stationcode": "9032", "name": "Mathurins - Auber", "is_installed": "OUI", "capacity": 36, "numdocksavailable": 35, "numbikesavailable": 1, "mechanical": 1, "ebike": 0, "is_renting": "OUI", "is_returning": "OUI", "duedate": "2024-06-15T01:49:48+00:00", "coordonnees_geo": {"lon": 2.3294984212276, "lat": 48.872988840744}, "nom_arrondissement_communes": "Paris", "code_insee_commune": null}, {"stationcode": "21104", "name": "Madame de Sanzillon - Mozart", "is_installed": "OUI", "capacity": 22, "numdocksavailable": 18, "numbikesavailable": 2, "mechanical": 1, "ebike": 1, "is_renting": "OUI", "is_returning": "OUI", "duedate": "2024-06-15T01:44:45+00:00", "coordonnees_geo": {"lon": 2.3187401890754704, "lat": 48.90379820774301}, "nom_arrondissement_communes": "Clichy", "code_insee_commune": null}, {"stationcode": "11042", "name": "Grand Prieur\u00e9 - Crussol", "is_installed": "OUI", "capacity": 49, "numdocksavailable": 18, "numbikesavailable": 28, "mechanical": 26, "ebike": 2, "is_renting": "OUI", "is_returning": "OUI", "duedate": "2024-06-15T01:49:02+00:00", "coordonnees_geo": {"lon": 2.3692265531829, "lat": 48.864660627935}, "nom_arrondissement_communes": "Paris", "code_insee_commune": null}, {"stationcode": "32026", "name": "Leroy des Barres - M\u00e9diath\u00e8que", "is_installed": "OUI", "capacity": 26, "numdocksavailable": 13, "numbikesavailable": 12, "mechanical": 4, "ebike": 8, "is_renting": "OUI", "is_returning": "OUI", "duedate": "2024-06-15T01:49:30+00:00", "coordonnees_geo": {"lon": 2.3681719727966, "lat": 48.928253687082}, "nom_arrondissement_communes": "Saint-Denis", "code_insee_commune": null}, {"stationcode": "8025", "name": "Miromesnil - La Bo\u00e9tie", "is_installed": "OUI", "capacity": 35, "numdocksavailable": 32, "numbikesavailable": 2, "mechanical": 2, "ebike": 0, "is_renting": "OUI", "is_returning": "OUI", "duedate": "2024-06-15T01:50:14+00:00", "coordonnees_geo": {"lon": 2.3158480972052, "lat": 48.873722412917}, "nom_arrondissement_communes": "Paris", "code_insee_commune": null}, {"stationcode": "19013", "name": "Laumi\u00e8re - Petit", "is_installed": "OUI", "capacity": 34, "numdocksavailable": 6, "numbikesavailable": 27, "mechanical": 12, "ebike": 15, "is_renting": "OUI", "is_returning": "OUI", "duedate": "2024-06-15T01:49:25+00:00", "coordonnees_geo": {"lon": 2.380039058625698, "lat": 48.88467368538326}, "nom_arrondissement_communes": "Paris", "code_insee_commune": null}, {"stationcode": "42504", "name": "Gare RER de Gentilly", "is_installed": "OUI", "capacity": 30, "numdocksavailable": 11, "numbikesavailable": 19, "mechanical": 6, "ebike": 13, "is_renting": "OUI", "is_returning": "OUI", "duedate": "2024-06-15T01:51:19+00:00", "coordonnees_geo": {"lon": 2.3410347104072575, "lat": 48.814280450380224}, "nom_arrondissement_communes": "Gentilly", "code_insee_commune": null}, {"stationcode": "42015", "name": "Place Jean Ferrat", "is_installed": "OUI", "capacity": 25, "numdocksavailable": 12, "numbikesavailable": 13, "mechanical": 2, "ebike": 11, "is_renting": "OUI", "is_returning": "OUI", "duedate": "2024-06-15T01:48:40+00:00", "coordonnees_geo": {"lon": 2.3744174838066106, "lat": 48.8184945213025}, "nom_arrondissement_communes": "Ivry-sur-Seine", "code_insee_commune": null}, {"stationcode": "32016", "name": "Place de la Porte de Paris", "is_installed": "OUI", "capacity": 40, "numdocksavailable": 25, "numbikesavailable": 14, "mechanical": 5, "ebike": 9, "is_renting": "OUI", "is_returning": "OUI", "duedate": "2024-06-15T01:50:43+00:00", "coordonnees_geo": {"lon": 2.3564037680625916, "lat": 48.93009363207303}, "nom_arrondissement_communes": "Saint-Denis", "code_insee_commune": null}, {"stationcode": "15201", "name": "Place Am\u00e9d\u00e9e Gordini - Lefebvre", "is_installed": "OUI", "capacity": 38, "numdocksavailable": 33, "numbikesavailable": 4, "mechanical": 1, "ebike": 3, "is_renting": "OUI", "is_returning": "OUI", "duedate": "2024-06-15T01:51:00+00:00", "coordonnees_geo": {"lon": 2.2920634208276, "lat": 48.83061737745}, "nom_arrondissement_communes": "Paris", "code_insee_commune": null}, {"stationcode": "92008", "name": "H\u00f4tel de Ville de Nanterre", "is_installed": "OUI", "capacity": 38, "numdocksavailable": 23, "numbikesavailable": 15, "mechanical": 10, "ebike": 5, "is_renting": "OUI", "is_returning": "OUI", "duedate": "2024-06-15T01:50:30+00:00", "coordonnees_geo": {"lon": 2.205548956990242, "lat": 48.892371898250424}, "nom_arrondissement_communes": "Nanterre", "code_insee_commune": null}, {"stationcode": "41402", "name": "Victor Hugo - Ecoles", "is_installed": "OUI", "capacity": 25, "numdocksavailable": 1, "numbikesavailable": 24, "mechanical": 12, "ebike": 12, "is_renting": "OUI", "is_returning": "OUI", "duedate": "2024-06-15T01:47:27+00:00", "coordonnees_geo": {"lon": 2.4180373930262093, "lat": 48.80476007936134}, "nom_arrondissement_communes": "Alfortville", "code_insee_commune": null}, {"stationcode": "51004", "name": "G\u00e9n\u00e9ral Delambre - Prebuard", "is_installed": "OUI", "capacity": 29, "numdocksavailable": 20, "numbikesavailable": 9, "mechanical": 3, "ebike": 6, "is_renting": "OUI", "is_returning": "OUI", "duedate": "2024-06-15T01:50:03+00:00", "coordonnees_geo": {"lon": 2.2234171606307, "lat": 48.93870344444}, "nom_arrondissement_communes": "Argenteuil", "code_insee_commune": null}, {"stationcode": "18012", "name": "Stephenson - Doudeauville", "is_installed": "OUI", "capacity": 36, "numdocksavailable": 7, "numbikesavailable": 29, "mechanical": 11, "ebike": 18, "is_renting": "OUI", "is_returning": "OUI", "duedate": "2024-06-15T01:49:49+00:00", "coordonnees_geo": {"lon": 2.3561610281467438, "lat": 48.888537048944826}, "nom_arrondissement_communes": "Paris", "code_insee_commune": null}, {"stationcode": "19125", "name": "Place de l'\u00c9dit de Nantes", "is_installed": "OUI", "capacity": 30, "numdocksavailable": 20, "numbikesavailable": 8, "mechanical": 4, "ebike": 4, "is_renting": "OUI", "is_returning": "OUI", "duedate": "2024-06-15T01:48:50+00:00", "coordonnees_geo": {"lon": 2.3785, "lat": 48.88879}, "nom_arrondissement_communes": "Paris", "code_insee_commune": null}, {"stationcode": "18201", "name": "Tristan Tzara -  Tcha\u00efkovski", "is_installed": "OUI", "capacity": 33, "numdocksavailable": 22, "numbikesavailable": 11, "mechanical": 3, "ebike": 8, "is_renting": "OUI", "is_returning": "OUI", "duedate": "2024-06-15T01:44:26+00:00", "coordonnees_geo": {"lon": 2.3648490384221077, "lat": 48.89490221746837}, "nom_arrondissement_communes": "Paris", "code_insee_commune": null}, {"stationcode": "19205", "name": "Simon Bolivar - Henri Turot", "is_installed": "NON", "capacity": 1, "numdocksavailable": 1, "numbikesavailable": 0, "mechanical": 0, "ebike": 0, "is_renting": "NON", "is_returning": "NON", "duedate": "2024-05-28T09:53:49+00:00", "coordonnees_geo": {"lon": 2.3739709492211, "lat": 48.877475489801}, "nom_arrondissement_communes": "Paris", "code_insee_commune": null}, {"stationcode": "9021", "name": "Saint Georges - d'Aumale", "is_installed": "OUI", "capacity": 23, "numdocksavailable": 12, "numbikesavailable": 10, "mechanical": 9, "ebike": 1, "is_renting": "OUI", "is_returning": "OUI", "duedate": "2024-06-15T01:48:00+00:00", "coordonnees_geo": {"lon": 2.337429821491241, "lat": 48.87778639599673}, "nom_arrondissement_communes": "Paris", "code_insee_commune": null}, {"stationcode": "23009", "name": "Anatole France - Louise Michel", "is_installed": "OUI", "capacity": 50, "numdocksavailable": 45, "numbikesavailable": 5, "mechanical": 1, "ebike": 4, "is_renting": "OUI", "is_returning": "OUI", "duedate": "2024-06-15T01:47:20+00:00", "coordonnees_geo": {"lon": 2.2881576418876652, "lat": 48.88873214926474}, "nom_arrondissement_communes": "Levallois-Perret", "code_insee_commune": null}, {"stationcode": "12027", "name": "Montgallet - Charenton", "is_installed": "OUI", "capacity": 16, "numdocksavailable": 0, "numbikesavailable": 15, "mechanical": 15, "ebike": 0, "is_renting": "OUI", "is_returning": "OUI", "duedate": "2024-06-15T01:50:36+00:00", "coordonnees_geo": {"lon": 2.3861649278137, "lat": 48.842647778701}, "nom_arrondissement_communes": "Paris", "code_insee_commune": null}, {"stationcode": "8035", "name": "Bienfaisance - Place de Narvik", "is_installed": "OUI", "capacity": 36, "numdocksavailable": 31, "numbikesavailable": 3, "mechanical": 1, "ebike": 2, "is_renting": "OUI", "is_returning": "OUI", "duedate": "2024-06-15T01:44:13+00:00", "coordonnees_geo": {"lon": 2.3129771277308464, "lat": 48.87660163459077}, "nom_arrondissement_communes": "Paris", "code_insee_commune": null}, {"stationcode": "21313", "name": "Guynemer - S\u00e9verine", "is_installed": "OUI", "capacity": 26, "numdocksavailable": 2, "numbikesavailable": 24, "mechanical": 23, "ebike": 1, "is_renting": "OUI", "is_returning": "OUI", "duedate": "2024-06-15T01:49:20+00:00", "coordonnees_geo": {"lon": 2.2790706530213356, "lat": 48.83091743371036}, "nom_arrondissement_communes": "Issy-les-Moulineaux", "code_insee_commune": null}, {"stationcode": "17102", "name": "Alfred Roll - Berthier", "is_installed": "OUI", "capacity": 28, "numdocksavailable": 16, "numbikesavailable": 11, "mechanical": 7, "ebike": 4, "is_renting": "OUI", "is_returning": "OUI", "duedate": "2024-06-15T01:49:27+00:00", "coordonnees_geo": {"lon": 2.3000952981763, "lat": 48.887808570529}, "nom_arrondissement_communes": "Paris", "code_insee_commune": null}, {"stationcode": "11007", "name": "Jean Mac\u00e9 - Faidherbe", "is_installed": "OUI", "capacity": 63, "numdocksavailable": 1, "numbikesavailable": 61, "mechanical": 53, "ebike": 8, "is_renting": "OUI", "is_returning": "OUI", "duedate": "2024-06-15T01:50:45+00:00", "coordonnees_geo": {"lon": 2.3828620836139, "lat": 48.85337548426}, "nom_arrondissement_communes": "Paris", "code_insee_commune": null}, {"stationcode": "35018", "name": "Ancien Canal - H\u00e9l\u00e8ne Brion", "is_installed": "OUI", "capacity": 23, "numdocksavailable": 15, "numbikesavailable": 8, "mechanical": 2, "ebike": 6, "is_renting": "OUI", "is_returning": "OUI", "duedate": "2024-06-15T01:49:16+00:00", "coordonnees_geo": {"lon": 2.4188338592648506, "lat": 48.89484799296163}, "nom_arrondissement_communes": "Pantin", "code_insee_commune": null}, {"stationcode": "19005", "name": "Flandre - Riquet", "is_installed": "OUI", "capacity": 21, "numdocksavailable": 2, "numbikesavailable": 17, "mechanical": 13, "ebike": 4, "is_renting": "OUI", "is_returning": "OUI", "duedate": "2024-06-15T01:51:11+00:00", "coordonnees_geo": {"lon": 2.3737595955229, "lat": 48.888013281448}, "nom_arrondissement_communes": "Paris", "code_insee_commune": null}, {"stationcode": "10113", "name": "Parmentier - H\u00f4pital Saint-Louis", "is_installed": "OUI", "capacity": 43, "numdocksavailable": 12, "numbikesavailable": 31, "mechanical": 16, "ebike": 15, "is_renting": "OUI", "is_returning": "OUI", "duedate": "2024-06-15T01:46:36+00:00", "coordonnees_geo": {"lon": 2.3698963836667, "lat": 48.871379874257}, "nom_arrondissement_communes": "Paris", "code_insee_commune": null}, {"stationcode": "41606", "name": "Pasteur - Gambetta", "is_installed": "OUI", "capacity": 19, "numdocksavailable": 6, "numbikesavailable": 12, "mechanical": 9, "ebike": 3, "is_renting": "OUI", "is_returning": "OUI", "duedate": "2024-06-15T01:51:13+00:00", "coordonnees_geo": {"lon": 2.4236011505126953, "lat": 48.84572797384512}, "nom_arrondissement_communes": "Saint-Mand\u00e9", "code_insee_commune": null}, {"stationcode": "17011", "name": "Fragonard - Porte de Clichy", "is_installed": "OUI", "capacity": 56, "numdocksavailable": 24, "numbikesavailable": 31, "mechanical": 25, "ebike": 6, "is_renting": "OUI", "is_returning": "OUI", "duedate": "2024-06-15T01:50:29+00:00", "coordonnees_geo": {"lon": 2.3143893107772, "lat": 48.894155633419}, "nom_arrondissement_communes": "Paris", "code_insee_commune": null}, {"stationcode": "17045", "name": "Place des Ternes.", "is_installed": "OUI", "capacity": 46, "numdocksavailable": 44, "numbikesavailable": 1, "mechanical": 0, "ebike": 1, "is_renting": "OUI", "is_returning": "OUI", "duedate": "2024-06-15T01:45:12+00:00", "coordonnees_geo": {"lon": 2.297727763652802, "lat": 48.878438631226516}, "nom_arrondissement_communes": "Paris", "code_insee_commune": null}, {"stationcode": "5021", "name": "Jussieu - Foss\u00e9s Saint-Bernard", "is_installed": "OUI", "capacity": 39, "numdocksavailable": 31, "numbikesavailable": 6, "mechanical": 5, "ebike": 1, "is_renting": "OUI", "is_returning": "OUI", "duedate": "2024-06-15T01:49:13+00:00", "coordonnees_geo": {"lon": 2.3534858599305153, "lat": 48.84718551002347}, "nom_arrondissement_communes": "Paris", "code_insee_commune": null}, {"stationcode": "41102", "name": "Gare de Laplace", "is_installed": "OUI", "capacity": 43, "numdocksavailable": 35, "numbikesavailable": 8, "mechanical": 1, "ebike": 7, "is_renting": "OUI", "is_returning": "OUI", "duedate": "2024-06-15T01:51:05+00:00", "coordonnees_geo": {"lon": 2.3349460959434514, "lat": 48.80893199114179}, "nom_arrondissement_communes": "Arcueil", "code_insee_commune": null}, {"stationcode": "17037", "name": "Bayen - Pereire", "is_installed": "OUI", "capacity": 22, "numdocksavailable": 9, "numbikesavailable": 13, "mechanical": 9, "ebike": 4, "is_renting": "OUI", "is_returning": "OUI", "duedate": "2024-06-15T01:49:19+00:00", "coordonnees_geo": {"lon": 2.2921088710427284, "lat": 48.881804409079656}, "nom_arrondissement_communes": "Paris", "code_insee_commune": null}, {"stationcode": "18141", "name": "Clignancourt - Sofia", "is_installed": "OUI", "capacity": 19, "numdocksavailable": 17, "numbikesavailable": 2, "mechanical": 0, "ebike": 2, "is_renting": "OUI", "is_returning": "OUI", "duedate": "2024-06-15T01:46:53+00:00", "coordonnees_geo": {"lon": 2.34719488842051, "lat": 48.88511992309783}, "nom_arrondissement_communes": "Paris", "code_insee_commune": null}, {"stationcode": "33009", "name": "F\u00e9lix Faure - Sadi Carnot", "is_installed": "OUI", "capacity": 33, "numdocksavailable": 23, "numbikesavailable": 8, "mechanical": 1, "ebike": 7, "is_renting": "OUI", "is_returning": "OUI", "duedate": "2024-06-15T01:50:04+00:00", "coordonnees_geo": {"lon": 2.378623187541962, "lat": 48.90812110228388}, "nom_arrondissement_communes": "Aubervilliers", "code_insee_commune": null}, {"stationcode": "14117", "name": "Gare Montparnasse - Ren\u00e9 Mouchotte", "is_installed": "OUI", "capacity": 39, "numdocksavailable": 30, "numbikesavailable": 9, "mechanical": 1, "ebike": 8, "is_renting": "OUI", "is_returning": "OUI", "duedate": "2024-06-15T01:50:52+00:00", "coordonnees_geo": {"lon": 2.320883944630623, "lat": 48.83920384329242}, "nom_arrondissement_communes": "Paris", "code_insee_commune": null}, {"stationcode": "19115", "name": "Porte de la Villette", "is_installed": "OUI", "capacity": 27, "numdocksavailable": 10, "numbikesavailable": 15, "mechanical": 10, "ebike": 5, "is_renting": "OUI", "is_returning": "OUI", "duedate": "2024-06-15T01:50:58+00:00", "coordonnees_geo": {"lon": 2.386150136590004, "lat": 48.89835196548483}, "nom_arrondissement_communes": "Paris", "code_insee_commune": null}, {"stationcode": "14034", "name": "Ouest - Ch\u00e2teau", "is_installed": "OUI", "capacity": 23, "numdocksavailable": 10, "numbikesavailable": 12, "mechanical": 5, "ebike": 7, "is_renting": "OUI", "is_returning": "OUI", "duedate": "2024-06-15T01:51:19+00:00", "coordonnees_geo": {"lon": 2.319392143923804, "lat": 48.83617286014242}, "nom_arrondissement_communes": "Paris", "code_insee_commune": null}, {"stationcode": "16018", "name": "Flandrin - Henri Martin", "is_installed": "OUI", "capacity": 18, "numdocksavailable": 17, "numbikesavailable": 1, "mechanical": 0, "ebike": 1, "is_renting": "OUI", "is_returning": "OUI", "duedate": "2024-06-15T01:48:08+00:00", "coordonnees_geo": {"lon": 2.2724174, "lat": 48.8643275}, "nom_arrondissement_communes": "Paris", "code_insee_commune": null}, {"stationcode": "12034", "name": "Pirogues de Bercy - Libourne", "is_installed": "OUI", "capacity": 49, "numdocksavailable": 13, "numbikesavailable": 35, "mechanical": 32, "ebike": 3, "is_renting": "OUI", "is_returning": "OUI", "duedate": "2024-06-15T01:48:57+00:00", "coordonnees_geo": {"lon": 2.38637, "lat": 48.832308}, "nom_arrondissement_communes": "Paris", "code_insee_commune": null}, {"stationcode": "25008", "name": "Place du 8 Mai 1945", "is_installed": "OUI", "capacity": 18, "numdocksavailable": 12, "numbikesavailable": 4, "mechanical": 0, "ebike": 4, "is_renting": "OUI", "is_returning": "OUI", "duedate": "2024-06-15T01:46:00+00:00", "coordonnees_geo": {"lon": 2.2025031970585, "lat": 48.871552174017}, "nom_arrondissement_communes": "Rueil-Malmaison", "code_insee_commune": null}, {"stationcode": "19044", "name": "Grands Moulins de Pantin", "is_installed": "OUI", "capacity": 50, "numdocksavailable": 47, "numbikesavailable": 3, "mechanical": 3, "ebike": 0, "is_renting": "OUI", "is_returning": "OUI", "duedate": "2024-06-15T01:49:51+00:00", "coordonnees_geo": {"lon": 2.3959985375404362, "lat": 48.89738369720229}, "nom_arrondissement_communes": "Paris", "code_insee_commune": null}, {"stationcode": "33001", "name": "Victor Hugo - Magasins G\u00e9n\u00e9raux", "is_installed": "OUI", "capacity": 34, "numdocksavailable": 27, "numbikesavailable": 7, "mechanical": 4, "ebike": 3, "is_renting": "OUI", "is_returning": "OUI", "duedate": "2024-06-15T01:45:34+00:00", "coordonnees_geo": {"lon": 2.368072383105755, "lat": 48.903281401126755}, "nom_arrondissement_communes": "Aubervilliers", "code_insee_commune": null}, {"stationcode": "16034", "name": "Porte d'Auteuil", "is_installed": "OUI", "capacity": 33, "numdocksavailable": 21, "numbikesavailable": 10, "mechanical": 9, "ebike": 1, "is_renting": "OUI", "is_returning": "OUI", "duedate": "2024-06-15T01:47:05+00:00", "coordonnees_geo": {"lon": 2.2608396783471107, "lat": 48.8479394142243}, "nom_arrondissement_communes": "Paris", "code_insee_commune": null}, {"stationcode": "41404", "name": "Carnot - P\u00e2querettes", "is_installed": "OUI", "capacity": 26, "numdocksavailable": 0, "numbikesavailable": 26, "mechanical": 22, "ebike": 4, "is_renting": "OUI", "is_returning": "OUI", "duedate": "2024-06-15T01:49:01+00:00", "coordonnees_geo": {"lon": 2.4261841177940373, "lat": 48.79592939432515}, "nom_arrondissement_communes": "Alfortville", "code_insee_commune": null}, {"stationcode": "19203", "name": "Pailleron - Bouret", "is_installed": "NON", "capacity": 0, "numdocksavailable": 0, "numbikesavailable": 0, "mechanical": 0, "ebike": 0, "is_renting": "NON", "is_returning": "NON", "duedate": "2024-03-28T11:31:00+00:00", "coordonnees_geo": {"lon": 2.3763902374411, "lat": 48.880516995482}, "nom_arrondissement_communes": "Paris", "code_insee_commune": null}, {"stationcode": "11031_relais", "name": "Jacquard - Ternaux", "is_installed": "OUI", "capacity": 0, "numdocksavailable": 0, "numbikesavailable": 0, "mechanical": 0, "ebike": 0, "is_renting": "NON", "is_returning": "NON", "duedate": "2023-12-06T09:59:55+00:00", "coordonnees_geo": {"lon": 2.3730935, "lat": 48.8643671}, "nom_arrondissement_communes": "Paris", "code_insee_commune": null}, {"stationcode": "18201", "name": "Tristan Tzara -  Tcha\u00efkovski", "is_installed": "OUI", "capacity": 33, "numdocksavailable": 31, "numbikesavailable": 1, "mechanical": 1, "ebike": 0, "is_renting": "OUI", "is_returning": "OUI", "duedate": "2024-06-14T18:46:17+00:00", "coordonnees_geo": {"lon": 2.3648490384221077, "lat": 48.89490221746837}, "nom_arrondissement_communes": "Paris", "code_insee_commune": null}, {"stationcode": "19205", "name": "Simon Bolivar - Henri Turot", "is_installed": "NON", "capacity": 1, "numdocksavailable": 1, "numbikesavailable": 0, "mechanical": 0, "ebike": 0, "is_renting": "NON", "is_returning": "NON", "duedate": "2024-05-28T09:53:49+00:00", "coordonnees_geo": {"lon": 2.3739709492211, "lat": 48.877475489801}, "nom_arrondissement_communes": "Paris", "code_insee_commune": null}, {"stationcode": "9021", "name": "Saint Georges - d'Aumale", "is_installed": "OUI", "capacity": 23, "numdocksavailable": 15, "numbikesavailable": 7, "mechanical": 4, "ebike": 3, "is_renting": "OUI", "is_returning": "OUI", "duedate": "2024-06-14T18:46:10+00:00", "coordonnees_geo": {"lon": 2.337429821491241, "lat": 48.87778639599673}, "nom_arrondissement_communes": "Paris", "code_insee_commune": null}, {"stationcode": "32303", "name": "Gaston Roussel - Commune de Paris", "is_installed": "OUI", "capacity": 30, "numdocksavailable": 17, "numbikesavailable": 11, "mechanical": 4, "ebike": 7, "is_renting": "OUI", "is_returning": "OUI", "duedate": "2024-06-14T18:47:14+00:00", "coordonnees_geo": {"lon": 2.432552274419542, "lat": 48.89432034553156}, "nom_arrondissement_communes": "Romainville", "code_insee_commune": null}, {"stationcode": "17102", "name": "Alfred Roll - Berthier", "is_installed": "OUI", "capacity": 28, "numdocksavailable": 22, "numbikesavailable": 4, "mechanical": 1, "ebike": 3, "is_renting": "OUI", "is_returning": "OUI", "duedate": "2024-06-14T18:46:54+00:00", "coordonnees_geo": {"lon": 2.3000952981763, "lat": 48.887808570529}, "nom_arrondissement_communes": "Paris", "code_insee_commune": null}, {"stationcode": "35018", "name": "Ancien Canal - H\u00e9l\u00e8ne Brion", "is_installed": "OUI", "capacity": 23, "numdocksavailable": 17, "numbikesavailable": 6, "mechanical": 1, "ebike": 5, "is_renting": "OUI", "is_returning": "OUI", "duedate": "2024-06-14T18:49:23+00:00", "coordonnees_geo": {"lon": 2.4188338592648506, "lat": 48.89484799296163}, "nom_arrondissement_communes": "Pantin", "code_insee_commune": null}, {"stationcode": "19005", "name": "Flandre - Riquet", "is_installed": "OUI", "capacity": 21, "numdocksavailable": 9, "numbikesavailable": 10, "mechanical": 1, "ebike": 9, "is_renting": "OUI", "is_returning": "OUI", "duedate": "2024-06-14T18:49:08+00:00", "coordonnees_geo": {"lon": 2.3737595955229, "lat": 48.888013281448}, "nom_arrondissement_communes": "Paris", "code_insee_commune": null}, {"stationcode": "10113", "name": "Parmentier - H\u00f4pital Saint-Louis", "is_installed": "OUI", "capacity": 43, "numdocksavailable": 23, "numbikesavailable": 20, "mechanical": 5, "ebike": 15, "is_renting": "OUI", "is_returning": "OUI", "duedate": "2024-06-14T18:50:00+00:00", "coordonnees_geo": {"lon": 2.3698963836667, "lat": 48.871379874257}, "nom_arrondissement_communes": "Paris", "code_insee_commune": null}, {"stationcode": "17011", "name": "Fragonard - Porte de Clichy", "is_installed": "OUI", "capacity": 56, "numdocksavailable": 20, "numbikesavailable": 36, "mechanical": 27, "ebike": 9, "is_renting": "OUI", "is_returning": "OUI", "duedate": "2024-06-14T18:50:23+00:00", "coordonnees_geo": {"lon": 2.3143893107772, "lat": 48.894155633419}, "nom_arrondissement_communes": "Paris", "code_insee_commune": null}, {"stationcode": "17045", "name": "Place des Ternes.", "is_installed": "OUI", "capacity": 46, "numdocksavailable": 42, "numbikesavailable": 1, "mechanical": 1, "ebike": 0, "is_renting": "OUI", "is_returning": "OUI", "duedate": "2024-06-14T18:50:13+00:00", "coordonnees_geo": {"lon": 2.297727763652802, "lat": 48.878438631226516}, "nom_arrondissement_communes": "Paris", "code_insee_commune": null}, {"stationcode": "43402", "name": "Place de Verdun", "is_installed": "OUI", "capacity": 40, "numdocksavailable": 2, "numbikesavailable": 37, "mechanical": 33, "ebike": 4, "is_renting": "OUI", "is_returning": "OUI", "duedate": "2024-06-14T18:49:29+00:00", "coordonnees_geo": {"lon": 2.473775, "lat": 48.8202823}, "nom_arrondissement_communes": "Joinville-le-Pont", "code_insee_commune": null}, {"stationcode": "12013", "name": "Montgallet - Reuilly", "is_installed": "OUI", "capacity": 16, "numdocksavailable": 5, "numbikesavailable": 10, "mechanical": 3, "ebike": 7, "is_renting": "OUI", "is_returning": "OUI", "duedate": "2024-06-14T18:49:39+00:00", "coordonnees_geo": {"lon": 2.3896481, "lat": 48.844291}, "nom_arrondissement_communes": "Paris", "code_insee_commune": null}, {"stationcode": "21305", "name": "Place Jacques Madaule", "is_installed": "OUI", "capacity": 25, "numdocksavailable": 4, "numbikesavailable": 19, "mechanical": 16, "ebike": 3, "is_renting": "OUI", "is_returning": "OUI", "duedate": "2024-06-14T18:47:30+00:00", "coordonnees_geo": {"lon": 2.2606918215752, "lat": 48.823933787309}, "nom_arrondissement_communes": "Issy-les-Moulineaux", "code_insee_commune": null}, {"stationcode": "14021", "name": "Place de la Porte de Ch\u00e2tillon", "is_installed": "OUI", "capacity": 59, "numdocksavailable": 50, "numbikesavailable": 9, "mechanical": 7, "ebike": 2, "is_renting": "OUI", "is_returning": "OUI", "duedate": "2024-06-14T18:48:26+00:00", "coordonnees_geo": {"lon": 2.3186306, "lat": 48.8242469}, "nom_arrondissement_communes": "Paris", "code_insee_commune": null}, {"stationcode": "5021", "name": "Jussieu - Foss\u00e9s Saint-Bernard", "is_installed": "OUI", "capacity": 39, "numdocksavailable": 25, "numbikesavailable": 13, "mechanical": 9, "ebike": 4, "is_renting": "OUI", "is_returning": "OUI", "duedate": "2024-06-14T18:49:57+00:00", "coordonnees_geo": {"lon": 2.3534858599305153, "lat": 48.84718551002347}, "nom_arrondissement_communes": "Paris", "code_insee_commune": null}, {"stationcode": "6013", "name": "Jacques Callot - Mazarine", "is_installed": "OUI", "capacity": 28, "numdocksavailable": 16, "numbikesavailable": 10, "mechanical": 5, "ebike": 5, "is_renting": "OUI", "is_returning": "OUI", "duedate": "2024-06-14T18:48:09+00:00", "coordonnees_geo": {"lon": 2.337574325501919, "lat": 48.85528017533187}, "nom_arrondissement_communes": "Paris", "code_insee_commune": null}, {"stationcode": "16121", "name": "Jardin d'Acclimatation", "is_installed": "OUI", "capacity": 33, "numdocksavailable": 29, "numbikesavailable": 4, "mechanical": 1, "ebike": 3, "is_renting": "OUI", "is_returning": "OUI", "duedate": "2024-06-14T18:50:05+00:00", "coordonnees_geo": {"lon": 2.270772233605385, "lat": 48.878772242510465}, "nom_arrondissement_communes": "Paris", "code_insee_commune": null}, {"stationcode": "17037", "name": "Bayen - Pereire", "is_installed": "OUI", "capacity": 22, "numdocksavailable": 17, "numbikesavailable": 5, "mechanical": 5, "ebike": 0, "is_renting": "OUI", "is_returning": "OUI", "duedate": "2024-06-14T18:42:07+00:00", "coordonnees_geo": {"lon": 2.2921088710427284, "lat": 48.881804409079656}, "nom_arrondissement_communes": "Paris", "code_insee_commune": null}]