[{"stationcode": "20115", "name": "Louis Lumi\u00e8re - Porte de Bagnolet", "is_installed": "OUI", "capacity": 20, "numdocksavailable": 20, "numbikesavailable": 0, "mechanical": 0, "ebike": 0, "is_renting": "OUI", "is_returning": "OUI", "duedate": "2024-06-14T16:47:47+00:00", "coordonnees_geo": {"lon": 2.4105210229754443, "lat": 48.86431136000005}, "nom_arrondissement_communes": "Paris", "code_insee_commune": null}, {"stationcode": "22402", "name": "Jean Jaur\u00e8s - Salvador Allende", "is_installed": "OUI", "capacity": 43, "numdocksavailable": 38, "numbikesavailable": 5, "mechanical": 1, "ebike": 4, "is_renting": "OUI", "is_returning": "OUI", "duedate": "2024-06-14T16:50:04+00:00", "coordonnees_geo": {"lon": 2.3026576638221745, "lat": 48.821475594736775}, "nom_arrondissement_communes": "Malakoff", "code_insee_commune": null}, {"stationcode": "21008", "name": "Victor Hugo - Galli\u00e9ni", "is_installed": "OUI", "capacity": 34, "numdocksavailable": 20, "numbikesavailable": 13, "mechanical": 9, "ebike": 4, "is_renting": "OUI", "is_returning": "OUI", "duedate": "2024-06-14T16:48:56+00:00", "coordonnees_geo": {"lon": 2.2460845112800603, "lat": 48.83802015441127}, "nom_arrondissement_communes": "Boulogne-Billancourt", "code_insee_commune": null}, {"stationcode": "41601", "name": "G\u00e9n\u00e9ral De Gaulle - Alouette", "is_installed": "OUI", "capacity": 26, "numdocksavailable": 21, "numbikesavailable": 4, "mechanical": 3, "ebike": 1, "is_renting": "OUI", "is_returning": "OUI", "duedate": "2024-06-14T18:46:26+00:00", "coordonnees_geo": {"lon": 2.4175664, "lat": 48.839109}, "nom_arrondissement_communes": "Saint-Mand\u00e9", "code_insee_commune": null}, {"stationcode": "23006", "name": "Jules Guesde - Alsace", "is_installed": "OUI", "capacity": 25, "numdocksavailable": 19, "numbikesavailable": 6, "mechanical": 5, "ebike": 1, "is_renting": "OUI", "is_returning": "OUI", "duedate": "2024-06-14T18:50:27+00:00", "coordonnees_geo": {"lon": 2.2950777411461, "lat": 48.890566275506}, "nom_arrondissement_communes": "Levallois-Perret", "code_insee_commune": null}, {"stationcode": "17105", "name": "Place Madeleine Dani\u00e9lou", "is_installed": "OUI", "capacity": 42, "numdocksavailable": 35, "numbikesavailable": 5, "mechanical": 3, "ebike": 2, "is_renting": "OUI", "is_returning": "OUI", "duedate": "2024-06-14T18:41:50+00:00", "coordonnees_geo": {"lon": 2.282015, "lat": 48.883498}, "nom_arrondissement_communes": "Paris", "code_insee_commune": null}, {"stationcode": "16030", "name": "Place de Barcelone - Mirabeau", "is_installed": "OUI", "capacity": 55, "numdocksavailable": 1, "numbikesavailable": 0, "mechanical": 0, "ebike": 0, "is_renting": "NON", "is_returning": "NON", "duedate": "2024-04-10T18:54:42+00:00", "coordonnees_geo": {"lon": 2.2735664248466, "lat": 48.847623027364}, "nom_arrondissement_communes": "Paris", "code_insee_commune": null}, {"stationcode": "16108", "name": "Sablons - Georges Mandel", "is_installed": "OUI", "capacity": 38, "numdocksavailable": 38, "numbikesavailable": 0, "mechanical": 0, "ebike": 0, "is_renting": "OUI", "is_returning": "OUI", "duedate": "2024-06-14T18:46:12+00:00", "coordonnees_geo": {"lon": 2.28189, "lat": 48.863875}, "nom_arrondissement_communes": "Paris", "code_insee_commune": null}, {"stationcode": "43005", "name": "Gare RER de Vincennes", "is_installed": "OUI", "capacity": 51, "numdocksavailable": 37, "numbikesavailable": 12, "mechanical": 8, "ebike": 4, "is_renting": "OUI", "is_returning": "OUI", "duedate": "2024-06-14T18:48:49+00:00", "coordonnees_geo": {"lon": 2.433383166790009, "lat": 48.847563015126106}, "nom_arrondissement_communes": "Vincennes", "code_insee_commune": null}, {"stationcode": "19032", "name": "Villette - Belleville", "is_installed": "OUI", "capacity": 48, "numdocksavailable": 2, "numbikesavailable": 44, "mechanical": 12, "ebike": 32, "is_renting": "OUI", "is_returning": "OUI", "duedate": "2024-06-14T18:48:34+00:00", "coordonnees_geo": {"lon": 2.376461327076, "lat": 48.8726877314}, "nom_arrondissement_communes": "Paris", "code_insee_commune": null}, {"stationcode": "15103", "name": "Cauchy - C\u00e9vennes", "is_installed": "OUI", "capacity": 51, "numdocksavailable": 35, "numbikesavailable": 16, "mechanical": 12, "ebike": 4, "is_renting": "OUI", "is_returning": "OUI", "duedate": "2024-06-14T18:50:26+00:00", "coordonnees_geo": {"lon": 2.275132834911347, "lat": 48.8433725710224}, "nom_arrondissement_communes": "Paris", "code_insee_commune": null}, {"stationcode": "22003", "name": "Beffroy", "is_installed": "OUI", "capacity": 26, "numdocksavailable": 17, "numbikesavailable": 8, "mechanical": 6, "ebike": 2, "is_renting": "OUI", "is_returning": "OUI", "duedate": "2024-06-14T18:47:47+00:00", "coordonnees_geo": {"lon": 2.2613945603371, "lat": 48.886591074488}, "nom_arrondissement_communes": "Neuilly-sur-Seine", "code_insee_commune": null}, {"stationcode": "11024", "name": "Mairie du 11\u00e8me", "is_installed": "OUI", "capacity": 51, "numdocksavailable": 3, "numbikesavailable": 43, "mechanical": 38, "ebike": 5, "is_renting": "OUI", "is_returning": "OUI", "duedate": "2024-06-14T18:50:24+00:00", "coordonnees_geo": {"lon": 2.3789759, "lat": 48.858925}, "nom_arrondissement_communes": "Paris", "code_insee_commune": null}, {"stationcode": "20134", "name": "Lieutenant Chaur\u00e9 - Etienne Marey", "is_installed": "OUI", "capacity": 20, "numdocksavailable": 16, "numbikesavailable": 3, "mechanical": 1, "ebike": 2, "is_renting": "OUI", "is_returning": "OUI", "duedate": "2024-06-14T18:50:04+00:00", "coordonnees_geo": {"lon": 2.405970990657807, "lat": 48.86746195408435}, "nom_arrondissement_communes": "Paris", "code_insee_commune": null}, {"stationcode": "24001", "name": "Arche - L\u00e9onard de Vinci", "is_installed": "OUI", "capacity": 28, "numdocksavailable": 21, "numbikesavailable": 7, "mechanical": 3, "ebike": 4, "is_renting": "OUI", "is_returning": "OUI", "duedate": "2024-06-14T18:48:55+00:00", "coordonnees_geo": {"lon": 2.2383723043644914, "lat": 48.89790972494496}, "nom_arrondissement_communes": "Courbevoie", "code_insee_commune": null}, {"stationcode": "22016", "name": "Charles de Gaulle - Sablonville", "is_installed": "OUI", "capacity": 26, "numdocksavailable": 21, "numbikesavailable": 5, "mechanical": 4, "ebike": 1, "is_renting": "OUI", "is_returning": "OUI", "duedate": "2024-06-14T18:48:38+00:00", "coordonnees_geo": {"lon": 2.2763770446181297, "lat": 48.87991924860035}, "nom_arrondissement_communes": "Neuilly-sur-Seine", "code_insee_commune": null}, {"stationcode": "13002", "name": "Arago - Glaci\u00e8re", "is_installed": "OUI", "capacity": 27, "numdocksavailable": 24, "numbikesavailable": 3, "mechanical": 2, "ebike": 1, "is_renting": "OUI", "is_returning": "OUI", "duedate": "2024-06-14T18:46:54+00:00", "coordonnees_geo": {"lon": 2.3445770524322067, "lat": 48.83486054775774}, "nom_arrondissement_communes": "Paris", "code_insee_commune": null}, {"stationcode": "17028", "name": "Reims - Raymond Pitet", "is_installed": "OUI", "capacity": 37, "numdocksavailable": 28, "numbikesavailable": 8, "mechanical": 7, "ebike": 1, "is_renting": "OUI", "is_returning": "OUI", "duedate": "2024-06-14T18:49:02+00:00", "coordonnees_geo": {"lon": 2.296319, "lat": 48.8888}, "nom_arrondissement_communes": "Paris", "code_insee_commune": null}, {"stationcode": "21301", "name": "Saint-Vincent - Verdun", "is_installed": "OUI", "capacity": 34, "numdocksavailable": 19, "numbikesavailable": 15, "mechanical": 10, "ebike": 5, "is_renting": "OUI", "is_returning": "OUI", "duedate": "2024-06-14T18:48:18+00:00", "coordonnees_geo": {"lon": 2.254007756710053, "lat": 48.819211549234495}, "nom_arrondissement_communes": "Issy-les-Moulineaux", "code_insee_commune": null}, {"stationcode": "19016", "name": "Hautpoul - Jean Jaur\u00e8s", "is_installed": "OUI", "capacity": 32, "numdocksavailable": 21, "numbikesavailable": 9, "mechanical": 5, "ebike": 4, "is_renting": "OUI", "is_returning": "OUI", "duedate": "2024-06-14T18:50:22+00:00", "coordonnees_geo": {"lon": 2.3865414544355, "lat": 48.886393679436}, "nom_arrondissement_communes": "Paris", "code_insee_commune": null}, {"stationcode": "32003", "name": "Wilson - M\u00e9tallurgie", "is_installed": "OUI", "capacity": 28, "numdocksavailable": 23, "numbikesavailable": 5, "mechanical": 3, "ebike": 2, "is_renting": "OUI", "is_returning": "OUI", "duedate": "2024-06-14T18:48:07+00:00", "coordonnees_geo": {"lon": 2.3584435880184174, "lat": 48.909423010092326}, "nom_arrondissement_communes": "Saint-Denis", "code_insee_commune": null}, {"stationcode": "32026", "name": "Leroy des Barres - M\u00e9diath\u00e8que", "is_installed": "OUI", "capacity": 26, "numdocksavailable": 16, "numbikesavailable": 9, "mechanical": 2, "ebike": 7, "is_renting": "OUI", "is_returning": "OUI", "duedate": "2024-06-14T18:44:28+00:00", "coordonnees_geo": {"lon": 2.3681719727966, "lat": 48.928253687082}, "nom_arrondissement_communes": "Saint-Denis", "code_insee_commune": null}, {"stationcode": "8025", "name": "Miromesnil - La Bo\u00e9tie", "is_installed": "OUI", "capacity": 35, "numdocksavailable": 28, "numbikesavailable": 5, "mechanical": 2, "ebike": 3, "is_renting": "OUI", "is_returning": "OUI", "duedate": "2024-06-14T18:49:19+00:00", "coordonnees_geo": {"lon": 2.3158480972052, "lat": 48.873722412917}, "nom_arrondissement_communes": "Paris", "code_insee_commune": null}, {"stationcode": "42301", "name": "Gare Arcueil - Cachan", "is_installed": "OUI", "capacity": 26, "numdocksavailable": 22, "numbikesavailable": 4, "mechanical": 3, "ebike": 1, "is_renting": "OUI", "is_returning": "OUI", "duedate": "2024-06-14T18:48:06+00:00", "coordonnees_geo": {"lon": 2.328171, "lat": 48.799824}, "nom_arrondissement_communes": "Arcueil", "code_insee_commune": null}, {"stationcode": "20043", "name": "Charonne - Avron", "is_installed": "OUI", "capacity": 27, "numdocksavailable": 19, "numbikesavailable": 8, "mechanical": 2, "ebike": 6, "is_renting": "OUI", "is_returning": "OUI", "duedate": "2024-06-14T18:50:12+00:00", "coordonnees_geo": {"lon": 2.3984030470379, "lat": 48.851602665222}, "nom_arrondissement_communes": "Paris", "code_insee_commune": null}, {"stationcode": "15201", "name": "Place Am\u00e9d\u00e9e Gordini - Lefebvre", "is_installed": "OUI", "capacity": 38, "numdocksavailable": 25, "numbikesavailable": 12, "mechanical": 6, "ebike": 6, "is_renting": "OUI", "is_returning": "OUI", "duedate": "2024-06-14T18:49:58+00:00", "coordonnees_geo": {"lon": 2.2920634208276, "lat": 48.83061737745}, "nom_arrondissement_communes": "Paris", "code_insee_commune": null}, {"stationcode": "11004", "name": "Charonne - Faubourg Saint-Antoine", "is_installed": "OUI", "capacity": 34, "numdocksavailable": 1, "numbikesavailable": 31, "mechanical": 25, "ebike": 6, "is_renting": "OUI", "is_returning": "OUI", "duedate": "2024-06-14T18:47:53+00:00", "coordonnees_geo": {"lon": 2.3740932717919, "lat": 48.852191909696}, "nom_arrondissement_communes": "Paris", "code_insee_commune": null}, {"stationcode": "43003", "name": "H\u00f4pital B\u00e9gin", "is_installed": "OUI", "capacity": 26, "numdocksavailable": 14, "numbikesavailable": 11, "mechanical": 7, "ebike": 4, "is_renting": "OUI", "is_returning": "OUI", "duedate": "2024-06-14T18:49:49+00:00", "coordonnees_geo": {"lon": 2.4272462725639348, "lat": 48.84571672113014}, "nom_arrondissement_communes": "Vincennes", "code_insee_commune": null}, {"stationcode": "11036", "name": "Jules Ferry - Faubourg du Temple Paris", "is_installed": "OUI", "capacity": 58, "numdocksavailable": 14, "numbikesavailable": 39, "mechanical": 25, "ebike": 14, "is_renting": "OUI", "is_returning": "OUI", "duedate": "2024-06-14T18:49:58+00:00", "coordonnees_geo": {"lon": 2.3678933, "lat": 48.868397}, "nom_arrondissement_communes": "Paris", "code_insee_commune": null}, {"stationcode": "18012", "name": "Stephenson - Doudeauville", "is_installed": "OUI", "capacity": 36, "numdocksavailable": 27, "numbikesavailable": 9, "mechanical": 1, "ebike": 8, "is_renting": "OUI", "is_returning": "OUI", "duedate": "2024-06-14T18:48:29+00:00", "coordonnees_geo": {"lon": 2.3561610281467438, "lat": 48.888537048944826}, "nom_arrondissement_communes": "Paris", "code_insee_commune": null}, {"stationcode": "12009", "name": "Charenton - Diderot", "is_installed": "OUI", "capacity": 18, "numdocksavailable": 0, "numbikesavailable": 17, "mechanical": 14, "ebike": 3, "is_renting": "OUI", "is_returning": "OUI", "duedate": "2024-06-14T18:45:41+00:00", "coordonnees_geo": {"lon": 2.3793068155646, "lat": 48.846171461187}, "nom_arrondissement_communes": "Paris", "code_insee_commune": null}, {"stationcode": "14036", "name": "Boulard - Daguerre", "is_installed": "OUI", "capacity": 45, "numdocksavailable": 40, "numbikesavailable": 4, "mechanical": 1, "ebike": 3, "is_renting": "OUI", "is_returning": "OUI", "duedate": "2024-06-14T18:50:00+00:00", "coordonnees_geo": {"lon": 2.3293386027216907, "lat": 48.83446472680611}, "nom_arrondissement_communes": "Paris", "code_insee_commune": null}, {"stationcode": "23009", "name": "Anatole France - Louise Michel", "is_installed": "OUI", "capacity": 50, "numdocksavailable": 44, "numbikesavailable": 6, "mechanical": 4, "ebike": 2, "is_renting": "OUI", "is_returning": "OUI", "duedate": "2024-06-14T18:46:13+00:00", "coordonnees_geo": {"lon": 2.2881576418876652, "lat": 48.88873214926474}, "nom_arrondissement_communes": "Levallois-Perret", "code_insee_commune": null}, {"stationcode": "12027", "name": "Montgallet - Charenton", "is_installed": "OUI", "capacity": 16, "numdocksavailable": 0, "numbikesavailable": 15, "mechanical": 12, "ebike": 3, "is_renting": "OUI", "is_returning": "OUI", "duedate": "2024-06-14T18:50:12+00:00", "coordonnees_geo": {"lon": 2.3861649278137, "lat": 48.842647778701}, "nom_arrondissement_communes": "Paris", "code_insee_commune": null}, {"stationcode": "42029", "name": "Stalingrad - Germaine Tailleferre", "is_installed": "OUI", "capacity": 28, "numdocksavailable": 17, "numbikesavailable": 8, "mechanical": 2, "ebike": 6, "is_renting": "OUI", "is_returning": "OUI", "duedate": "2024-06-14T18:45:52+00:00", "coordonnees_geo": {"lon": 2.3786691203713417, "lat": 48.80257200481316}, "nom_arrondissement_communes": "Ivry-sur-Seine", "code_insee_commune": null}, {"stationcode": "12115", "name": "Porte de Vincennes", "is_installed": "OUI", "capacity": 33, "numdocksavailable": 16, "numbikesavailable": 14, "mechanical": 9, "ebike": 5, "is_renting": "OUI", "is_returning": "OUI", "duedate": "2024-06-14T18:49:56+00:00", "coordonnees_geo": {"lon": 2.415514, "lat": 48.846454}, "nom_arrondissement_communes": "Paris", "code_insee_commune": null}, {"stationcode": "8035", "name": "Bienfaisance - Place de Narvik", "is_installed": "OUI", "capacity": 36, "numdocksavailable": 34, "numbikesavailable": 0, "mechanical": 0, "ebike": 0, "is_renting": "OUI", "is_returning": "OUI", "duedate": "2024-06-14T18:43:36+00:00", "coordonnees_geo": {"lon": 2.3129771277308464, "lat": 48.87660163459077}, "nom_arrondissement_communes": "Paris", "code_insee_commune": null}, {"stationcode": "21313", "name": "Guynemer - S\u00e9verine", "is_installed": "OUI", "capacity": 26, "numdocksavailable": 5, "numbikesavailable": 21, "mechanical": 19, "ebike": 2, "is_renting": "OUI", "is_returning": "OUI", "duedate": "2024-06-14T18:45:10+00:00", "coordonnees_geo": {"lon": 2.2790706530213356, "lat": 48.83091743371036}, "nom_arrondissement_communes": "Issy-les-Moulineaux", "code_insee_commune": null}, {"stationcode": "28001", "name": "Richard Wallace - Place du 8 Mai 1945", "is_installed": "OUI", "capacity": 30, "numdocksavailable": 10, "numbikesavailable": 18, "mechanical": 10, "ebike": 8, "is_renting": "OUI", "is_returning": "OUI", "duedate": "2024-06-14T18:50:05+00:00", "coordonnees_geo": {"lon": 2.2420343756675725, "lat": 48.87866794788021}, "nom_arrondissement_communes": "Puteaux", "code_insee_commune": null}, {"stationcode": "26007", "name": "Square Gilbert Thomain", "is_installed": "OUI", "capacity": 20, "numdocksavailable": 11, "numbikesavailable": 8, "mechanical": 1, "ebike": 7, "is_renting": "OUI", "is_returning": "OUI", "duedate": "2024-06-14T18:49:38+00:00", "coordonnees_geo": {"lon": 2.2695400938391685, "lat": 48.90717373809284}, "nom_arrondissement_communes": "Asni\u00e8res-sur-Seine", "code_insee_commune": null}, {"stationcode": "16111", "name": "Faustin H\u00e9lie - Desbordes-Valmore", "is_installed": "OUI", "capacity": 33, "numdocksavailable": 21, "numbikesavailable": 10, "mechanical": 2, "ebike": 8, "is_renting": "OUI", "is_returning": "OUI", "duedate": "2024-06-14T18:42:50+00:00", "coordonnees_geo": {"lon": 2.276522, "lat": 48.859403}, "nom_arrondissement_communes": "Paris", "code_insee_commune": null}, {"stationcode": "11007", "name": "Jean Mac\u00e9 - Faidherbe", "is_installed": "OUI", "capacity": 63, "numdocksavailable": 1, "numbikesavailable": 61, "mechanical": 42, "ebike": 19, "is_renting": "OUI", "is_returning": "OUI", "duedate": "2024-06-14T18:49:43+00:00", "coordonnees_geo": {"lon": 2.3828620836139, "lat": 48.85337548426}, "nom_arrondissement_communes": "Paris", "code_insee_commune": null}, {"stationcode": "7015", "name": "Varenne", "is_installed": "OUI", "capacity": 47, "numdocksavailable": 27, "numbikesavailable": 18, "mechanical": 13, "ebike": 5, "is_renting": "OUI", "is_returning": "OUI", "duedate": "2024-06-14T18:44:13+00:00", "coordonnees_geo": {"lon": 2.3152771219611, "lat": 48.857202661803}, "nom_arrondissement_communes": "Paris", "code_insee_commune": null}, {"stationcode": "15025", "name": "Dupleix - du Guesclin", "is_installed": "OUI", "capacity": 47, "numdocksavailable": 5, "numbikesavailable": 42, "mechanical": 36, "ebike": 6, "is_renting": "OUI", "is_returning": "OUI", "duedate": "2024-06-14T18:48:37+00:00", "coordonnees_geo": {"lon": 2.296709530055523, "lat": 48.85147910413369}, "nom_arrondissement_communes": "Paris", "code_insee_commune": null}, {"stationcode": "18110", "name": "Departement - Pajol", "is_installed": "OUI", "capacity": 19, "numdocksavailable": 13, "numbikesavailable": 6, "mechanical": 4, "ebike": 2, "is_renting": "OUI", "is_returning": "OUI", "duedate": "2024-06-14T18:48:30+00:00", "coordonnees_geo": {"lon": 2.3613611608743668, "lat": 48.886674849730184}, "nom_arrondissement_communes": "Paris", "code_insee_commune": null}, {"stationcode": "41606", "name": "Pasteur - Gambetta", "is_installed": "OUI", "capacity": 19, "numdocksavailable": 10, "numbikesavailable": 7, "mechanical": 4, "ebike": 3, "is_renting": "OUI", "is_returning": "OUI", "duedate": "2024-06-14T18:44:01+00:00", "coordonnees_geo": {"lon": 2.4236011505126953, "lat": 48.84572797384512}, "nom_arrondissement_communes": "Saint-Mand\u00e9", "code_insee_commune": null}, {"stationcode": "33018", "name": "Edouard Poisson - Victor Hugo", "is_installed": "OUI", "capacity": 30, "numdocksavailable": 2, "numbikesavailable": 24, "mechanical": 16, "ebike": 8, "is_renting": "OUI", "is_returning": "OUI", "duedate": "2024-06-14T18:41:56+00:00", "coordonnees_geo": {"lon": 2.379864752692811, "lat": 48.91118557052621}, "nom_arrondissement_communes": "Aubervilliers", "code_insee_commune": null}, {"stationcode": "11115", "name": "Montreuil - Gonnet", "is_installed": "OUI", "capacity": 24, "numdocksavailable": 4, "numbikesavailable": 19, "mechanical": 18, "ebike": 1, "is_renting": "OUI", "is_returning": "OUI", "duedate": "2024-06-14T18:49:40+00:00", "coordonnees_geo": {"lon": 2.3890856287864, "lat": 48.850500564921}, "nom_arrondissement_communes": "Paris", "code_insee_commune": null}, {"stationcode": "21955", "name": "Vaugirard - Verrerie", "is_installed": "NON", "capacity": 0, "numdocksavailable": 0, "numbikesavailable": 0, "mechanical": 0, "ebike": 0, "is_renting": "NON", "is_returning": "NON", "duedate": "2024-05-27T09:10:26+00:00", "coordonnees_geo": {"lon": 2.2367222622987, "lat": 48.820881336842}, "nom_arrondissement_communes": "Meudon", "code_insee_commune": null}, {"stationcode": "8033", "name": "Commandant Rivi\u00e8re", "is_installed": "OUI", "capacity": 42, "numdocksavailable": 38, "numbikesavailable": 2, "mechanical": 0, "ebike": 2, "is_renting": "OUI", "is_returning": "OUI", "duedate": "2024-06-14T18:50:29+00:00", "coordonnees_geo": {"lon": 2.309796, "lat": 48.872933}, "nom_arrondissement_communes": "Paris", "code_insee_commune": null}, {"stationcode": "23801", "name": "Place de la Gare", "is_installed": "NON", "capacity": 0, "numdocksavailable": 0, "numbikesavailable": 0, "mechanical": 0, "ebike": 0, "is_renting": "NON", "is_returning": "NON", "duedate": "2024-05-27T09:42:00+00:00", "coordonnees_geo": {"lon": 2.1866139007512, "lat": 48.838513582184}, "nom_arrondissement_communes": "Garches", "code_insee_commune": null}, {"stationcode": "23001", "name": "Paul Vaillant Couturier - Chaptal", "is_installed": "OUI", "capacity": 39, "numdocksavailable": 32, "numbikesavailable": 5, "mechanical": 3, "ebike": 2, "is_renting": "OUI", "is_returning": "OUI", "duedate": "2024-06-14T18:43:19+00:00", "coordonnees_geo": {"lon": 2.2775253653526, "lat": 48.893479576183}, "nom_arrondissement_communes": "Levallois-Perret", "code_insee_commune": null}, {"stationcode": "15010", "name": "Square Cambronne", "is_installed": "OUI", "capacity": 59, "numdocksavailable": 10, "numbikesavailable": 47, "mechanical": 43, "ebike": 4, "is_renting": "OUI", "is_returning": "OUI", "duedate": "2024-06-14T18:50:02+00:00", "coordonnees_geo": {"lon": 2.3025691509247, "lat": 48.84756654526}, "nom_arrondissement_communes": "Paris", "code_insee_commune": null}, {"stationcode": "41102", "name": "Gare de Laplace", "is_installed": "OUI", "capacity": 43, "numdocksavailable": 40, "numbikesavailable": 3, "mechanical": 0, "ebike": 3, "is_renting": "OUI", "is_returning": "OUI", "duedate": "2024-06-14T18:47:52+00:00", "coordonnees_geo": {"lon": 2.3349460959434514, "lat": 48.80893199114179}, "nom_arrondissement_communes": "Arcueil", "code_insee_commune": null}, {"stationcode": "18141", "name": "Clignancourt - Sofia", "is_installed": "OUI", "capacity": 19, "numdocksavailable": 11, "numbikesavailable": 7, "mechanical": 1, "ebike": 6, "is_renting": "OUI", "is_returning": "OUI", "duedate": "2024-06-14T18:49:43+00:00", "coordonnees_geo": {"lon": 2.34719488842051, "lat": 48.88511992309783}, "nom_arrondissement_communes": "Paris", "code_insee_commune": null}, {"stationcode": "19004", "name": "Quai de la Loire - Jean Jaur\u00e8s", "is_installed": "OUI", "capacity": 16, "numdocksavailable": 2, "numbikesavailable": 12, "mechanical": 7, "ebike": 5, "is_renting": "OUI", "is_returning": "OUI", "duedate": "2024-06-14T18:49:49+00:00", "coordonnees_geo": {"lon": 2.371074522980134, "lat": 48.88339733854529}, "nom_arrondissement_communes": "Paris", "code_insee_commune": null}, {"stationcode": "33009", "name": "F\u00e9lix Faure - Sadi Carnot", "is_installed": "OUI", "capacity": 33, "numdocksavailable": 29, "numbikesavailable": 2, "mechanical": 2, "ebike": 0, "is_renting": "OUI", "is_returning": "OUI", "duedate": "2024-06-14T18:41:36+00:00", "coordonnees_geo": {"lon": 2.378623187541962, "lat": 48.90812110228388}, "nom_arrondissement_communes": "Aubervilliers", "code_insee_commune": null}, {"stationcode": "7009", "name": "Assembl\u00e9e Nationale", "is_installed": "OUI", "capacity": 76, "numdocksavailable": 62, "numbikesavailable": 11, "mechanical": 8, "ebike": 3, "is_renting": "OUI", "is_returning": "OUI", "duedate": "2024-06-14T18:46:20+00:00", "coordonnees_geo": {"lon": 2.3201214185208, "lat": 48.861411014652}, "nom_arrondissement_communes": "Paris", "code_insee_commune": null}, {"stationcode": "5106", "name": "Cujas - Saint-Michel", "is_installed": "OUI", "capacity": 19, "numdocksavailable": 17, "numbikesavailable": 2, "mechanical": 0, "ebike": 2, "is_renting": "OUI", "is_returning": "OUI", "duedate": "2024-06-14T18:43:50+00:00", "coordonnees_geo": {"lon": 2.341831654854, "lat": 48.848191348584}, "nom_arrondissement_communes": "Paris", "code_insee_commune": null}, {"stationcode": "14034", "name": "Ouest - Ch\u00e2teau", "is_installed": "OUI", "capacity": 23, "numdocksavailable": 12, "numbikesavailable": 10, "mechanical": 2, "ebike": 8, "is_renting": "OUI", "is_returning": "OUI", "duedate": "2024-06-14T18:47:00+00:00", "coordonnees_geo": {"lon": 2.319392143923804, "lat": 48.83617286014242}, "nom_arrondissement_communes": "Paris", "code_insee_commune": null}, {"stationcode": "32010", "name": "Place aux \u00c9toiles", "is_installed": "OUI", "capacity": 40, "numdocksavailable": 38, "numbikesavailable": 2, "mechanical": 0, "ebike": 2, "is_renting": "OUI", "is_returning": "OUI", "duedate": "2024-06-14T18:44:30+00:00", "coordonnees_geo": {"lon": 2.3523425683379173, "lat": 48.91835629408464}, "nom_arrondissement_communes": "Saint-Denis", "code_insee_commune": null}, {"stationcode": "16018", "name": "Flandrin - Henri Martin", "is_installed": "OUI", "capacity": 18, "numdocksavailable": 16, "numbikesavailable": 2, "mechanical": 0, "ebike": 2, "is_renting": "OUI", "is_returning": "OUI", "duedate": "2024-06-14T18:43:57+00:00", "coordonnees_geo": {"lon": 2.2724174, "lat": 48.8643275}, "nom_arrondissement_communes": "Paris", "code_insee_commune": null}, {"stationcode": "15033", "name": "Place Violet", "is_installed": "OUI", "capacity": 30, "numdocksavailable": 2, "numbikesavailable": 28, "mechanical": 21, "ebike": 7, "is_renting": "OUI", "is_returning": "OUI", "duedate": "2024-06-14T18:48:50+00:00", "coordonnees_geo": {"lon": 2.2905756533145905, "lat": 48.84487893836502}, "nom_arrondissement_communes": "Paris", "code_insee_commune": null}, {"stationcode": "19044", "name": "Grands Moulins de Pantin", "is_installed": "OUI", "capacity": 50, "numdocksavailable": 40, "numbikesavailable": 10, "mechanical": 6, "ebike": 4, "is_renting": "OUI", "is_returning": "OUI", "duedate": "2024-06-14T18:49:46+00:00", "coordonnees_geo": {"lon": 2.3959985375404362, "lat": 48.89738369720229}, "nom_arrondissement_communes": "Paris", "code_insee_commune": null}, {"stationcode": "12201", "name": "Dugommier", "is_installed": "OUI", "capacity": 53, "numdocksavailable": 2, "numbikesavailable": 47, "mechanical": 39, "ebike": 8, "is_renting": "OUI", "is_returning": "OUI", "duedate": "2024-06-14T18:49:03+00:00", "coordonnees_geo": {"lon": 2.3896577954292, "lat": 48.838811048815}, "nom_arrondissement_communes": "Paris", "code_insee_commune": null}, {"stationcode": "16034", "name": "Porte d'Auteuil", "is_installed": "OUI", "capacity": 33, "numdocksavailable": 19, "numbikesavailable": 12, "mechanical": 8, "ebike": 4, "is_renting": "OUI", "is_returning": "OUI", "duedate": "2024-06-14T18:45:34+00:00", "coordonnees_geo": {"lon": 2.2608396783471107, "lat": 48.8479394142243}, "nom_arrondissement_communes": "Paris", "code_insee_commune": null}, {"stationcode": "41404", "name": "Carnot - P\u00e2querettes", "is_installed": "OUI", "capacity": 26, "numdocksavailable": 4, "numbikesavailable": 22, "mechanical": 20, "ebike": 2, "is_renting": "OUI", "is_returning": "OUI", "duedate": "2024-06-14T18:46:03+00:00", "coordonnees_geo": {"lon": 2.4261841177940373, "lat": 48.79592939432515}, "nom_arrondissement_communes": "Alfortville", "code_insee_commune": null}, {"stationcode": "23802", "name": "Raymond Poincar\u00e9 - All\u00e9e de la Marche", "is_installed": "NON", "capacity": 0, "numdocksavailable": 0, "numbikesavailable": 0, "mechanical": 0, "ebike": 0, "is_renting": "NON", "is_returning": "NON", "duedate": "2024-05-27T09:47:05+00:00", "coordonnees_geo": {"lon": 2.1724102640451, "lat": 48.838634069623}, "nom_arrondissement_communes": "Garches", "code_insee_commune": null}, {"stationcode": "20119", "name": "Square des Saint-Simoniens", "is_installed": "OUI", "capacity": 25, "numdocksavailable": 24, "numbikesavailable": 1, "mechanical": 0, "ebike": 1, "is_renting": "OUI", "is_returning": "OUI", "duedate": "2024-06-14T18:41:48+00:00", "coordonnees_geo": {"lon": 2.3967273, "lat": 48.8701796}, "nom_arrondissement_communes": "Paris", "code_insee_commune": null}, {"stationcode": "19019", "name": "Petit - Manin", "is_installed": "OUI", "capacity": 22, "numdocksavailable": 11, "numbikesavailable": 10, "mechanical": 8, "ebike": 2, "is_renting": "OUI", "is_returning": "OUI", "duedate": "2024-06-14T18:50:07+00:00", "coordonnees_geo": {"lon": 2.3938155401308374, "lat": 48.88650687534334}, "nom_arrondissement_communes": "Paris", "code_insee_commune": null}, {"stationcode": "20036", "name": "M\u00e9nilmontant - Pelleport", "is_installed": "OUI", "capacity": 19, "numdocksavailable": 15, "numbikesavailable": 3, "mechanical": 0, "ebike": 3, "is_renting": "OUI", "is_returning": "OUI", "duedate": "2024-06-14T18:46:55+00:00", "coordonnees_geo": {"lon": 2.398959602331646, "lat": 48.87068263384462}, "nom_arrondissement_communes": "Paris", "code_insee_commune": null}, {"stationcode": "92003", "name": "Chanzy - Sud-Est", "is_installed": "OUI", "capacity": 25, "numdocksavailable": 20, "numbikesavailable": 5, "mechanical": 4, "ebike": 1, "is_renting": "OUI", "is_returning": "OUI", "duedate": "2024-06-14T18:47:19+00:00", "coordonnees_geo": {"lon": 2.195632159709931, "lat": 48.888912037698766}, "nom_arrondissement_communes": "Nanterre", "code_insee_commune": null}, {"stationcode": "35009", "name": "Jean Lolive - Parc Stalingrad", "is_installed": "OUI", "capacity": 22, "numdocksavailable": 7, "numbikesavailable": 14, "mechanical": 7, "ebike": 7, "is_renting": "OUI", "is_returning": "OUI", "duedate": "2024-06-14T18:48:12+00:00", "coordonnees_geo": {"lon": 2.4091735482215886, "lat": 48.89206174403158}, "nom_arrondissement_communes": "Pantin", "code_insee_commune": null}, {"stationcode": "27002", "name": "Parc Pierre Lagrav\u00e8re", "is_installed": "OUI", "capacity": 30, "numdocksavailable": 12, "numbikesavailable": 16, "mechanical": 12, "ebike": 4, "is_renting": "OUI", "is_returning": "OUI", "duedate": "2024-06-14T18:50:11+00:00", "coordonnees_geo": {"lon": 2.239069678491417, "lat": 48.92650488131725}, "nom_arrondissement_communes": "Colombes", "code_insee_commune": null}, {"stationcode": "21109", "name": "Guichet - Jean Jaur\u00e8s", "is_installed": "OUI", "capacity": 28, "numdocksavailable": 12, "numbikesavailable": 15, "mechanical": 9, "ebike": 6, "is_renting": "OUI", "is_returning": "OUI", "duedate": "2024-06-14T18:50:19+00:00", "coordonnees_geo": {"lon": 2.3023840785026555, "lat": 48.905169868129036}, "nom_arrondissement_communes": "Clichy", "code_insee_commune": null}, {"stationcode": "23701", "name": "Parvis Robert Schuman - Roger Salengro", "is_installed": "OUI", "capacity": 24, "numdocksavailable": 22, "numbikesavailable": 2, "mechanical": 0, "ebike": 2, "is_renting": "OUI", "is_returning": "OUI", "duedate": "2024-06-14T18:49:32+00:00", "coordonnees_geo": {"lon": 2.1921751275658607, "lat": 48.812657470558754}, "nom_arrondissement_communes": "Chaville", "code_insee_commune": null}, {"stationcode": "12126", "name": "Gravelle - Route du Bac", "is_installed": "OUI", "capacity": 51, "numdocksavailable": 44, "numbikesavailable": 6, "mechanical": 0, "ebike": 6, "is_renting": "OUI", "is_returning": "OUI", "duedate": "2024-06-14T18:47:08+00:00", "coordonnees_geo": {"lon": 2.418455, "lat": 48.824407}, "nom_arrondissement_communes": "Paris", "code_insee_commune": null}, {"stationcode": "35019", "name": "Anatole France - Jean Lolive", "is_installed": "OUI", "capacity": 28, "numdocksavailable": 11, "numbikesavailable": 14, "mechanical": 6, "ebike": 8, "is_renting": "OUI", "is_returning": "OUI", "duedate": "2024-06-14T18:49:47+00:00", "coordonnees_geo": {"lon": 2.4253764, "lat": 48.8949922}, "nom_arrondissement_communes": "Pantin", "code_insee_commune": null}, {"stationcode": "6030", "name": "Assas - Vaugirard", "is_installed": "OUI", "capacity": 35, "numdocksavailable": 16, "numbikesavailable": 18, "mechanical": 9, "ebike": 9, "is_renting": "OUI", "is_returning": "OUI", "duedate": "2024-06-14T18:49:06+00:00", "coordonnees_geo": {"lon": 2.3292413726449, "lat": 48.848274111398}, "nom_arrondissement_communes": "Paris", "code_insee_commune": null}, {"stationcode": "5116", "name": "Place Valhubert", "is_installed": "OUI", "capacity": 51, "numdocksavailable": 2, "numbikesavailable": 49, "mechanical": 45, "ebike": 4, "is_renting": "OUI", "is_returning": "OUI", "duedate": "2024-06-14T18:49:50+00:00", "coordonnees_geo": {"lon": 2.3640366643667, "lat": 48.844182577315}, "nom_arrondissement_communes": "Paris", "code_insee_commune": null}, {"stationcode": "18005", "name": "Tardieu - Chappe", "is_installed": "OUI", "capacity": 18, "numdocksavailable": 9, "numbikesavailable": 9, "mechanical": 2, "ebike": 7, "is_renting": "OUI", "is_returning": "OUI", "duedate": "2024-06-14T18:49:11+00:00", "coordonnees_geo": {"lon": 2.341845408082, "lat": 48.884146759782}, "nom_arrondissement_communes": "Paris", "code_insee_commune": null}, {"stationcode": "10005", "name": "Petites Ecuries - Faubourg Poissonni\u00e8re", "is_installed": "OUI", "capacity": 17, "numdocksavailable": 2, "numbikesavailable": 13, "mechanical": 6, "ebike": 7, "is_renting": "OUI", "is_returning": "OUI", "duedate": "2024-06-14T18:46:14+00:00", "coordonnees_geo": {"lon": 2.348388757504776, "lat": 48.87397217237368}, "nom_arrondissement_communes": "Paris", "code_insee_commune": null}, {"stationcode": "26001", "name": "Gare d'Asni\u00e8res sur Seine", "is_installed": "OUI", "capacity": 24, "numdocksavailable": 8, "numbikesavailable": 15, "mechanical": 12, "ebike": 3, "is_renting": "OUI", "is_returning": "OUI", "duedate": "2024-06-14T18:49:21+00:00", "coordonnees_geo": {"lon": 2.2835066914558415, "lat": 48.90636459217474}, "nom_arrondissement_communes": "Asni\u00e8res-sur-Seine", "code_insee_commune": null}, {"stationcode": "92004", "name": "Nanterre - Universit\u00e9", "is_installed": "OUI", "capacity": 20, "numdocksavailable": 16, "numbikesavailable": 3, "mechanical": 2, "ebike": 1, "is_renting": "OUI", "is_returning": "OUI", "duedate": "2024-06-14T18:47:55+00:00", "coordonnees_geo": {"lon": 2.212693, "lat": 48.901365}, "nom_arrondissement_communes": "Nanterre", "code_insee_commune": null}, {"stationcode": "18020", "name": "Francoeur - Marcadet", "is_installed": "OUI", "capacity": 20, "numdocksavailable": 17, "numbikesavailable": 3, "mechanical": 2, "ebike": 1, "is_renting": "OUI", "is_returning": "OUI", "duedate": "2024-06-14T18:48:38+00:00", "coordonnees_geo": {"lon": 2.340014585442034, "lat": 48.89104123261663}, "nom_arrondissement_communes": "Paris", "code_insee_commune": null}, {"stationcode": "43006", "name": "Vignerons - Minimes", "is_installed": "OUI", "capacity": 29, "numdocksavailable": 20, "numbikesavailable": 9, "mechanical": 2, "ebike": 7, "is_renting": "OUI", "is_returning": "OUI", "duedate": "2024-06-14T18:48:01+00:00", "coordonnees_geo": {"lon": 2.430793, "lat": 48.841486}, "nom_arrondissement_communes": "Vincennes", "code_insee_commune": null}, {"stationcode": "5002", "name": "Sommerard - Saint-Jacques", "is_installed": "OUI", "capacity": 34, "numdocksavailable": 2, "numbikesavailable": 32, "mechanical": 25, "ebike": 7, "is_renting": "OUI", "is_returning": "OUI", "duedate": "2024-06-14T18:47:49+00:00", "coordonnees_geo": {"lon": 2.345015835298588, "lat": 48.850310432924466}, "nom_arrondissement_communes": "Paris", "code_insee_commune": null}, {"stationcode": "15028", "name": "Grenelle - Dr Finlay", "is_installed": "OUI", "capacity": 71, "numdocksavailable": 33, "numbikesavailable": 35, "mechanical": 30, "ebike": 5, "is_renting": "OUI", "is_returning": "OUI", "duedate": "2024-06-14T18:50:16+00:00", "coordonnees_geo": {"lon": 2.2919502854347233, "lat": 48.851315406715976}, "nom_arrondissement_communes": "Paris", "code_insee_commune": null}, {"stationcode": "8102", "name": "Lamennais - Washington", "is_installed": "OUI", "capacity": 26, "numdocksavailable": 22, "numbikesavailable": 2, "mechanical": 0, "ebike": 2, "is_renting": "OUI", "is_returning": "OUI", "duedate": "2024-06-14T18:42:01+00:00", "coordonnees_geo": {"lon": 2.303444892168045, "lat": 48.87352990026496}, "nom_arrondissement_communes": "Paris", "code_insee_commune": null}, {"stationcode": "21111", "name": "Professeur Ren\u00e9 Leriche - G\u00e9n\u00e9ral Leclerc", "is_installed": "OUI", "capacity": 50, "numdocksavailable": 22, "numbikesavailable": 26, "mechanical": 12, "ebike": 14, "is_renting": "OUI", "is_returning": "OUI", "duedate": "2024-06-14T18:49:51+00:00", "coordonnees_geo": {"lon": 2.307887971401215, "lat": 48.90782845483013}, "nom_arrondissement_communes": "Clichy", "code_insee_commune": null}, {"stationcode": "2010", "name": "Uz\u00e8s - Montmartre", "is_installed": "OUI", "capacity": 29, "numdocksavailable": 22, "numbikesavailable": 5, "mechanical": 3, "ebike": 2, "is_renting": "OUI", "is_returning": "OUI", "duedate": "2024-06-14T18:49:31+00:00", "coordonnees_geo": {"lon": 2.3431010171771054, "lat": 48.870790980240706}, "nom_arrondissement_communes": "Paris", "code_insee_commune": null}, {"stationcode": "11114", "name": "Ledru-Rollin - Charonne", "is_installed": "OUI", "capacity": 32, "numdocksavailable": 0, "numbikesavailable": 31, "mechanical": 29, "ebike": 2, "is_renting": "OUI", "is_returning": "OUI", "duedate": "2024-06-14T18:50:25+00:00", "coordonnees_geo": {"lon": 2.3772463581947094, "lat": 48.85345855607243}, "nom_arrondissement_communes": "Paris", "code_insee_commune": null}, {"stationcode": "20040", "name": "Parc de Belleville - Julien Lacroix", "is_installed": "OUI", "capacity": 26, "numdocksavailable": 20, "numbikesavailable": 6, "mechanical": 1, "ebike": 5, "is_renting": "OUI", "is_returning": "OUI", "duedate": "2024-06-14T18:50:24+00:00", "coordonnees_geo": {"lon": 2.3842214, "lat": 48.8703459}, "nom_arrondissement_communes": "Paris", "code_insee_commune": null}, {"stationcode": "17017", "name": "Gare de Pont-Cardinet", "is_installed": "OUI", "capacity": 34, "numdocksavailable": 21, "numbikesavailable": 10, "mechanical": 4, "ebike": 6, "is_renting": "OUI", "is_returning": "OUI", "duedate": "2024-06-14T18:49:15+00:00", "coordonnees_geo": {"lon": 2.314494143994255, "lat": 48.88713901475306}, "nom_arrondissement_communes": "Paris", "code_insee_commune": null}, {"stationcode": "10023", "name": "Gare de l'Est - Verdun", "is_installed": "OUI", "capacity": 14, "numdocksavailable": 9, "numbikesavailable": 3, "mechanical": 1, "ebike": 2, "is_renting": "OUI", "is_returning": "OUI", "duedate": "2024-06-14T18:48:59+00:00", "coordonnees_geo": {"lon": 2.3609149083206, "lat": 48.876156054271}, "nom_arrondissement_communes": "Paris", "code_insee_commune": null}, {"stationcode": "13026", "name": "Place Jean Delay", "is_installed": "OUI", "capacity": 35, "numdocksavailable": 27, "numbikesavailable": 7, "mechanical": 2, "ebike": 5, "is_renting": "OUI", "is_returning": "OUI", "duedate": "2024-06-14T16:27:54+00:00", "coordonnees_geo": {"lon": 2.354336, "lat": 48.823316}, "nom_arrondissement_communes": "Paris", "code_insee_commune": null}, {"stationcode": "11101", "name": "Charles Delescluze", "is_installed": "OUI", "capacity": 49, "numdocksavailable": 0, "numbikesavailable": 47, "mechanical": 23, "ebike": 24, "is_renting": "OUI", "is_returning": "OUI", "duedate": "2024-06-14T18:48:14+00:00", "coordonnees_geo": {"lon": 2.380632497370243, "lat": 48.85242200848887}, "nom_arrondissement_communes": "Paris", "code_insee_commune": null}, {"stationcode": "10015", "name": "Lucien Sampaix - R\u00e9collets", "is_installed": "OUI", "capacity": 46, "numdocksavailable": 29, "numbikesavailable": 16, "mechanical": 12, "ebike": 4, "is_renting": "OUI", "is_returning": "OUI", "duedate": "2024-06-14T18:48:07+00:00", "coordonnees_geo": {"lon": 2.3621229082345963, "lat": 48.874330377560476}, "nom_arrondissement_communes": "Paris", "code_insee_commune": null}, {"stationcode": "16006", "name": "Lauriston - Copernic", "is_installed": "OUI", "capacity": 19, "numdocksavailable": 17, "numbikesavailable": 1, "mechanical": 0, "ebike": 1, "is_renting": "OUI", "is_returning": "OUI", "duedate": "2024-06-14T18:47:52+00:00", "coordonnees_geo": {"lon": 2.289918, "lat": 48.86926}, "nom_arrondissement_communes": "Paris", "code_insee_commune": null}, {"stationcode": "12011", "name": "Charenton - Place du Col Bourgoin", "is_installed": "OUI", "capacity": 35, "numdocksavailable": 1, "numbikesavailable": 33, "mechanical": 32, "ebike": 1, "is_renting": "OUI", "is_returning": "OUI", "duedate": "2024-06-14T18:47:14+00:00", "coordonnees_geo": {"lon": 2.3825789350545, "lat": 48.844867319554}, "nom_arrondissement_communes": "Paris", "code_insee_commune": null}]