[{"stationcode": "22302", "name": "Gare RER - G\u00e9n\u00e9ral de Gaulle", "is_installed": "OUI", "capacity": 41, "numdocksavailable": 19, "numbikesavailable": 20, "mechanical": 8, "ebike": 12, "is_renting": "OUI", "is_returning": "OUI", "duedate": "2024-06-14T13:49:39+00:00", "coordonnees_geo": {"lon": 2.3064726536317, "lat": 48.933548439566}, "nom_arrondissement_communes": "Gennevilliers", "code_insee_commune": null}, {"stationcode": "13053", "name": "Chevaleret - Tolbiac", "is_installed": "OUI", "capacity": 21, "numdocksavailable": 6, "numbikesavailable": 12, "mechanical": 12, "ebike": 0, "is_renting": "OUI", "is_returning": "OUI", "duedate": "2024-06-14T13:49:31+00:00", "coordonnees_geo": {"lon": 2.375934, "lat": 48.82941}, "nom_arrondissement_communes": "Paris", "code_insee_commune": null}, {"stationcode": "15500", "name": null, "is_installed": "NON", "capacity": null, "numdocksavailable": 0, "numbikesavailable": 0, "mechanical": 0, "ebike": 0, "is_renting": "NON", "is_returning": "NON", "duedate": "2024-06-14T11:56:48+00:00", "coordonnees_geo": null, "nom_arrondissement_communes": null, "code_insee_commune": null}, {"stationcode": "41304", "name": "Port - Maurice Chevalier", "is_installed": "OUI", "capacity": 30, "numdocksavailable": 4, "numbikesavailable": 24, "mechanical": 22, "ebike": 2, "is_renting": "OUI", "is_returning": "OUI", "duedate": "2024-06-14T13:46:05+00:00", "coordonnees_geo": {"lon": 2.490257616467, "lat": 48.832474421632}, "nom_arrondissement_communes": "Nogent-sur-Marne", "code_insee_commune": null}, {"stationcode": "10151", "name": "Gare du Nord - Faubourg Saint-Denis", "is_installed": "OUI", "capacity": 28, "numdocksavailable": 10, "numbikesavailable": 14, "mechanical": 4, "ebike": 10, "is_renting": "OUI", "is_returning": "OUI", "duedate": "2024-06-14T13:49:48+00:00", "coordonnees_geo": {"lon": 2.3568402975798, "lat": 48.879612765504}, "nom_arrondissement_communes": "Paris", "code_insee_commune": null}, {"stationcode": "8031", "name": "Jean Mermoz - Champs-Elys\u00e9es", "is_installed": "OUI", "capacity": 49, "numdocksavailable": 11, "numbikesavailable": 36, "mechanical": 17, "ebike": 19, "is_renting": "OUI", "is_returning": "OUI", "duedate": "2024-06-14T13:45:51+00:00", "coordonnees_geo": {"lon": 2.3107324540615, "lat": 48.869689856852}, "nom_arrondissement_communes": "Paris", "code_insee_commune": null}, {"stationcode": "10001_relais", "name": "Ren\u00e9 Boulanger - Lancry", "is_installed": "NON", "capacity": 0, "numdocksavailable": 0, "numbikesavailable": 0, "mechanical": 0, "ebike": 0, "is_renting": "NON", "is_returning": "NON", "duedate": "2024-06-14T13:49:20+00:00", "coordonnees_geo": {"lon": 2.3599605, "lat": 48.8687079}, "nom_arrondissement_communes": "Paris", "code_insee_commune": null}, {"stationcode": "21327", "name": "Jean Bouin - Gouverneur G\u00e9n\u00e9ral Ebou\u00e9", "is_installed": "OUI", "capacity": 31, "numdocksavailable": 18, "numbikesavailable": 12, "mechanical": 10, "ebike": 2, "is_renting": "OUI", "is_returning": "OUI", "duedate": "2024-06-14T13:48:03+00:00", "coordonnees_geo": {"lon": 2.2651904328524, "lat": 48.824792734266}, "nom_arrondissement_communes": "Issy-les-Moulineaux", "code_insee_commune": null}, {"stationcode": "26011", "name": "M\u00e9nil - Argenteuil", "is_installed": "OUI", "capacity": 20, "numdocksavailable": 12, "numbikesavailable": 8, "mechanical": 4, "ebike": 4, "is_renting": "OUI", "is_returning": "OUI", "duedate": "2024-06-14T13:48:32+00:00", "coordonnees_geo": {"lon": 2.2741496502338, "lat": 48.925901818305}, "nom_arrondissement_communes": "Asni\u00e8res-sur-Seine", "code_insee_commune": null}, {"stationcode": "45005", "name": "Stalingrad - G\u00e9n\u00e9ral de Gaulle", "is_installed": "OUI", "capacity": 26, "numdocksavailable": 9, "numbikesavailable": 17, "mechanical": 13, "ebike": 4, "is_renting": "OUI", "is_returning": "OUI", "duedate": "2024-06-14T13:46:41+00:00", "coordonnees_geo": {"lon": 2.4965062363218, "lat": 48.823450589614}, "nom_arrondissement_communes": "Champigny-sur-Marne", "code_insee_commune": null}, {"stationcode": "35021", "name": "Cartier Bresson - Denis Papin", "is_installed": "OUI", "capacity": 32, "numdocksavailable": 25, "numbikesavailable": 5, "mechanical": 4, "ebike": 1, "is_renting": "OUI", "is_returning": "OUI", "duedate": "2024-06-14T13:49:32+00:00", "coordonnees_geo": {"lon": 2.397814, "lat": 48.902616}, "nom_arrondissement_communes": "Pantin", "code_insee_commune": null}, {"stationcode": "18045", "name": "Pierre Ginier - Clichy", "is_installed": "OUI", "capacity": 16, "numdocksavailable": 13, "numbikesavailable": 3, "mechanical": 0, "ebike": 3, "is_renting": "OUI", "is_returning": "OUI", "duedate": "2024-06-14T13:44:56+00:00", "coordonnees_geo": {"lon": 2.326228, "lat": 48.8867667}, "nom_arrondissement_communes": "Paris", "code_insee_commune": null}, {"stationcode": "14110", "name": "Abb\u00e9 Carton - Plantes", "is_installed": "OUI", "capacity": 25, "numdocksavailable": 25, "numbikesavailable": 0, "mechanical": 0, "ebike": 0, "is_renting": "OUI", "is_returning": "OUI", "duedate": "2024-06-14T13:49:23+00:00", "coordonnees_geo": {"lon": 2.3209181427956, "lat": 48.827673823166}, "nom_arrondissement_communes": "Paris", "code_insee_commune": null}, {"stationcode": "32305", "name": "Saint-Germain - Verdun", "is_installed": "OUI", "capacity": 30, "numdocksavailable": 22, "numbikesavailable": 7, "mechanical": 0, "ebike": 7, "is_renting": "OUI", "is_returning": "OUI", "duedate": "2024-06-14T13:45:01+00:00", "coordonnees_geo": {"lon": 2.4331868384644, "lat": 48.882877330093}, "nom_arrondissement_communes": "Romainville", "code_insee_commune": null}, {"stationcode": "22305", "name": "Jean Jaur\u00e8s - Place du Dr Roux", "is_installed": "OUI", "capacity": 35, "numdocksavailable": 22, "numbikesavailable": 12, "mechanical": 7, "ebike": 5, "is_renting": "OUI", "is_returning": "OUI", "duedate": "2024-06-14T13:49:27+00:00", "coordonnees_geo": {"lon": 2.2947337017374, "lat": 48.927567032796}, "nom_arrondissement_communes": "Gennevilliers", "code_insee_commune": null}, {"stationcode": "21320", "name": "Pr\u00e9sident Roosevelt - Rouget de Lisle", "is_installed": "OUI", "capacity": 40, "numdocksavailable": 24, "numbikesavailable": 16, "mechanical": 10, "ebike": 6, "is_renting": "OUI", "is_returning": "OUI", "duedate": "2024-06-14T13:48:28+00:00", "coordonnees_geo": {"lon": 2.2616135525345, "lat": 48.83047518749}, "nom_arrondissement_communes": "Issy-les-Moulineaux", "code_insee_commune": null}, {"stationcode": "12001", "name": "Bastille - Biscornet", "is_installed": "OUI", "capacity": 62, "numdocksavailable": 14, "numbikesavailable": 48, "mechanical": 32, "ebike": 16, "is_renting": "OUI", "is_returning": "OUI", "duedate": "2024-06-14T13:48:49+00:00", "coordonnees_geo": {"lon": 2.369220033288, "lat": 48.851355779579}, "nom_arrondissement_communes": "Paris", "code_insee_commune": null}, {"stationcode": "22602", "name": "Place Henri Dunant - Gare RER", "is_installed": "OUI", "capacity": 31, "numdocksavailable": 23, "numbikesavailable": 7, "mechanical": 2, "ebike": 5, "is_renting": "OUI", "is_returning": "OUI", "duedate": "2024-06-14T13:44:41+00:00", "coordonnees_geo": {"lon": 2.2909234046643, "lat": 48.788093281931}, "nom_arrondissement_communes": "Fontenay-aux-Roses", "code_insee_commune": null}, {"stationcode": "12106", "name": "Gare de Lyon - Roland Barthes", "is_installed": "OUI", "capacity": 68, "numdocksavailable": 3, "numbikesavailable": 63, "mechanical": 49, "ebike": 14, "is_renting": "OUI", "is_returning": "OUI", "duedate": "2024-06-14T13:49:26+00:00", "coordonnees_geo": {"lon": 2.3790882155299187, "lat": 48.84395729494058}, "nom_arrondissement_communes": "Paris", "code_insee_commune": null}, {"stationcode": "32023", "name": "Guy M\u00f4quet - Jean Moulin", "is_installed": "OUI", "capacity": 30, "numdocksavailable": 3, "numbikesavailable": 27, "mechanical": 12, "ebike": 15, "is_renting": "OUI", "is_returning": "OUI", "duedate": "2024-06-14T13:47:49+00:00", "coordonnees_geo": {"lon": 2.363948999931771, "lat": 48.940931521020836}, "nom_arrondissement_communes": "Saint-Denis", "code_insee_commune": null}, {"stationcode": "11001", "name": "Richard Lenoir - Place de la Bastille", "is_installed": "OUI", "capacity": 53, "numdocksavailable": 1, "numbikesavailable": 46, "mechanical": 42, "ebike": 4, "is_renting": "OUI", "is_returning": "OUI", "duedate": "2024-06-14T13:49:49+00:00", "coordonnees_geo": {"lon": 2.3697222, "lat": 48.8538327}, "nom_arrondissement_communes": "Paris", "code_insee_commune": null}, {"stationcode": "8500", "name": null, "is_installed": "NON", "capacity": null, "numdocksavailable": 0, "numbikesavailable": 0, "mechanical": 0, "ebike": 0, "is_renting": "NON", "is_returning": "NON", "duedate": "2024-06-14T13:01:16+00:00", "coordonnees_geo": null, "nom_arrondissement_communes": null, "code_insee_commune": null}, {"stationcode": "23203", "name": "Division Leclerc - Kl\u00e9ber", "is_installed": "OUI", "capacity": 25, "numdocksavailable": 24, "numbikesavailable": 1, "mechanical": 0, "ebike": 1, "is_renting": "OUI", "is_returning": "OUI", "duedate": "2024-06-14T13:42:53+00:00", "coordonnees_geo": {"lon": 2.2833752789972, "lat": 48.798666226364}, "nom_arrondissement_communes": "Ch\u00e2tillon", "code_insee_commune": null}, {"stationcode": "9035", "name": "Gare Saint-Lazare - Place de Budapest", "is_installed": "OUI", "capacity": 44, "numdocksavailable": 37, "numbikesavailable": 6, "mechanical": 3, "ebike": 3, "is_renting": "OUI", "is_returning": "OUI", "duedate": "2024-06-14T13:49:28+00:00", "coordonnees_geo": {"lon": 2.327339, "lat": 48.877753}, "nom_arrondissement_communes": "Paris", "code_insee_commune": null}, {"stationcode": "34005", "name": "Adrien Lesesne - Docteur Bauer", "is_installed": "OUI", "capacity": 30, "numdocksavailable": 24, "numbikesavailable": 6, "mechanical": 1, "ebike": 5, "is_renting": "OUI", "is_returning": "OUI", "duedate": "2024-06-14T13:45:49+00:00", "coordonnees_geo": {"lon": 2.348248063431511, "lat": 48.90263867304635}, "nom_arrondissement_communes": "Saint-Ouen-sur-Seine", "code_insee_commune": null}, {"stationcode": "17127", "name": "Porte de Clichy - Place des Nations Unies", "is_installed": "OUI", "capacity": 40, "numdocksavailable": 19, "numbikesavailable": 20, "mechanical": 18, "ebike": 2, "is_renting": "OUI", "is_returning": "OUI", "duedate": "2024-06-14T13:50:04+00:00", "coordonnees_geo": {"lon": 2.310542999196392, "lat": 48.896737263309504}, "nom_arrondissement_communes": "Paris", "code_insee_commune": null}, {"stationcode": "26008", "name": "Henri Barbusse - Bourguignons", "is_installed": "OUI", "capacity": 34, "numdocksavailable": 9, "numbikesavailable": 23, "mechanical": 18, "ebike": 5, "is_renting": "OUI", "is_returning": "OUI", "duedate": "2024-06-14T13:49:29+00:00", "coordonnees_geo": {"lon": 2.2734212270774417, "lat": 48.91301722799713}, "nom_arrondissement_communes": "Asni\u00e8res-sur-Seine", "code_insee_commune": null}, {"stationcode": "34012", "name": "Bateliers - Quai de Seine", "is_installed": "OUI", "capacity": 26, "numdocksavailable": 8, "numbikesavailable": 18, "mechanical": 14, "ebike": 4, "is_renting": "OUI", "is_returning": "OUI", "duedate": "2024-06-14T13:44:22+00:00", "coordonnees_geo": {"lon": 2.3239533298594, "lat": 48.915817585516}, "nom_arrondissement_communes": "Saint-Ouen-sur-Seine", "code_insee_commune": null}, {"stationcode": "23204", "name": "Roland Garros - Jean Bouin", "is_installed": "OUI", "capacity": 28, "numdocksavailable": 26, "numbikesavailable": 2, "mechanical": 1, "ebike": 1, "is_renting": "OUI", "is_returning": "OUI", "duedate": "2024-06-14T13:40:26+00:00", "coordonnees_geo": {"lon": 2.2853198638301, "lat": 48.809460857173}, "nom_arrondissement_communes": "Ch\u00e2tillon", "code_insee_commune": null}, {"stationcode": "21514", "name": "Place de la Paix - Abb\u00e9 Saint-Pierre", "is_installed": "OUI", "capacity": 24, "numdocksavailable": 24, "numbikesavailable": 0, "mechanical": 0, "ebike": 0, "is_renting": "OUI", "is_returning": "OUI", "duedate": "2024-06-14T13:49:24+00:00", "coordonnees_geo": {"lon": 2.2047570338469806, "lat": 48.86462724459225}, "nom_arrondissement_communes": "Suresnes", "code_insee_commune": null}, {"stationcode": "31303", "name": "Simone Signoret - Paris", "is_installed": "OUI", "capacity": 28, "numdocksavailable": 5, "numbikesavailable": 22, "mechanical": 10, "ebike": 12, "is_renting": "OUI", "is_returning": "OUI", "duedate": "2024-06-14T13:49:26+00:00", "coordonnees_geo": {"lon": 2.465406596265139, "lat": 48.903600624712865}, "nom_arrondissement_communes": "Noisy-le-Sec", "code_insee_commune": null}, {"stationcode": "16502", "name": null, "is_installed": "NON", "capacity": null, "numdocksavailable": 0, "numbikesavailable": 0, "mechanical": 0, "ebike": 0, "is_renting": "NON", "is_returning": "NON", "duedate": "2024-06-14T13:29:21+00:00", "coordonnees_geo": null, "nom_arrondissement_communes": null, "code_insee_commune": null}, {"stationcode": "10026", "name": "Gare de l'Est - Chateau Landon", "is_installed": "OUI", "capacity": 59, "numdocksavailable": 49, "numbikesavailable": 7, "mechanical": 4, "ebike": 3, "is_renting": "OUI", "is_returning": "OUI", "duedate": "2024-06-14T13:49:06+00:00", "coordonnees_geo": {"lon": 2.362424, "lat": 48.879305}, "nom_arrondissement_communes": "Paris", "code_insee_commune": null}, {"stationcode": "17010", "name": "Jonqui\u00e8re - Docteur Paul Brousse", "is_installed": "OUI", "capacity": 40, "numdocksavailable": 28, "numbikesavailable": 11, "mechanical": 7, "ebike": 4, "is_renting": "OUI", "is_returning": "OUI", "duedate": "2024-06-14T13:43:50+00:00", "coordonnees_geo": {"lon": 2.318705212173216, "lat": 48.894799816683985}, "nom_arrondissement_communes": "Paris", "code_insee_commune": null}, {"stationcode": "18024", "name": "Clignancourt - Ordener", "is_installed": "OUI", "capacity": 35, "numdocksavailable": 33, "numbikesavailable": 2, "mechanical": 0, "ebike": 2, "is_renting": "OUI", "is_returning": "OUI", "duedate": "2024-06-14T13:46:31+00:00", "coordonnees_geo": {"lon": 2.348636478060487, "lat": 48.891457726153774}, "nom_arrondissement_communes": "Paris", "code_insee_commune": null}, {"stationcode": "12105", "name": "Bercy - Villot", "is_installed": "OUI", "capacity": 33, "numdocksavailable": 1, "numbikesavailable": 36, "mechanical": 22, "ebike": 14, "is_renting": "OUI", "is_returning": "OUI", "duedate": "2024-06-14T13:49:42+00:00", "coordonnees_geo": {"lon": 2.3767850184816, "lat": 48.841795009027}, "nom_arrondissement_communes": "Paris", "code_insee_commune": null}, {"stationcode": "15501", "name": null, "is_installed": "NON", "capacity": null, "numdocksavailable": 0, "numbikesavailable": 0, "mechanical": 0, "ebike": 0, "is_renting": "NON", "is_returning": "NON", "duedate": "2024-06-14T13:43:35+00:00", "coordonnees_geo": null, "nom_arrondissement_communes": null, "code_insee_commune": null}, {"stationcode": "33019", "name": "Madeleine Vionnet", "is_installed": "OUI", "capacity": 34, "numdocksavailable": 13, "numbikesavailable": 26, "mechanical": 17, "ebike": 9, "is_renting": "OUI", "is_returning": "OUI", "duedate": "2024-06-14T13:46:18+00:00", "coordonnees_geo": {"lon": 2.3740895837545, "lat": 48.902519074064}, "nom_arrondissement_communes": "Aubervilliers", "code_insee_commune": null}, {"stationcode": "8501", "name": null, "is_installed": "NON", "capacity": null, "numdocksavailable": 0, "numbikesavailable": 0, "mechanical": 0, "ebike": 0, "is_renting": "NON", "is_returning": "NON", "duedate": "2024-06-14T13:06:01+00:00", "coordonnees_geo": null, "nom_arrondissement_communes": null, "code_insee_commune": null}, {"stationcode": "7201", "name": "Place Fontenoy - Saxe", "is_installed": "NON", "capacity": 0, "numdocksavailable": 0, "numbikesavailable": 0, "mechanical": 0, "ebike": 0, "is_renting": "NON", "is_returning": "NON", "duedate": "2024-04-26T16:47:44+00:00", "coordonnees_geo": {"lon": 2.3069813815839, "lat": 48.850270554523}, "nom_arrondissement_communes": "Paris", "code_insee_commune": null}, {"stationcode": "31202", "name": "Gabriel P\u00e9ri - Jules Ferry", "is_installed": "OUI", "capacity": 25, "numdocksavailable": 4, "numbikesavailable": 20, "mechanical": 14, "ebike": 6, "is_renting": "OUI", "is_returning": "OUI", "duedate": "2024-06-14T13:48:38+00:00", "coordonnees_geo": {"lon": 2.3912295762525, "lat": 48.926182814311}, "nom_arrondissement_communes": "La Courneuve", "code_insee_commune": null}, {"stationcode": "21501", "name": "Pont de Suresnes", "is_installed": "OUI", "capacity": 24, "numdocksavailable": 24, "numbikesavailable": 0, "mechanical": 0, "ebike": 0, "is_renting": "NON", "is_returning": "NON", "duedate": "2018-12-21T14:18:50+00:00", "coordonnees_geo": {"lon": 2.2258946679617, "lat": 48.867415092322}, "nom_arrondissement_communes": "Suresnes", "code_insee_commune": null}, {"stationcode": "13035", "name": "Choisy - Tolbiac", "is_installed": "OUI", "capacity": 0, "numdocksavailable": 0, "numbikesavailable": 0, "mechanical": 0, "ebike": 0, "is_renting": "NON", "is_returning": "NON", "duedate": "2023-11-29T12:09:17+00:00", "coordonnees_geo": {"lon": 2.3602393269539, "lat": 48.82591155587}, "nom_arrondissement_communes": "Paris", "code_insee_commune": null}, {"stationcode": "18031", "name": "Place Albert Kahn", "is_installed": "OUI", "capacity": 0, "numdocksavailable": 0, "numbikesavailable": 0, "mechanical": 0, "ebike": 0, "is_renting": "NON", "is_returning": "NON", "duedate": "2023-07-03T08:59:24+00:00", "coordonnees_geo": {"lon": 2.3455855841349, "lat": 48.89579697978}, "nom_arrondissement_communes": "Paris", "code_insee_commune": null}, {"stationcode": "19204", "name": "Rampal - Belleville", "is_installed": "NON", "capacity": 0, "numdocksavailable": 0, "numbikesavailable": 0, "mechanical": 0, "ebike": 0, "is_renting": "NON", "is_returning": "NON", "duedate": "2023-09-19T08:41:41+00:00", "coordonnees_geo": {"lon": 2.3798409114805, "lat": 48.873114661405}, "nom_arrondissement_communes": "Paris", "code_insee_commune": null}, {"stationcode": "15062", "name": "Convention - Lourmel", "is_installed": "OUI", "capacity": 36, "numdocksavailable": 31, "numbikesavailable": 4, "mechanical": 3, "ebike": 1, "is_renting": "OUI", "is_returning": "OUI", "duedate": "2024-06-14T13:45:47+00:00", "coordonnees_geo": {"lon": 2.2859910875559, "lat": 48.842055041656}, "nom_arrondissement_communes": "Paris", "code_insee_commune": null}, {"stationcode": "13203", "name": "Square de Choisy - Eastman", "is_installed": "OUI", "capacity": 24, "numdocksavailable": 18, "numbikesavailable": 3, "mechanical": 1, "ebike": 2, "is_renting": "OUI", "is_returning": "OUI", "duedate": "2024-06-14T13:47:03+00:00", "coordonnees_geo": {"lon": 2.3583075090494, "lat": 48.828543456283}, "nom_arrondissement_communes": "Paris", "code_insee_commune": null}, {"stationcode": "12010", "name": "Daumesnil - Picpus", "is_installed": "OUI", "capacity": 21, "numdocksavailable": 9, "numbikesavailable": 15, "mechanical": 7, "ebike": 8, "is_renting": "OUI", "is_returning": "OUI", "duedate": "2024-06-14T13:48:32+00:00", "coordonnees_geo": {"lon": 2.401765, "lat": 48.8374688}, "nom_arrondissement_communes": "Paris", "code_insee_commune": null}, {"stationcode": "15058", "name": "Place du Moulin de Javel", "is_installed": "OUI", "capacity": 45, "numdocksavailable": 11, "numbikesavailable": 33, "mechanical": 26, "ebike": 7, "is_renting": "OUI", "is_returning": "OUI", "duedate": "2024-06-14T13:46:50+00:00", "coordonnees_geo": {"lon": 2.2716060653329, "lat": 48.84021670922}, "nom_arrondissement_communes": "Paris", "code_insee_commune": null}, {"stationcode": "3004", "name": "Place de la R\u00e9publique - Temple", "is_installed": "OUI", "capacity": 18, "numdocksavailable": 3, "numbikesavailable": 14, "mechanical": 5, "ebike": 9, "is_renting": "OUI", "is_returning": "OUI", "duedate": "2024-06-14T13:48:47+00:00", "coordonnees_geo": {"lon": 2.3635464370545, "lat": 48.867211201859}, "nom_arrondissement_communes": "Paris", "code_insee_commune": null}, {"stationcode": "11046", "name": "Place de la R\u00e9publique - Voltaire", "is_installed": "OUI", "capacity": 19, "numdocksavailable": 7, "numbikesavailable": 10, "mechanical": 7, "ebike": 3, "is_renting": "OUI", "is_returning": "OUI", "duedate": "2024-06-14T13:48:06+00:00", "coordonnees_geo": {"lon": 2.3654810339212, "lat": 48.866830968942}, "nom_arrondissement_communes": "Paris", "code_insee_commune": null}, {"stationcode": "18041", "name": "Rochechouart - Martyrs", "is_installed": "OUI", "capacity": 20, "numdocksavailable": 20, "numbikesavailable": 0, "mechanical": 0, "ebike": 0, "is_renting": "OUI", "is_returning": "OUI", "duedate": "2024-06-14T13:46:02+00:00", "coordonnees_geo": {"lon": 2.3405495658517, "lat": 48.882193779572}, "nom_arrondissement_communes": "Paris", "code_insee_commune": null}, {"stationcode": "35001", "name": "Jean Jaur\u00e8s - Ouvri\u00e8res Piv\u00e9reuses", "is_installed": "OUI", "capacity": 1, "numdocksavailable": 1, "numbikesavailable": 0, "mechanical": 0, "ebike": 0, "is_renting": "NON", "is_returning": "NON", "duedate": "2024-05-27T07:19:22+00:00", "coordonnees_geo": {"lon": 2.3995766043663, "lat": 48.910423437526}, "nom_arrondissement_communes": "Pantin", "code_insee_commune": null}, {"stationcode": "11037", "name": "Faubourg Du Temple - Republique", "is_installed": "OUI", "capacity": 38, "numdocksavailable": 1, "numbikesavailable": 34, "mechanical": 23, "ebike": 11, "is_renting": "OUI", "is_returning": "OUI", "duedate": "2024-06-14T13:48:27+00:00", "coordonnees_geo": {"lon": 2.3648982158072, "lat": 48.867872484749}, "nom_arrondissement_communes": "Paris", "code_insee_commune": null}, {"stationcode": "11102", "name": "Alexandre Dumas - Voltaire", "is_installed": "OUI", "capacity": 59, "numdocksavailable": 36, "numbikesavailable": 22, "mechanical": 18, "ebike": 4, "is_renting": "OUI", "is_returning": "OUI", "duedate": "2024-06-14T13:49:35+00:00", "coordonnees_geo": {"lon": 2.3891476408096, "lat": 48.852888670365}, "nom_arrondissement_communes": "Paris", "code_insee_commune": null}, {"stationcode": "21213", "name": "Vanne - G\u00e9n\u00e9ral de Gaulle", "is_installed": "OUI", "capacity": 25, "numdocksavailable": 18, "numbikesavailable": 6, "mechanical": 1, "ebike": 5, "is_renting": "OUI", "is_returning": "OUI", "duedate": "2024-06-14T13:42:51+00:00", "coordonnees_geo": {"lon": 2.328318, "lat": 48.815007}, "nom_arrondissement_communes": "Montrouge", "code_insee_commune": null}, {"stationcode": "11009", "name": "Boulets - Voltaire", "is_installed": "OUI", "capacity": 24, "numdocksavailable": 13, "numbikesavailable": 10, "mechanical": 8, "ebike": 2, "is_renting": "OUI", "is_returning": "OUI", "duedate": "2024-06-14T13:47:55+00:00", "coordonnees_geo": {"lon": 2.3890301585197, "lat": 48.85218705621}, "nom_arrondissement_communes": "Paris", "code_insee_commune": null}, {"stationcode": "15105", "name": "F\u00e9d\u00e9ration - Suffren", "is_installed": "OUI", "capacity": 25, "numdocksavailable": 13, "numbikesavailable": 12, "mechanical": 12, "ebike": 0, "is_renting": "OUI", "is_returning": "OUI", "duedate": "2024-06-14T13:46:45+00:00", "coordonnees_geo": {"lon": 2.2978776320815, "lat": 48.852828153442}, "nom_arrondissement_communes": "Paris", "code_insee_commune": null}, {"stationcode": "8057", "name": "Hoche - Tilsitt", "is_installed": "OUI", "capacity": 33, "numdocksavailable": 24, "numbikesavailable": 9, "mechanical": 2, "ebike": 7, "is_renting": "OUI", "is_returning": "OUI", "duedate": "2024-06-14T13:46:35+00:00", "coordonnees_geo": {"lon": 2.2971323132515, "lat": 48.874836457837}, "nom_arrondissement_communes": "Paris", "code_insee_commune": null}, {"stationcode": "18042", "name": "Place Pigalle", "is_installed": "OUI", "capacity": 21, "numdocksavailable": 17, "numbikesavailable": 2, "mechanical": 0, "ebike": 2, "is_renting": "OUI", "is_returning": "OUI", "duedate": "2024-06-14T13:47:53+00:00", "coordonnees_geo": {"lon": 2.3361566, "lat": 48.8827555}, "nom_arrondissement_communes": "Paris", "code_insee_commune": null}, {"stationcode": "7025", "name": "Octave Gr\u00e9ard - Tour Eiffel", "is_installed": "OUI", "capacity": 33, "numdocksavailable": 9, "numbikesavailable": 22, "mechanical": 19, "ebike": 3, "is_renting": "OUI", "is_returning": "OUI", "duedate": "2024-06-14T13:46:11+00:00", "coordonnees_geo": {"lon": 2.2931787543289, "lat": 48.856502977696}, "nom_arrondissement_communes": "Paris", "code_insee_commune": null}, {"stationcode": "16103", "name": "Traktir - Foch", "is_installed": "OUI", "capacity": 22, "numdocksavailable": 14, "numbikesavailable": 8, "mechanical": 3, "ebike": 5, "is_renting": "OUI", "is_returning": "OUI", "duedate": "2024-06-14T13:45:02+00:00", "coordonnees_geo": {"lon": 2.2915497802487, "lat": 48.872755334614}, "nom_arrondissement_communes": "Paris", "code_insee_commune": null}, {"stationcode": "12107", "name": "Diderot - Pierre Bourdan", "is_installed": "OUI", "capacity": 21, "numdocksavailable": 14, "numbikesavailable": 5, "mechanical": 5, "ebike": 0, "is_renting": "OUI", "is_returning": "OUI", "duedate": "2024-06-14T13:45:23+00:00", "coordonnees_geo": {"lon": 2.3902582749724, "lat": 48.847648620797}, "nom_arrondissement_communes": "Paris", "code_insee_commune": null}, {"stationcode": "18043", "name": "Clichy - Place Blanche", "is_installed": "OUI", "capacity": 20, "numdocksavailable": 12, "numbikesavailable": 5, "mechanical": 1, "ebike": 4, "is_renting": "OUI", "is_returning": "OUI", "duedate": "2024-06-14T13:48:20+00:00", "coordonnees_geo": {"lon": 2.3332237824798, "lat": 48.883601088297}, "nom_arrondissement_communes": "Paris", "code_insee_commune": null}, {"stationcode": "4010", "name": "Saint-Antoine S\u00e9vign\u00e9", "is_installed": "OUI", "capacity": 26, "numdocksavailable": 9, "numbikesavailable": 19, "mechanical": 14, "ebike": 5, "is_renting": "OUI", "is_returning": "OUI", "duedate": "2024-06-14T13:48:08+00:00", "coordonnees_geo": {"lon": 2.3612322, "lat": 48.8550222}, "nom_arrondissement_communes": "Paris", "code_insee_commune": null}, {"stationcode": "42004", "name": "Westermeyer - Paul Vaillant-Couturier", "is_installed": "OUI", "capacity": 25, "numdocksavailable": 7, "numbikesavailable": 24, "mechanical": 20, "ebike": 4, "is_renting": "OUI", "is_returning": "OUI", "duedate": "2024-06-14T13:49:18+00:00", "coordonnees_geo": {"lon": 2.3966637253761296, "lat": 48.819116181578764}, "nom_arrondissement_communes": "Ivry-sur-Seine", "code_insee_commune": null}, {"stationcode": "1003", "name": "Saint-Denis - Rivoli", "is_installed": "OUI", "capacity": 43, "numdocksavailable": 13, "numbikesavailable": 33, "mechanical": 16, "ebike": 17, "is_renting": "OUI", "is_returning": "OUI", "duedate": "2024-06-14T13:49:42+00:00", "coordonnees_geo": {"lon": 2.3476943001151, "lat": 48.859059340842}, "nom_arrondissement_communes": "Paris", "code_insee_commune": null}, {"stationcode": "4104", "name": "Sebastopol - Rambuteau", "is_installed": "OUI", "capacity": 16, "numdocksavailable": 0, "numbikesavailable": 17, "mechanical": 10, "ebike": 7, "is_renting": "OUI", "is_returning": "OUI", "duedate": "2024-06-14T13:43:05+00:00", "coordonnees_geo": {"lon": 2.3501381278038, "lat": 48.86181809267}, "nom_arrondissement_communes": "Paris", "code_insee_commune": null}, {"stationcode": "15122", "name": "Place Charles Vallin", "is_installed": "OUI", "capacity": 26, "numdocksavailable": 15, "numbikesavailable": 10, "mechanical": 9, "ebike": 1, "is_renting": "OUI", "is_returning": "OUI", "duedate": "2024-06-14T13:48:24+00:00", "coordonnees_geo": {"lon": 2.3025986552238, "lat": 48.835523812041}, "nom_arrondissement_communes": "Paris", "code_insee_commune": null}, {"stationcode": "27004", "name": "Gare de la Garenne-Colombes", "is_installed": "OUI", "capacity": 0, "numdocksavailable": 0, "numbikesavailable": 0, "mechanical": 0, "ebike": 0, "is_renting": "NON", "is_returning": "NON", "duedate": "2018-12-21T14:48:55+00:00", "coordonnees_geo": {"lon": 2.239145, "lat": 48.909752}, "nom_arrondissement_communes": "Colombes", "code_insee_commune": null}, {"stationcode": "21404", "name": "Jean Jaur\u00e8s - Gare de Clamart", "is_installed": "OUI", "capacity": 20, "numdocksavailable": 17, "numbikesavailable": 3, "mechanical": 1, "ebike": 2, "is_renting": "OUI", "is_returning": "OUI", "duedate": "2024-06-14T13:41:54+00:00", "coordonnees_geo": {"lon": 2.2716768079163, "lat": 48.81321981219}, "nom_arrondissement_communes": "Clamart", "code_insee_commune": null}, {"stationcode": "16107", "name": "Benjamin Godard - Victor Hugo", "is_installed": "OUI", "capacity": 35, "numdocksavailable": 31, "numbikesavailable": 3, "mechanical": 1, "ebike": 2, "is_renting": "OUI", "is_returning": "OUI", "duedate": "2024-06-14T14:49:10+00:00", "coordonnees_geo": {"lon": 2.275725, "lat": 48.865983}, "nom_arrondissement_communes": "Paris", "code_insee_commune": null}, {"stationcode": "12109", "name": "Mairie du 12\u00e8me", "is_installed": "OUI", "capacity": 30, "numdocksavailable": 12, "numbikesavailable": 16, "mechanical": 11, "ebike": 5, "is_renting": "OUI", "is_returning": "OUI", "duedate": "2024-06-14T14:49:05+00:00", "coordonnees_geo": {"lon": 2.3875549435616, "lat": 48.840855311763}, "nom_arrondissement_communes": "Paris", "code_insee_commune": null}, {"stationcode": "14111", "name": "Cassini - Denfert-Rochereau", "is_installed": "OUI", "capacity": 25, "numdocksavailable": 21, "numbikesavailable": 3, "mechanical": 1, "ebike": 2, "is_renting": "OUI", "is_returning": "OUI", "duedate": "2024-06-14T14:49:55+00:00", "coordonnees_geo": {"lon": 2.3360354080796, "lat": 48.837525839067}, "nom_arrondissement_communes": "Paris", "code_insee_commune": null}, {"stationcode": "8026", "name": "Messine - Place Du P\u00e9rou", "is_installed": "OUI", "capacity": 12, "numdocksavailable": 0, "numbikesavailable": 10, "mechanical": 6, "ebike": 4, "is_renting": "OUI", "is_returning": "OUI", "duedate": "2024-06-14T14:47:59+00:00", "coordonnees_geo": {"lon": 2.315508019010038, "lat": 48.875448033960744}, "nom_arrondissement_communes": "Paris", "code_insee_commune": null}, {"stationcode": "6003", "name": "Saint-Sulpice", "is_installed": "OUI", "capacity": 21, "numdocksavailable": 10, "numbikesavailable": 11, "mechanical": 10, "ebike": 1, "is_renting": "OUI", "is_returning": "OUI", "duedate": "2024-06-14T14:49:55+00:00", "coordonnees_geo": {"lon": 2.3308077827095985, "lat": 48.85165383178419}, "nom_arrondissement_communes": "Paris", "code_insee_commune": null}, {"stationcode": "6108", "name": "Saint-Romain - Cherche-Midi", "is_installed": "OUI", "capacity": 17, "numdocksavailable": 15, "numbikesavailable": 2, "mechanical": 0, "ebike": 2, "is_renting": "OUI", "is_returning": "OUI", "duedate": "2024-06-14T14:46:51+00:00", "coordonnees_geo": {"lon": 2.321374788880348, "lat": 48.84708159081946}, "nom_arrondissement_communes": "Paris", "code_insee_commune": null}, {"stationcode": "33006", "name": "Andr\u00e9 Karman - R\u00e9publique", "is_installed": "OUI", "capacity": 31, "numdocksavailable": 24, "numbikesavailable": 5, "mechanical": 3, "ebike": 2, "is_renting": "OUI", "is_returning": "OUI", "duedate": "2024-06-14T14:46:49+00:00", "coordonnees_geo": {"lon": 2.3851355910301213, "lat": 48.91039875761846}, "nom_arrondissement_communes": "Aubervilliers", "code_insee_commune": null}, {"stationcode": "42016", "name": "Pierre et Marie Curie - Maurice Thorez", "is_installed": "OUI", "capacity": 27, "numdocksavailable": 19, "numbikesavailable": 8, "mechanical": 5, "ebike": 3, "is_renting": "OUI", "is_returning": "OUI", "duedate": "2024-06-14T14:48:38+00:00", "coordonnees_geo": {"lon": 2.376804985105991, "lat": 48.81580226360801}, "nom_arrondissement_communes": "Ivry-sur-Seine", "code_insee_commune": null}, {"stationcode": "41301", "name": "Bois de Vincennes - Gare", "is_installed": "OUI", "capacity": 50, "numdocksavailable": 39, "numbikesavailable": 11, "mechanical": 1, "ebike": 10, "is_renting": "OUI", "is_returning": "OUI", "duedate": "2024-06-14T14:47:46+00:00", "coordonnees_geo": {"lon": 2.4708339950830287, "lat": 48.836022242886884}, "nom_arrondissement_communes": "Nogent-sur-Marne", "code_insee_commune": null}, {"stationcode": "6021", "name": "Beaux-Arts - Bonaparte", "is_installed": "OUI", "capacity": 20, "numdocksavailable": 5, "numbikesavailable": 14, "mechanical": 8, "ebike": 6, "is_renting": "OUI", "is_returning": "OUI", "duedate": "2024-06-14T14:50:03+00:00", "coordonnees_geo": {"lon": 2.334851883351803, "lat": 48.856451985395786}, "nom_arrondissement_communes": "Paris", "code_insee_commune": null}, {"stationcode": "30002", "name": "Jean Rostand - Paul Vaillant Couturier", "is_installed": "OUI", "capacity": 40, "numdocksavailable": 10, "numbikesavailable": 30, "mechanical": 4, "ebike": 26, "is_renting": "OUI", "is_returning": "OUI", "duedate": "2024-06-14T14:46:50+00:00", "coordonnees_geo": {"lon": 2.4530601033354, "lat": 48.908168131015}, "nom_arrondissement_communes": "Bobigny", "code_insee_commune": null}, {"stationcode": "17038", "name": "Grande Arm\u00e9e - Brunel", "is_installed": "OUI", "capacity": 62, "numdocksavailable": 55, "numbikesavailable": 5, "mechanical": 3, "ebike": 2, "is_renting": "OUI", "is_returning": "OUI", "duedate": "2024-06-14T14:50:04+00:00", "coordonnees_geo": {"lon": 2.288124, "lat": 48.876116}, "nom_arrondissement_communes": "Paris", "code_insee_commune": null}, {"stationcode": "17026", "name": "Jouffroy d'Abbans - Wagram", "is_installed": "OUI", "capacity": 40, "numdocksavailable": 34, "numbikesavailable": 6, "mechanical": 1, "ebike": 5, "is_renting": "OUI", "is_returning": "OUI", "duedate": "2024-06-14T14:50:11+00:00", "coordonnees_geo": {"lon": 2.301132157445, "lat": 48.881973298352}, "nom_arrondissement_communes": "Paris", "code_insee_commune": null}, {"stationcode": "15202", "name": "Bracion - P\u00e9riph\u00e9rique", "is_installed": "OUI", "capacity": 30, "numdocksavailable": 29, "numbikesavailable": 1, "mechanical": 0, "ebike": 1, "is_renting": "OUI", "is_returning": "OUI", "duedate": "2024-06-14T06:41:39+00:00", "coordonnees_geo": {"lon": 2.3004549373748, "lat": 48.826103771275}, "nom_arrondissement_communes": "Paris", "code_insee_commune": null}, {"stationcode": "14108", "name": "Le Brix et Mesmin - Jourdan", "is_installed": "OUI", "capacity": 21, "numdocksavailable": 20, "numbikesavailable": 1, "mechanical": 1, "ebike": 0, "is_renting": "OUI", "is_returning": "OUI", "duedate": "2024-06-14T14:45:52+00:00", "coordonnees_geo": {"lon": 2.327861653302471, "lat": 48.82234096593411}, "nom_arrondissement_communes": "Paris", "code_insee_commune": null}, {"stationcode": "2022", "name": "Saint-Fiacre - Poissoni\u00e8re", "is_installed": "OUI", "capacity": 35, "numdocksavailable": 17, "numbikesavailable": 17, "mechanical": 15, "ebike": 2, "is_renting": "OUI", "is_returning": "OUI", "duedate": "2024-06-14T14:49:44+00:00", "coordonnees_geo": {"lon": 2.3459213599563, "lat": 48.870828911558}, "nom_arrondissement_communes": "Paris", "code_insee_commune": null}, {"stationcode": "43002", "name": "Lagny - Victor Basch", "is_installed": "OUI", "capacity": 26, "numdocksavailable": 12, "numbikesavailable": 14, "mechanical": 12, "ebike": 2, "is_renting": "OUI", "is_returning": "OUI", "duedate": "2024-06-14T14:49:28+00:00", "coordonnees_geo": {"lon": 2.426325418925233, "lat": 48.84884147189881}, "nom_arrondissement_communes": "Vincennes", "code_insee_commune": null}, {"stationcode": "22207", "name": "Rond-point du Dr Albert Schweitzer", "is_installed": "OUI", "capacity": 22, "numdocksavailable": 17, "numbikesavailable": 5, "mechanical": 3, "ebike": 2, "is_renting": "OUI", "is_returning": "OUI", "duedate": "2024-06-14T14:48:05+00:00", "coordonnees_geo": {"lon": 2.3143940046429634, "lat": 48.78980918988166}, "nom_arrondissement_communes": "Bagneux", "code_insee_commune": null}, {"stationcode": "31708", "name": "Noisy le Sec - Jean-Baptiste Cl\u00e9ment", "is_installed": "OUI", "capacity": 22, "numdocksavailable": 22, "numbikesavailable": 0, "mechanical": 0, "ebike": 0, "is_renting": "NON", "is_returning": "NON", "duedate": "2024-06-14T14:49:51+00:00", "coordonnees_geo": {"lon": 2.415283620357514, "lat": 48.87451538963655}, "nom_arrondissement_communes": "Bagnolet", "code_insee_commune": null}, {"stationcode": "13030", "name": "Italie - Tolbiac", "is_installed": "OUI", "capacity": 21, "numdocksavailable": 15, "numbikesavailable": 5, "mechanical": 1, "ebike": 4, "is_renting": "OUI", "is_returning": "OUI", "duedate": "2024-06-14T14:44:59+00:00", "coordonnees_geo": {"lon": 2.3576171323657036, "lat": 48.82557229464416}, "nom_arrondissement_communes": "Paris", "code_insee_commune": null}, {"stationcode": "17048", "name": "De Toqueville - Terrasse", "is_installed": "OUI", "capacity": 30, "numdocksavailable": 27, "numbikesavailable": 2, "mechanical": 0, "ebike": 2, "is_renting": "OUI", "is_returning": "OUI", "duedate": "2024-06-14T14:46:32+00:00", "coordonnees_geo": {"lon": 2.314002, "lat": 48.882428}, "nom_arrondissement_communes": "Paris", "code_insee_commune": null}, {"stationcode": "44017", "name": "Jules Guesde - Pont du Port \u00e0 l'Anglais", "is_installed": "OUI", "capacity": 30, "numdocksavailable": 19, "numbikesavailable": 10, "mechanical": 8, "ebike": 2, "is_renting": "OUI", "is_returning": "OUI", "duedate": "2024-06-14T14:49:08+00:00", "coordonnees_geo": {"lon": 2.417212128639221, "lat": 48.79628807093802}, "nom_arrondissement_communes": "Vitry-sur-Seine", "code_insee_commune": null}, {"stationcode": "16118", "name": "Michel-Ange - Parent de Rosan", "is_installed": "OUI", "capacity": 26, "numdocksavailable": 15, "numbikesavailable": 10, "mechanical": 8, "ebike": 2, "is_renting": "OUI", "is_returning": "OUI", "duedate": "2024-06-14T14:48:01+00:00", "coordonnees_geo": {"lon": 2.2584119439125065, "lat": 48.840579923690115}, "nom_arrondissement_communes": "Paris", "code_insee_commune": null}, {"stationcode": "2017", "name": "Caire - Dussoubs", "is_installed": "OUI", "capacity": 40, "numdocksavailable": 16, "numbikesavailable": 21, "mechanical": 19, "ebike": 2, "is_renting": "OUI", "is_returning": "OUI", "duedate": "2024-06-14T14:50:08+00:00", "coordonnees_geo": {"lon": 2.349364310503006, "lat": 48.86785342111862}, "nom_arrondissement_communes": "Paris", "code_insee_commune": null}, {"stationcode": "14013", "name": "Liard - Amiral Mouchez", "is_installed": "OUI", "capacity": 14, "numdocksavailable": 3, "numbikesavailable": 11, "mechanical": 4, "ebike": 7, "is_renting": "OUI", "is_returning": "OUI", "duedate": "2024-06-14T14:50:06+00:00", "coordonnees_geo": {"lon": 2.342167, "lat": 48.8214169}, "nom_arrondissement_communes": "Paris", "code_insee_commune": null}, {"stationcode": "15112", "name": "Vig\u00e9e-Lebrun - Anselme Payen", "is_installed": "OUI", "capacity": 24, "numdocksavailable": 21, "numbikesavailable": 3, "mechanical": 2, "ebike": 1, "is_renting": "OUI", "is_returning": "OUI", "duedate": "2024-06-14T14:43:26+00:00", "coordonnees_geo": {"lon": 2.3110422492027287, "lat": 48.838683941628375}, "nom_arrondissement_communes": "Paris", "code_insee_commune": null}, {"stationcode": "9002", "name": "Abbeville - Faubourg Poissonni\u00e8re", "is_installed": "OUI", "capacity": 14, "numdocksavailable": 10, "numbikesavailable": 4, "mechanical": 1, "ebike": 3, "is_renting": "OUI", "is_returning": "OUI", "duedate": "2024-06-14T14:49:19+00:00", "coordonnees_geo": {"lon": 2.349147, "lat": 48.879223}, "nom_arrondissement_communes": "Paris", "code_insee_commune": null}, {"stationcode": "48003", "name": "Youri Gagarine - Karl Marx", "is_installed": "OUI", "capacity": 22, "numdocksavailable": 18, "numbikesavailable": 4, "mechanical": 1, "ebike": 3, "is_renting": "OUI", "is_returning": "OUI", "duedate": "2024-06-14T14:40:22+00:00", "coordonnees_geo": {"lon": 2.35908430069685, "lat": 48.78448485079149}, "nom_arrondissement_communes": "Villejuif", "code_insee_commune": null}, {"stationcode": "16110", "name": "Octave Feuillet - Alb\u00e9ric Magnard", "is_installed": "OUI", "capacity": 21, "numdocksavailable": 20, "numbikesavailable": 1, "mechanical": 1, "ebike": 0, "is_renting": "OUI", "is_returning": "OUI", "duedate": "2024-06-14T14:40:55+00:00", "coordonnees_geo": {"lon": 2.2730283066630363, "lat": 48.86106902949534}, "nom_arrondissement_communes": "Paris", "code_insee_commune": null}]