[{"stationcode": "41606", "name": "Pasteur - Gambetta", "is_installed": "OUI", "capacity": 19, "numdocksavailable": 12, "numbikesavailable": 6, "mechanical": 3, "ebike": 3, "is_renting": "OUI", "is_returning": "OUI", "duedate": "2024-06-13T21:51:07+00:00", "coordonnees_geo": {"lon": 2.4236011505126953, "lat": 48.84572797384512}, "nom_arrondissement_communes": "Saint-Mand\u00e9", "code_insee_commune": null}, {"stationcode": "17045", "name": "Place des Ternes.", "is_installed": "OUI", "capacity": 46, "numdocksavailable": 39, "numbikesavailable": 6, "mechanical": 4, "ebike": 2, "is_renting": "OUI", "is_returning": "OUI", "duedate": "2024-06-13T21:51:00+00:00", "coordonnees_geo": {"lon": 2.297727763652802, "lat": 48.878438631226516}, "nom_arrondissement_communes": "Paris", "code_insee_commune": null}, {"stationcode": "43402", "name": "Place de Verdun", "is_installed": "OUI", "capacity": 40, "numdocksavailable": 4, "numbikesavailable": 36, "mechanical": 31, "ebike": 5, "is_renting": "OUI", "is_returning": "OUI", "duedate": "2024-06-13T21:52:31+00:00", "coordonnees_geo": {"lon": 2.473775, "lat": 48.8202823}, "nom_arrondissement_communes": "Joinville-le-Pont", "code_insee_commune": null}, {"stationcode": "33018", "name": "Edouard Poisson - Victor Hugo", "is_installed": "OUI", "capacity": 30, "numdocksavailable": 11, "numbikesavailable": 17, "mechanical": 8, "ebike": 9, "is_renting": "OUI", "is_returning": "OUI", "duedate": "2024-06-13T21:53:42+00:00", "coordonnees_geo": {"lon": 2.379864752692811, "lat": 48.91118557052621}, "nom_arrondissement_communes": "Aubervilliers", "code_insee_commune": null}, {"stationcode": "12013", "name": "Montgallet - Reuilly", "is_installed": "OUI", "capacity": 16, "numdocksavailable": 1, "numbikesavailable": 13, "mechanical": 7, "ebike": 6, "is_renting": "OUI", "is_returning": "OUI", "duedate": "2024-06-13T21:51:50+00:00", "coordonnees_geo": {"lon": 2.3896481, "lat": 48.844291}, "nom_arrondissement_communes": "Paris", "code_insee_commune": null}, {"stationcode": "21955", "name": "Vaugirard - Verrerie", "is_installed": "NON", "capacity": 0, "numdocksavailable": 0, "numbikesavailable": 0, "mechanical": 0, "ebike": 0, "is_renting": "NON", "is_returning": "NON", "duedate": "2024-05-27T09:10:26+00:00", "coordonnees_geo": {"lon": 2.2367222622987, "lat": 48.820881336842}, "nom_arrondissement_communes": "Meudon", "code_insee_commune": null}, {"stationcode": "8033", "name": "Commandant Rivi\u00e8re", "is_installed": "OUI", "capacity": 42, "numdocksavailable": 39, "numbikesavailable": 2, "mechanical": 0, "ebike": 2, "is_renting": "OUI", "is_returning": "OUI", "duedate": "2024-06-13T21:51:00+00:00", "coordonnees_geo": {"lon": 2.309796, "lat": 48.872933}, "nom_arrondissement_communes": "Paris", "code_insee_commune": null}, {"stationcode": "23801", "name": "Place de la Gare", "is_installed": "NON", "capacity": 0, "numdocksavailable": 0, "numbikesavailable": 0, "mechanical": 0, "ebike": 0, "is_renting": "NON", "is_returning": "NON", "duedate": "2024-05-27T09:42:00+00:00", "coordonnees_geo": {"lon": 2.1866139007512, "lat": 48.838513582184}, "nom_arrondissement_communes": "Garches", "code_insee_commune": null}, {"stationcode": "23001", "name": "Paul Vaillant Couturier - Chaptal", "is_installed": "OUI", "capacity": 39, "numdocksavailable": 29, "numbikesavailable": 8, "mechanical": 6, "ebike": 2, "is_renting": "OUI", "is_returning": "OUI", "duedate": "2024-06-13T21:54:25+00:00", "coordonnees_geo": {"lon": 2.2775253653526, "lat": 48.893479576183}, "nom_arrondissement_communes": "Levallois-Perret", "code_insee_commune": null}, {"stationcode": "17037", "name": "Bayen - Pereire", "is_installed": "OUI", "capacity": 22, "numdocksavailable": 18, "numbikesavailable": 4, "mechanical": 4, "ebike": 0, "is_renting": "OUI", "is_returning": "OUI", "duedate": "2024-06-13T21:47:33+00:00", "coordonnees_geo": {"lon": 2.2921088710427284, "lat": 48.881804409079656}, "nom_arrondissement_communes": "Paris", "code_insee_commune": null}, {"stationcode": "19004", "name": "Quai de la Loire - Jean Jaur\u00e8s", "is_installed": "OUI", "capacity": 16, "numdocksavailable": 11, "numbikesavailable": 4, "mechanical": 0, "ebike": 4, "is_renting": "OUI", "is_returning": "OUI", "duedate": "2024-06-13T21:53:06+00:00", "coordonnees_geo": {"lon": 2.371074522980134, "lat": 48.88339733854529}, "nom_arrondissement_communes": "Paris", "code_insee_commune": null}, {"stationcode": "33003", "name": "Bordier - F\u00e9lix Faure", "is_installed": "OUI", "capacity": 48, "numdocksavailable": 16, "numbikesavailable": 30, "mechanical": 11, "ebike": 19, "is_renting": "OUI", "is_returning": "OUI", "duedate": "2024-06-13T21:53:23+00:00", "coordonnees_geo": {"lon": 2.3830059170722966, "lat": 48.90390751882016}, "nom_arrondissement_communes": "Aubervilliers", "code_insee_commune": null}, {"stationcode": "5106", "name": "Cujas - Saint-Michel", "is_installed": "OUI", "capacity": 19, "numdocksavailable": 18, "numbikesavailable": 1, "mechanical": 1, "ebike": 0, "is_renting": "OUI", "is_returning": "OUI", "duedate": "2024-06-13T21:48:00+00:00", "coordonnees_geo": {"lon": 2.341831654854, "lat": 48.848191348584}, "nom_arrondissement_communes": "Paris", "code_insee_commune": null}, {"stationcode": "25005", "name": "18 juin 1940 - Buzenval", "is_installed": "OUI", "capacity": 25, "numdocksavailable": 14, "numbikesavailable": 11, "mechanical": 1, "ebike": 10, "is_renting": "OUI", "is_returning": "OUI", "duedate": "2024-06-13T21:52:03+00:00", "coordonnees_geo": {"lon": 2.185428, "lat": 48.868807}, "nom_arrondissement_communes": "Rueil-Malmaison", "code_insee_commune": null}, {"stationcode": "22505", "name": "Mairie de La Garenne Colombes", "is_installed": "OUI", "capacity": 22, "numdocksavailable": 0, "numbikesavailable": 22, "mechanical": 13, "ebike": 9, "is_renting": "OUI", "is_returning": "OUI", "duedate": "2024-06-13T21:52:55+00:00", "coordonnees_geo": {"lon": 2.24679596722126, "lat": 48.90663823468682}, "nom_arrondissement_communes": "La Garenne-Colombes", "code_insee_commune": null}, {"stationcode": "19115", "name": "Porte de la Villette", "is_installed": "OUI", "capacity": 27, "numdocksavailable": 12, "numbikesavailable": 14, "mechanical": 4, "ebike": 10, "is_renting": "OUI", "is_returning": "OUI", "duedate": "2024-06-13T21:51:39+00:00", "coordonnees_geo": {"lon": 2.386150136590004, "lat": 48.89835196548483}, "nom_arrondissement_communes": "Paris", "code_insee_commune": null}, {"stationcode": "14034", "name": "Ouest - Ch\u00e2teau", "is_installed": "OUI", "capacity": 23, "numdocksavailable": 17, "numbikesavailable": 6, "mechanical": 4, "ebike": 2, "is_renting": "OUI", "is_returning": "OUI", "duedate": "2024-06-13T21:48:44+00:00", "coordonnees_geo": {"lon": 2.319392143923804, "lat": 48.83617286014242}, "nom_arrondissement_communes": "Paris", "code_insee_commune": null}, {"stationcode": "16018", "name": "Flandrin - Henri Martin", "is_installed": "OUI", "capacity": 18, "numdocksavailable": 18, "numbikesavailable": 0, "mechanical": 0, "ebike": 0, "is_renting": "OUI", "is_returning": "OUI", "duedate": "2024-06-13T21:50:45+00:00", "coordonnees_geo": {"lon": 2.2724174, "lat": 48.8643275}, "nom_arrondissement_communes": "Paris", "code_insee_commune": null}, {"stationcode": "12034", "name": "Pirogues de Bercy - Libourne", "is_installed": "OUI", "capacity": 49, "numdocksavailable": 35, "numbikesavailable": 13, "mechanical": 13, "ebike": 0, "is_renting": "OUI", "is_returning": "OUI", "duedate": "2024-06-13T21:52:53+00:00", "coordonnees_geo": {"lon": 2.38637, "lat": 48.832308}, "nom_arrondissement_communes": "Paris", "code_insee_commune": null}, {"stationcode": "12034", "name": "Pirogues de Bercy - Libourne", "is_installed": "OUI", "capacity": 49, "numdocksavailable": 35, "numbikesavailable": 13, "mechanical": 13, "ebike": 0, "is_renting": "OUI", "is_returning": "OUI", "duedate": "2024-06-13T21:52:53+00:00", "coordonnees_geo": {"lon": 2.38637, "lat": 48.832308}, "nom_arrondissement_communes": "Paris", "code_insee_commune": null}, {"stationcode": "15033", "name": "Place Violet", "is_installed": "OUI", "capacity": 30, "numdocksavailable": 0, "numbikesavailable": 30, "mechanical": 29, "ebike": 1, "is_renting": "OUI", "is_returning": "OUI", "duedate": "2024-06-13T21:50:11+00:00", "coordonnees_geo": {"lon": 2.2905756533145905, "lat": 48.84487893836502}, "nom_arrondissement_communes": "Paris", "code_insee_commune": null}, {"stationcode": "19044", "name": "Grands Moulins de Pantin", "is_installed": "OUI", "capacity": 50, "numdocksavailable": 36, "numbikesavailable": 14, "mechanical": 13, "ebike": 1, "is_renting": "OUI", "is_returning": "OUI", "duedate": "2024-06-13T21:52:25+00:00", "coordonnees_geo": {"lon": 2.3959985375404362, "lat": 48.89738369720229}, "nom_arrondissement_communes": "Paris", "code_insee_commune": null}, {"stationcode": "24002", "name": "Gare de Courbevoie", "is_installed": "OUI", "capacity": 35, "numdocksavailable": 27, "numbikesavailable": 7, "mechanical": 4, "ebike": 3, "is_renting": "OUI", "is_returning": "OUI", "duedate": "2024-06-13T21:54:02+00:00", "coordonnees_geo": {"lon": 2.2506506, "lat": 48.8993867}, "nom_arrondissement_communes": "Courbevoie", "code_insee_commune": null}, {"stationcode": "16034", "name": "Porte d'Auteuil", "is_installed": "OUI", "capacity": 33, "numdocksavailable": 24, "numbikesavailable": 7, "mechanical": 5, "ebike": 2, "is_renting": "OUI", "is_returning": "OUI", "duedate": "2024-06-13T21:53:47+00:00", "coordonnees_geo": {"lon": 2.2608396783471107, "lat": 48.8479394142243}, "nom_arrondissement_communes": "Paris", "code_insee_commune": null}, {"stationcode": "23802", "name": "Raymond Poincar\u00e9 - All\u00e9e de la Marche", "is_installed": "NON", "capacity": 0, "numdocksavailable": 0, "numbikesavailable": 0, "mechanical": 0, "ebike": 0, "is_renting": "NON", "is_returning": "NON", "duedate": "2024-05-27T09:47:05+00:00", "coordonnees_geo": {"lon": 2.1724102640451, "lat": 48.838634069623}, "nom_arrondissement_communes": "Garches", "code_insee_commune": null}, {"stationcode": "20132", "name": "R\u00e9union - Avron", "is_installed": "OUI", "capacity": 26, "numdocksavailable": 12, "numbikesavailable": 14, "mechanical": 3, "ebike": 11, "is_renting": "OUI", "is_returning": "OUI", "duedate": "2024-06-13T21:52:28+00:00", "coordonnees_geo": {"lon": 2.403928068708116, "lat": 48.852566752033766}, "nom_arrondissement_communes": "Paris", "code_insee_commune": null}, {"stationcode": "20119", "name": "Square des Saint-Simoniens", "is_installed": "OUI", "capacity": 25, "numdocksavailable": 19, "numbikesavailable": 6, "mechanical": 0, "ebike": 6, "is_renting": "OUI", "is_returning": "OUI", "duedate": "2024-06-13T21:49:32+00:00", "coordonnees_geo": {"lon": 2.3967273, "lat": 48.8701796}, "nom_arrondissement_communes": "Paris", "code_insee_commune": null}, {"stationcode": "19019", "name": "Petit - Manin", "is_installed": "OUI", "capacity": 22, "numdocksavailable": 15, "numbikesavailable": 7, "mechanical": 5, "ebike": 2, "is_renting": "OUI", "is_returning": "OUI", "duedate": "2024-06-13T21:53:25+00:00", "coordonnees_geo": {"lon": 2.3938155401308374, "lat": 48.88650687534334}, "nom_arrondissement_communes": "Paris", "code_insee_commune": null}, {"stationcode": "92003", "name": "Chanzy - Sud-Est", "is_installed": "OUI", "capacity": 25, "numdocksavailable": 17, "numbikesavailable": 7, "mechanical": 5, "ebike": 2, "is_renting": "OUI", "is_returning": "OUI", "duedate": "2024-06-13T21:54:19+00:00", "coordonnees_geo": {"lon": 2.195632159709931, "lat": 48.888912037698766}, "nom_arrondissement_communes": "Nanterre", "code_insee_commune": null}, {"stationcode": "35009", "name": "Jean Lolive - Parc Stalingrad", "is_installed": "OUI", "capacity": 22, "numdocksavailable": 16, "numbikesavailable": 3, "mechanical": 2, "ebike": 1, "is_renting": "OUI", "is_returning": "OUI", "duedate": "2024-06-13T21:49:47+00:00", "coordonnees_geo": {"lon": 2.4091735482215886, "lat": 48.89206174403158}, "nom_arrondissement_communes": "Pantin", "code_insee_commune": null}, {"stationcode": "31705", "name": "Champeaux - Gallieni", "is_installed": "OUI", "capacity": 50, "numdocksavailable": 42, "numbikesavailable": 8, "mechanical": 0, "ebike": 8, "is_renting": "OUI", "is_returning": "OUI", "duedate": "2024-06-13T21:51:38+00:00", "coordonnees_geo": {"lon": 2.4161778017878532, "lat": 48.864459134684644}, "nom_arrondissement_communes": "Bagnolet", "code_insee_commune": null}, {"stationcode": "27002", "name": "Parc Pierre Lagrav\u00e8re", "is_installed": "OUI", "capacity": 30, "numdocksavailable": 14, "numbikesavailable": 15, "mechanical": 12, "ebike": 3, "is_renting": "OUI", "is_returning": "OUI", "duedate": "2024-06-13T21:50:22+00:00", "coordonnees_geo": {"lon": 2.239069678491417, "lat": 48.92650488131725}, "nom_arrondissement_communes": "Colombes", "code_insee_commune": null}, {"stationcode": "21502", "name": "Verdun - Place Henri IV", "is_installed": "OUI", "capacity": 26, "numdocksavailable": 6, "numbikesavailable": 18, "mechanical": 9, "ebike": 9, "is_renting": "OUI", "is_returning": "OUI", "duedate": "2024-06-13T21:52:44+00:00", "coordonnees_geo": {"lon": 2.2277003154158592, "lat": 48.870797375639214}, "nom_arrondissement_communes": "Suresnes", "code_insee_commune": null}, {"stationcode": "21502", "name": "Verdun - Place Henri IV", "is_installed": "OUI", "capacity": 26, "numdocksavailable": 6, "numbikesavailable": 18, "mechanical": 9, "ebike": 9, "is_renting": "OUI", "is_returning": "OUI", "duedate": "2024-06-13T21:52:44+00:00", "coordonnees_geo": {"lon": 2.2277003154158592, "lat": 48.870797375639214}, "nom_arrondissement_communes": "Suresnes", "code_insee_commune": null}, {"stationcode": "31012", "name": "Place Carnot", "is_installed": "OUI", "capacity": 25, "numdocksavailable": 7, "numbikesavailable": 18, "mechanical": 16, "ebike": 2, "is_renting": "OUI", "is_returning": "OUI", "duedate": "2024-06-13T21:53:12+00:00", "coordonnees_geo": {"lon": 2.441531717777252, "lat": 48.85593932186797}, "nom_arrondissement_communes": "Montreuil", "code_insee_commune": null}, {"stationcode": "35019", "name": "Anatole France - Jean Lolive", "is_installed": "OUI", "capacity": 28, "numdocksavailable": 15, "numbikesavailable": 10, "mechanical": 6, "ebike": 4, "is_renting": "OUI", "is_returning": "OUI", "duedate": "2024-06-13T21:51:51+00:00", "coordonnees_geo": {"lon": 2.4253764, "lat": 48.8949922}, "nom_arrondissement_communes": "Pantin", "code_insee_commune": null}, {"stationcode": "14104", "name": "Boyer-Barret - Raymond Losserand", "is_installed": "OUI", "capacity": 23, "numdocksavailable": 14, "numbikesavailable": 8, "mechanical": 7, "ebike": 1, "is_renting": "OUI", "is_returning": "OUI", "duedate": "2024-06-13T21:54:08+00:00", "coordonnees_geo": {"lon": 2.3173383995890617, "lat": 48.83329880233322}, "nom_arrondissement_communes": "Paris", "code_insee_commune": null}, {"stationcode": "8012", "name": "Batignolles - Place de Clichy", "is_installed": "OUI", "capacity": 47, "numdocksavailable": 40, "numbikesavailable": 6, "mechanical": 0, "ebike": 6, "is_renting": "OUI", "is_returning": "OUI", "duedate": "2024-06-13T21:50:13+00:00", "coordonnees_geo": {"lon": 2.326493114233, "lat": 48.883474535757}, "nom_arrondissement_communes": "Paris", "code_insee_commune": null}, {"stationcode": "41604", "name": "Lagny - Joffre", "is_installed": "OUI", "capacity": 31, "numdocksavailable": 26, "numbikesavailable": 3, "mechanical": 0, "ebike": 3, "is_renting": "OUI", "is_returning": "OUI", "duedate": "2024-06-13T21:53:28+00:00", "coordonnees_geo": {"lon": 2.417949736118317, "lat": 48.84930687084088}, "nom_arrondissement_communes": "Saint-Mand\u00e9", "code_insee_commune": null}, {"stationcode": "15017", "name": "Place Falgui\u00e8re", "is_installed": "OUI", "capacity": 23, "numdocksavailable": 9, "numbikesavailable": 14, "mechanical": 7, "ebike": 7, "is_renting": "OUI", "is_returning": "OUI", "duedate": "2024-06-13T21:54:19+00:00", "coordonnees_geo": {"lon": 2.3104464635252953, "lat": 48.83629973941847}, "nom_arrondissement_communes": "Paris", "code_insee_commune": null}, {"stationcode": "15029", "name": "Emeriau - Place de Brazzaville", "is_installed": "OUI", "capacity": 51, "numdocksavailable": 17, "numbikesavailable": 32, "mechanical": 30, "ebike": 2, "is_renting": "OUI", "is_returning": "OUI", "duedate": "2024-06-13T21:54:13+00:00", "coordonnees_geo": {"lon": 2.2871585190296173, "lat": 48.850785261674964}, "nom_arrondissement_communes": "Paris", "code_insee_commune": null}, {"stationcode": "5116", "name": "Place Valhubert", "is_installed": "OUI", "capacity": 51, "numdocksavailable": 6, "numbikesavailable": 43, "mechanical": 39, "ebike": 4, "is_renting": "OUI", "is_returning": "OUI", "duedate": "2024-06-13T21:54:03+00:00", "coordonnees_geo": {"lon": 2.3640366643667, "lat": 48.844182577315}, "nom_arrondissement_communes": "Paris", "code_insee_commune": null}, {"stationcode": "10005", "name": "Petites Ecuries - Faubourg Poissonni\u00e8re", "is_installed": "OUI", "capacity": 17, "numdocksavailable": 6, "numbikesavailable": 9, "mechanical": 9, "ebike": 0, "is_renting": "OUI", "is_returning": "OUI", "duedate": "2024-06-13T21:52:52+00:00", "coordonnees_geo": {"lon": 2.348388757504776, "lat": 48.87397217237368}, "nom_arrondissement_communes": "Paris", "code_insee_commune": null}, {"stationcode": "26001", "name": "Gare d'Asni\u00e8res sur Seine", "is_installed": "OUI", "capacity": 24, "numdocksavailable": 4, "numbikesavailable": 19, "mechanical": 9, "ebike": 10, "is_renting": "OUI", "is_returning": "OUI", "duedate": "2024-06-13T21:54:08+00:00", "coordonnees_geo": {"lon": 2.2835066914558415, "lat": 48.90636459217474}, "nom_arrondissement_communes": "Asni\u00e8res-sur-Seine", "code_insee_commune": null}, {"stationcode": "18020", "name": "Francoeur - Marcadet", "is_installed": "OUI", "capacity": 20, "numdocksavailable": 2, "numbikesavailable": 18, "mechanical": 5, "ebike": 13, "is_renting": "OUI", "is_returning": "OUI", "duedate": "2024-06-13T21:53:48+00:00", "coordonnees_geo": {"lon": 2.340014585442034, "lat": 48.89104123261663}, "nom_arrondissement_communes": "Paris", "code_insee_commune": null}, {"stationcode": "20136", "name": "Henri Chevreau - Couronnes", "is_installed": "OUI", "capacity": 27, "numdocksavailable": 9, "numbikesavailable": 18, "mechanical": 0, "ebike": 18, "is_renting": "OUI", "is_returning": "OUI", "duedate": "2024-06-13T21:53:47+00:00", "coordonnees_geo": {"lon": 2.388777695596218, "lat": 48.87033205312931}, "nom_arrondissement_communes": "Paris", "code_insee_commune": null}, {"stationcode": "15028", "name": "Grenelle - Dr Finlay", "is_installed": "OUI", "capacity": 71, "numdocksavailable": 6, "numbikesavailable": 63, "mechanical": 60, "ebike": 3, "is_renting": "OUI", "is_returning": "OUI", "duedate": "2024-06-13T21:54:11+00:00", "coordonnees_geo": {"lon": 2.2919502854347233, "lat": 48.851315406715976}, "nom_arrondissement_communes": "Paris", "code_insee_commune": null}, {"stationcode": "8102", "name": "Lamennais - Washington", "is_installed": "OUI", "capacity": 26, "numdocksavailable": 24, "numbikesavailable": 1, "mechanical": 0, "ebike": 1, "is_renting": "OUI", "is_returning": "OUI", "duedate": "2024-06-13T21:52:23+00:00", "coordonnees_geo": {"lon": 2.303444892168045, "lat": 48.87352990026496}, "nom_arrondissement_communes": "Paris", "code_insee_commune": null}, {"stationcode": "18020", "name": "Francoeur - Marcadet", "is_installed": "OUI", "capacity": 20, "numdocksavailable": 18, "numbikesavailable": 2, "mechanical": 0, "ebike": 2, "is_renting": "OUI", "is_returning": "OUI", "duedate": "2024-06-13T15:51:58+00:00", "coordonnees_geo": {"lon": 2.340014585442034, "lat": 48.89104123261663}, "nom_arrondissement_communes": "Paris", "code_insee_commune": null}, {"stationcode": "5002", "name": "Sommerard - Saint-Jacques", "is_installed": "OUI", "capacity": 34, "numdocksavailable": 4, "numbikesavailable": 29, "mechanical": 29, "ebike": 0, "is_renting": "OUI", "is_returning": "OUI", "duedate": "2024-06-13T15:53:32+00:00", "coordonnees_geo": {"lon": 2.345015835298588, "lat": 48.850310432924466}, "nom_arrondissement_communes": "Paris", "code_insee_commune": null}, {"stationcode": "15028", "name": "Grenelle - Dr Finlay", "is_installed": "OUI", "capacity": 71, "numdocksavailable": 5, "numbikesavailable": 64, "mechanical": 63, "ebike": 1, "is_renting": "OUI", "is_returning": "OUI", "duedate": "2024-06-13T15:53:19+00:00", "coordonnees_geo": {"lon": 2.2919502854347233, "lat": 48.851315406715976}, "nom_arrondissement_communes": "Paris", "code_insee_commune": null}, {"stationcode": "14018", "name": "Porte d'Orl\u00e9ans", "is_installed": "OUI", "capacity": 48, "numdocksavailable": 45, "numbikesavailable": 3, "mechanical": 1, "ebike": 2, "is_renting": "OUI", "is_returning": "OUI", "duedate": "2024-06-13T15:53:44+00:00", "coordonnees_geo": {"lon": 2.3249313, "lat": 48.8227639}, "nom_arrondissement_communes": "Paris", "code_insee_commune": null}, {"stationcode": "31702", "name": "Pierre et Marie Curie - Julien Grimau", "is_installed": "OUI", "capacity": 18, "numdocksavailable": 13, "numbikesavailable": 4, "mechanical": 0, "ebike": 4, "is_renting": "OUI", "is_returning": "OUI", "duedate": "2024-06-13T15:49:59+00:00", "coordonnees_geo": {"lon": 2.424097023904324, "lat": 48.870714014863225}, "nom_arrondissement_communes": "Bagnolet", "code_insee_commune": null}, {"stationcode": "21013", "name": "Pierre Grenier - Pont de Billancourt", "is_installed": "OUI", "capacity": 21, "numdocksavailable": 16, "numbikesavailable": 5, "mechanical": 3, "ebike": 2, "is_renting": "OUI", "is_returning": "OUI", "duedate": "2024-06-13T15:52:12+00:00", "coordonnees_geo": {"lon": 2.2487989068031315, "lat": 48.8258020742942}, "nom_arrondissement_communes": "Boulogne-Billancourt", "code_insee_commune": null}, {"stationcode": "7014", "name": "Saint-Fran\u00e7ois-Xavier", "is_installed": "OUI", "capacity": 42, "numdocksavailable": 18, "numbikesavailable": 24, "mechanical": 18, "ebike": 6, "is_renting": "OUI", "is_returning": "OUI", "duedate": "2024-06-13T15:53:43+00:00", "coordonnees_geo": {"lon": 2.3146149516106, "lat": 48.85154484769}, "nom_arrondissement_communes": "Paris", "code_insee_commune": null}, {"stationcode": "20040", "name": "Parc de Belleville - Julien Lacroix", "is_installed": "OUI", "capacity": 26, "numdocksavailable": 24, "numbikesavailable": 2, "mechanical": 1, "ebike": 1, "is_renting": "OUI", "is_returning": "OUI", "duedate": "2024-06-13T15:46:04+00:00", "coordonnees_geo": {"lon": 2.3842214, "lat": 48.8703459}, "nom_arrondissement_communes": "Paris", "code_insee_commune": null}, {"stationcode": "17017", "name": "Gare de Pont-Cardinet", "is_installed": "OUI", "capacity": 34, "numdocksavailable": 29, "numbikesavailable": 4, "mechanical": 1, "ebike": 3, "is_renting": "OUI", "is_returning": "OUI", "duedate": "2024-06-13T15:53:30+00:00", "coordonnees_geo": {"lon": 2.314494143994255, "lat": 48.88713901475306}, "nom_arrondissement_communes": "Paris", "code_insee_commune": null}, {"stationcode": "21105", "name": "Morice - G\u00e9n\u00e9ral Leclerc", "is_installed": "OUI", "capacity": 25, "numdocksavailable": 13, "numbikesavailable": 8, "mechanical": 5, "ebike": 3, "is_renting": "OUI", "is_returning": "OUI", "duedate": "2024-06-13T15:52:44+00:00", "coordonnees_geo": {"lon": 2.3128929734230046, "lat": 48.90245471981591}, "nom_arrondissement_communes": "Clichy", "code_insee_commune": null}, {"stationcode": "23002", "name": "Pont de Levallois-b\u00e9con", "is_installed": "OUI", "capacity": 50, "numdocksavailable": 37, "numbikesavailable": 12, "mechanical": 10, "ebike": 2, "is_renting": "OUI", "is_returning": "OUI", "duedate": "2024-06-13T15:50:43+00:00", "coordonnees_geo": {"lon": 2.2791311, "lat": 48.8984179}, "nom_arrondissement_communes": "Levallois-Perret", "code_insee_commune": null}, {"stationcode": "14139", "name": "Pierre Larousse - Raymond Losserand", "is_installed": "OUI", "capacity": 30, "numdocksavailable": 28, "numbikesavailable": 2, "mechanical": 1, "ebike": 1, "is_renting": "OUI", "is_returning": "OUI", "duedate": "2024-06-13T15:50:34+00:00", "coordonnees_geo": {"lon": 2.3119183257222176, "lat": 48.83059564231877}, "nom_arrondissement_communes": "Paris", "code_insee_commune": null}, {"stationcode": "14130", "name": "Jonquoy - Didot", "is_installed": "OUI", "capacity": 30, "numdocksavailable": 27, "numbikesavailable": 3, "mechanical": 1, "ebike": 2, "is_renting": "OUI", "is_returning": "OUI", "duedate": "2024-06-13T15:52:21+00:00", "coordonnees_geo": {"lon": 2.31648076325655, "lat": 48.82890454823947}, "nom_arrondissement_communes": "Paris", "code_insee_commune": null}, {"stationcode": "41207", "name": "Place du G\u00e9n\u00e9ral de Gaulle", "is_installed": "OUI", "capacity": 28, "numdocksavailable": 11, "numbikesavailable": 14, "mechanical": 0, "ebike": 14, "is_renting": "OUI", "is_returning": "OUI", "duedate": "2024-06-13T15:52:27+00:00", "coordonnees_geo": {"lon": 2.4877332, "lat": 48.8525288}, "nom_arrondissement_communes": "Fontenay-sous-Bois", "code_insee_commune": null}, {"stationcode": "12011", "name": "Charenton - Place du Col Bourgoin", "is_installed": "OUI", "capacity": 35, "numdocksavailable": 1, "numbikesavailable": 32, "mechanical": 30, "ebike": 2, "is_renting": "OUI", "is_returning": "OUI", "duedate": "2024-06-13T15:53:44+00:00", "coordonnees_geo": {"lon": 2.3825789350545, "lat": 48.844867319554}, "nom_arrondissement_communes": "Paris", "code_insee_commune": null}, {"stationcode": "21308", "name": "Bara - Henri Farman", "is_installed": "OUI", "capacity": 58, "numdocksavailable": 29, "numbikesavailable": 29, "mechanical": 26, "ebike": 3, "is_renting": "OUI", "is_returning": "OUI", "duedate": "2024-06-13T15:53:37+00:00", "coordonnees_geo": {"lon": 2.2677567601203923, "lat": 48.833218027457846}, "nom_arrondissement_communes": "Issy-les-Moulineaux", "code_insee_commune": null}, {"stationcode": "12032", "name": "Porte Dor\u00e9e", "is_installed": "OUI", "capacity": 36, "numdocksavailable": 26, "numbikesavailable": 9, "mechanical": 3, "ebike": 6, "is_renting": "OUI", "is_returning": "OUI", "duedate": "2024-06-13T15:52:58+00:00", "coordonnees_geo": {"lon": 2.4077132, "lat": 48.8354337}, "nom_arrondissement_communes": "Paris", "code_insee_commune": null}, {"stationcode": "20109", "name": "Haxo - Surmelin", "is_installed": "OUI", "capacity": 21, "numdocksavailable": 18, "numbikesavailable": 2, "mechanical": 0, "ebike": 2, "is_renting": "OUI", "is_returning": "OUI", "duedate": "2024-06-13T15:52:21+00:00", "coordonnees_geo": {"lon": 2.40539657537972, "lat": 48.8694370761222}, "nom_arrondissement_communes": "Paris", "code_insee_commune": null}, {"stationcode": "20021", "name": "Indre - Prairies", "is_installed": "OUI", "capacity": 38, "numdocksavailable": 37, "numbikesavailable": 1, "mechanical": 0, "ebike": 1, "is_renting": "OUI", "is_returning": "OUI", "duedate": "2024-06-13T15:51:33+00:00", "coordonnees_geo": {"lon": 2.403290458023548, "lat": 48.86254398506782}, "nom_arrondissement_communes": "Paris", "code_insee_commune": null}, {"stationcode": "7005", "name": "Raspail - Bac", "is_installed": "OUI", "capacity": 52, "numdocksavailable": 38, "numbikesavailable": 13, "mechanical": 13, "ebike": 0, "is_renting": "OUI", "is_returning": "OUI", "duedate": "2024-06-13T15:52:22+00:00", "coordonnees_geo": {"lon": 2.3256602883339, "lat": 48.855628721101}, "nom_arrondissement_communes": "Paris", "code_insee_commune": null}, {"stationcode": "31019", "name": "Vincennes - Douy-Delcupe", "is_installed": "OUI", "capacity": 38, "numdocksavailable": 34, "numbikesavailable": 4, "mechanical": 2, "ebike": 2, "is_renting": "OUI", "is_returning": "OUI", "duedate": "2024-06-13T15:52:07+00:00", "coordonnees_geo": {"lon": 2.436049282550812, "lat": 48.85493692155721}, "nom_arrondissement_communes": "Montreuil", "code_insee_commune": null}, {"stationcode": "18032", "name": "Porte de Clignancourt.", "is_installed": "OUI", "capacity": 56, "numdocksavailable": 52, "numbikesavailable": 3, "mechanical": 1, "ebike": 2, "is_renting": "OUI", "is_returning": "OUI", "duedate": "2024-06-13T15:51:16+00:00", "coordonnees_geo": {"lon": 2.343996, "lat": 48.897488}, "nom_arrondissement_communes": "Paris", "code_insee_commune": null}, {"stationcode": "17124", "name": "Porte de Saint-Ouen - Henri Huchard", "is_installed": "OUI", "capacity": 26, "numdocksavailable": 25, "numbikesavailable": 1, "mechanical": 1, "ebike": 0, "is_renting": "OUI", "is_returning": "OUI", "duedate": "2024-06-13T15:51:30+00:00", "coordonnees_geo": {"lon": 2.3295360803604126, "lat": 48.898708366365064}, "nom_arrondissement_communes": "Paris", "code_insee_commune": null}, {"stationcode": "17027", "name": "Place du Mar\u00e9chal Juin - P\u00e9reire", "is_installed": "OUI", "capacity": 46, "numdocksavailable": 42, "numbikesavailable": 2, "mechanical": 0, "ebike": 2, "is_renting": "OUI", "is_returning": "OUI", "duedate": "2024-06-13T15:51:17+00:00", "coordonnees_geo": {"lon": 2.298286, "lat": 48.885263}, "nom_arrondissement_communes": "Paris", "code_insee_commune": null}, {"stationcode": "51003", "name": "H\u00f4tel de Ville d'Argenteuil", "is_installed": "OUI", "capacity": 30, "numdocksavailable": 13, "numbikesavailable": 16, "mechanical": 15, "ebike": 1, "is_renting": "OUI", "is_returning": "OUI", "duedate": "2024-06-13T15:51:01+00:00", "coordonnees_geo": {"lon": 2.2496396, "lat": 48.946504}, "nom_arrondissement_communes": "Argenteuil", "code_insee_commune": null}, {"stationcode": "22101", "name": "Gare Routi\u00e8re de Saint Cloud", "is_installed": "OUI", "capacity": 31, "numdocksavailable": 23, "numbikesavailable": 7, "mechanical": 6, "ebike": 1, "is_renting": "OUI", "is_returning": "OUI", "duedate": "2024-06-13T15:53:42+00:00", "coordonnees_geo": {"lon": 2.222245037555695, "lat": 48.84288183896324}, "nom_arrondissement_communes": "Saint-Cloud", "code_insee_commune": null}, {"stationcode": "13016", "name": "Primo Levi - Frigos", "is_installed": "OUI", "capacity": 34, "numdocksavailable": 21, "numbikesavailable": 12, "mechanical": 12, "ebike": 0, "is_renting": "OUI", "is_returning": "OUI", "duedate": "2024-06-13T15:53:04+00:00", "coordonnees_geo": {"lon": 2.37965351592796, "lat": 48.83094844846017}, "nom_arrondissement_communes": "Paris", "code_insee_commune": null}, {"stationcode": "44102", "name": "Verdun - Adrien Damalix", "is_installed": "OUI", "capacity": 26, "numdocksavailable": 22, "numbikesavailable": 4, "mechanical": 1, "ebike": 3, "is_renting": "OUI", "is_returning": "OUI", "duedate": "2024-06-13T15:53:07+00:00", "coordonnees_geo": {"lon": 2.4215328320860863, "lat": 48.8222334178559}, "nom_arrondissement_communes": "Saint-Maurice", "code_insee_commune": null}, {"stationcode": "9115", "name": "Milton - Manuel", "is_installed": "OUI", "capacity": 22, "numdocksavailable": 13, "numbikesavailable": 9, "mechanical": 6, "ebike": 3, "is_renting": "OUI", "is_returning": "OUI", "duedate": "2024-06-13T15:52:25+00:00", "coordonnees_geo": {"lon": 2.341181, "lat": 48.878249}, "nom_arrondissement_communes": "Paris", "code_insee_commune": null}, {"stationcode": "17122", "name": "Bridaine - Lamand\u00e9", "is_installed": "OUI", "capacity": 29, "numdocksavailable": 25, "numbikesavailable": 4, "mechanical": 1, "ebike": 3, "is_renting": "OUI", "is_returning": "OUI", "duedate": "2024-06-13T15:45:01+00:00", "coordonnees_geo": {"lon": 2.3206239, "lat": 48.8862074}, "nom_arrondissement_communes": "Paris", "code_insee_commune": null}, {"stationcode": "16123", "name": "Mahatma Gandhi", "is_installed": "OUI", "capacity": 26, "numdocksavailable": 0, "numbikesavailable": 21, "mechanical": 10, "ebike": 11, "is_renting": "OUI", "is_returning": "OUI", "duedate": "2024-06-13T15:52:02+00:00", "coordonnees_geo": {"lon": 2.264205, "lat": 48.876356}, "nom_arrondissement_communes": "Paris", "code_insee_commune": null}, {"stationcode": "19040", "name": "Belleville - T\u00e9l\u00e9graphe", "is_installed": "OUI", "capacity": 41, "numdocksavailable": 39, "numbikesavailable": 0, "mechanical": 0, "ebike": 0, "is_renting": "OUI", "is_returning": "OUI", "duedate": "2024-06-13T15:51:42+00:00", "coordonnees_geo": {"lon": 2.3995549, "lat": 48.8756045}, "nom_arrondissement_communes": "Paris", "code_insee_commune": null}, {"stationcode": "17047", "name": "Courcelles - Pierre Demours", "is_installed": "OUI", "capacity": 26, "numdocksavailable": 25, "numbikesavailable": 0, "mechanical": 0, "ebike": 0, "is_renting": "OUI", "is_returning": "OUI", "duedate": "2024-06-13T15:53:13+00:00", "coordonnees_geo": {"lon": 2.29858466343129, "lat": 48.883769733273496}, "nom_arrondissement_communes": "Paris", "code_insee_commune": null}, {"stationcode": "6016", "name": "Danton - Serpente", "is_installed": "OUI", "capacity": 22, "numdocksavailable": 1, "numbikesavailable": 21, "mechanical": 17, "ebike": 4, "is_renting": "OUI", "is_returning": "OUI", "duedate": "2024-06-13T15:50:03+00:00", "coordonnees_geo": {"lon": 2.3414132371545, "lat": 48.852297362582}, "nom_arrondissement_communes": "Paris", "code_insee_commune": null}, {"stationcode": "41204", "name": "R\u00e9publique - Danton", "is_installed": "OUI", "capacity": 20, "numdocksavailable": 18, "numbikesavailable": 2, "mechanical": 0, "ebike": 2, "is_renting": "OUI", "is_returning": "OUI", "duedate": "2024-06-13T15:53:26+00:00", "coordonnees_geo": {"lon": 2.462034523487091, "lat": 48.85249172181667}, "nom_arrondissement_communes": "Fontenay-sous-Bois", "code_insee_commune": null}, {"stationcode": "17046", "name": "Mac-Mahon - Brey", "is_installed": "OUI", "capacity": 25, "numdocksavailable": 21, "numbikesavailable": 4, "mechanical": 4, "ebike": 0, "is_renting": "OUI", "is_returning": "OUI", "duedate": "2024-06-13T15:52:24+00:00", "coordonnees_geo": {"lon": 2.294512536052928, "lat": 48.877532084130166}, "nom_arrondissement_communes": "Paris", "code_insee_commune": null}, {"stationcode": "17121", "name": "Square des Epinettes", "is_installed": "OUI", "capacity": 20, "numdocksavailable": 18, "numbikesavailable": 2, "mechanical": 0, "ebike": 2, "is_renting": "OUI", "is_returning": "OUI", "duedate": "2024-06-13T15:51:21+00:00", "coordonnees_geo": {"lon": 2.325953990221024, "lat": 48.89383909781389}, "nom_arrondissement_communes": "Paris", "code_insee_commune": null}, {"stationcode": "47006", "name": "Les Plan\u00e8tes", "is_installed": "OUI", "capacity": 16, "numdocksavailable": 11, "numbikesavailable": 5, "mechanical": 5, "ebike": 0, "is_renting": "OUI", "is_returning": "OUI", "duedate": "2024-06-13T15:50:42+00:00", "coordonnees_geo": {"lon": 2.4580853059887886, "lat": 48.8099849920804}, "nom_arrondissement_communes": "Maisons-Alfort", "code_insee_commune": null}, {"stationcode": "19009", "name": "Cit\u00e9 des Sciences et de l'Industrie", "is_installed": "OUI", "capacity": 30, "numdocksavailable": 27, "numbikesavailable": 2, "mechanical": 1, "ebike": 1, "is_renting": "OUI", "is_returning": "OUI", "duedate": "2024-06-13T15:52:04+00:00", "coordonnees_geo": {"lon": 2.384599149227142, "lat": 48.89659571178903}, "nom_arrondissement_communes": "Paris", "code_insee_commune": null}, {"stationcode": "18109", "name": "Pajol - Riquet", "is_installed": "OUI", "capacity": 47, "numdocksavailable": 36, "numbikesavailable": 11, "mechanical": 6, "ebike": 5, "is_renting": "OUI", "is_returning": "OUI", "duedate": "2024-06-13T15:53:40+00:00", "coordonnees_geo": {"lon": 2.3628534749150276, "lat": 48.88960028134536}, "nom_arrondissement_communes": "Paris", "code_insee_commune": null}, {"stationcode": "19038", "name": "Lassus - Delouvain", "is_installed": "OUI", "capacity": 20, "numdocksavailable": 20, "numbikesavailable": 0, "mechanical": 0, "ebike": 0, "is_renting": "OUI", "is_returning": "OUI", "duedate": "2024-06-13T15:52:30+00:00", "coordonnees_geo": {"lon": 2.3890327325519, "lat": 48.8755044846}, "nom_arrondissement_communes": "Paris", "code_insee_commune": null}, {"stationcode": "18029", "name": "Emile Blemont - Poteau", "is_installed": "OUI", "capacity": 39, "numdocksavailable": 33, "numbikesavailable": 5, "mechanical": 1, "ebike": 4, "is_renting": "OUI", "is_returning": "OUI", "duedate": "2024-06-13T15:49:13+00:00", "coordonnees_geo": {"lon": 2.3415122, "lat": 48.8943782}, "nom_arrondissement_communes": "Paris", "code_insee_commune": null}, {"stationcode": "21703", "name": "Square du Carrefour de l'Insurrection", "is_installed": "OUI", "capacity": 23, "numdocksavailable": 19, "numbikesavailable": 4, "mechanical": 2, "ebike": 2, "is_renting": "OUI", "is_returning": "OUI", "duedate": "2024-06-13T15:49:39+00:00", "coordonnees_geo": {"lon": 2.291113436222077, "lat": 48.820864559770676}, "nom_arrondissement_communes": "Vanves", "code_insee_commune": null}, {"stationcode": "9031", "name": "Provence - Chauss\u00e9e d'Antin", "is_installed": "OUI", "capacity": 25, "numdocksavailable": 17, "numbikesavailable": 7, "mechanical": 6, "ebike": 1, "is_renting": "OUI", "is_returning": "OUI", "duedate": "2024-06-13T15:53:22+00:00", "coordonnees_geo": {"lon": 2.332976511564311, "lat": 48.87428447542072}, "nom_arrondissement_communes": "Paris", "code_insee_commune": null}, {"stationcode": "9117", "name": "Bellefond - Maubeuge", "is_installed": "OUI", "capacity": 31, "numdocksavailable": 30, "numbikesavailable": 1, "mechanical": 0, "ebike": 1, "is_renting": "OUI", "is_returning": "OUI", "duedate": "2024-06-13T15:53:03+00:00", "coordonnees_geo": {"lon": 2.3452642187476, "lat": 48.878255397645}, "nom_arrondissement_communes": "Paris", "code_insee_commune": null}, {"stationcode": "31703", "name": "Sadi Carnot - Fran\u00e7ois Mitterrand", "is_installed": "OUI", "capacity": 27, "numdocksavailable": 24, "numbikesavailable": 3, "mechanical": 1, "ebike": 2, "is_renting": "OUI", "is_returning": "OUI", "duedate": "2024-06-13T15:52:26+00:00", "coordonnees_geo": {"lon": 2.4241617321968083, "lat": 48.87532687671517}, "nom_arrondissement_communes": "Bagnolet", "code_insee_commune": null}, {"stationcode": "15031", "name": "Th\u00e9\u00e2tre - Lourmel", "is_installed": "OUI", "capacity": 53, "numdocksavailable": 14, "numbikesavailable": 38, "mechanical": 34, "ebike": 4, "is_renting": "OUI", "is_returning": "OUI", "duedate": "2024-06-13T15:53:24+00:00", "coordonnees_geo": {"lon": 2.2898658737540245, "lat": 48.8482070397636}, "nom_arrondissement_communes": "Paris", "code_insee_commune": null}, {"stationcode": "14112", "name": "M\u00e9chain - Faubourg Saint-Jacques", "is_installed": "OUI", "capacity": 16, "numdocksavailable": 15, "numbikesavailable": 0, "mechanical": 0, "ebike": 0, "is_renting": "OUI", "is_returning": "OUI", "duedate": "2024-06-13T15:52:59+00:00", "coordonnees_geo": {"lon": 2.33798034198275, "lat": 48.83586772099485}, "nom_arrondissement_communes": "Paris", "code_insee_commune": null}, {"stationcode": "9026", "name": "Jean-Baptiste Pigalle - La Bruyere", "is_installed": "OUI", "capacity": 17, "numdocksavailable": 12, "numbikesavailable": 5, "mechanical": 4, "ebike": 1, "is_renting": "OUI", "is_returning": "OUI", "duedate": "2024-06-13T15:53:37+00:00", "coordonnees_geo": {"lon": 2.333709173337285, "lat": 48.87939826447722}, "nom_arrondissement_communes": "Paris", "code_insee_commune": null}, {"stationcode": "21001", "name": "Transvaal - Charles de Gaulle", "is_installed": "OUI", "capacity": 27, "numdocksavailable": 23, "numbikesavailable": 4, "mechanical": 3, "ebike": 1, "is_renting": "OUI", "is_returning": "OUI", "duedate": "2024-06-13T15:52:10+00:00", "coordonnees_geo": {"lon": 2.2373420120857195, "lat": 48.848280403628806}, "nom_arrondissement_communes": "Boulogne-Billancourt", "code_insee_commune": null}, {"stationcode": "18033", "name": "Belliard - Damr\u00e9mont", "is_installed": "OUI", "capacity": 34, "numdocksavailable": 29, "numbikesavailable": 3, "mechanical": 0, "ebike": 3, "is_renting": "OUI", "is_returning": "OUI", "duedate": "2024-06-13T15:53:25+00:00", "coordonnees_geo": {"lon": 2.338023450388167, "lat": 48.89669238777841}, "nom_arrondissement_communes": "Paris", "code_insee_commune": null}, {"stationcode": "23007", "name": "Pr\u00e9sident Wilson - Jean Jaures", "is_installed": "OUI", "capacity": 27, "numdocksavailable": 8, "numbikesavailable": 15, "mechanical": 13, "ebike": 2, "is_renting": "OUI", "is_returning": "OUI", "duedate": "2024-06-13T15:52:39+00:00", "coordonnees_geo": {"lon": 2.2920683026313786, "lat": 48.89034054052266}, "nom_arrondissement_communes": "Levallois-Perret", "code_insee_commune": null}]