[{"stationcode": "21703", "name": "Square du Carrefour de l'Insurrection", "is_installed": "OUI", "capacity": 23, "numdocksavailable": 19, "numbikesavailable": 4, "mechanical": 1, "ebike": 3, "is_renting": "OUI", "is_returning": "OUI", "duedate": "2024-06-14T15:48:55+00:00", "coordonnees_geo": {"lon": 2.291113436222077, "lat": 48.820864559770676}, "nom_arrondissement_communes": "Vanves", "code_insee_commune": null}, {"stationcode": "35017", "name": "Toffier Decaux - Cartier Bresson", "is_installed": "OUI", "capacity": 18, "numdocksavailable": 7, "numbikesavailable": 8, "mechanical": 7, "ebike": 1, "is_renting": "OUI", "is_returning": "OUI", "duedate": "2024-06-14T15:49:49+00:00", "coordonnees_geo": {"lon": 2.4017545580863957, "lat": 48.90165072551549}, "nom_arrondissement_communes": "Pantin", "code_insee_commune": null}, {"stationcode": "20023", "name": "Pelleport - Belgrand", "is_installed": "OUI", "capacity": 15, "numdocksavailable": 14, "numbikesavailable": 1, "mechanical": 0, "ebike": 1, "is_renting": "OUI", "is_returning": "OUI", "duedate": "2024-06-14T15:49:26+00:00", "coordonnees_geo": {"lon": 2.403980836377493, "lat": 48.86500081847653}, "nom_arrondissement_communes": "Paris", "code_insee_commune": null}, {"stationcode": "14002", "name": "Edgar Quinet - Raspail", "is_installed": "OUI", "capacity": 46, "numdocksavailable": 15, "numbikesavailable": 28, "mechanical": 2, "ebike": 26, "is_renting": "OUI", "is_returning": "OUI", "duedate": "2024-06-14T15:50:02+00:00", "coordonnees_geo": {"lon": 2.32971478253603, "lat": 48.83940266673835}, "nom_arrondissement_communes": "Paris", "code_insee_commune": null}, {"stationcode": "15035", "name": "Place Etienne Pernet", "is_installed": "OUI", "capacity": 43, "numdocksavailable": 20, "numbikesavailable": 21, "mechanical": 17, "ebike": 4, "is_renting": "OUI", "is_returning": "OUI", "duedate": "2024-06-14T15:50:19+00:00", "coordonnees_geo": {"lon": 2.2921819612383847, "lat": 48.84243457133779}, "nom_arrondissement_communes": "Paris", "code_insee_commune": null}, {"stationcode": "18049", "name": "Porte d'Aubervilliers", "is_installed": "OUI", "capacity": 55, "numdocksavailable": 46, "numbikesavailable": 6, "mechanical": 3, "ebike": 3, "is_renting": "OUI", "is_returning": "OUI", "duedate": "2024-06-14T15:50:08+00:00", "coordonnees_geo": {"lon": 2.3689722642302513, "lat": 48.89859661942376}, "nom_arrondissement_communes": "Paris", "code_insee_commune": null}, {"stationcode": "11041", "name": "Square Saint-Ambroise", "is_installed": "OUI", "capacity": 43, "numdocksavailable": 15, "numbikesavailable": 26, "mechanical": 21, "ebike": 5, "is_renting": "OUI", "is_returning": "OUI", "duedate": "2024-06-14T15:50:16+00:00", "coordonnees_geo": {"lon": 2.375841, "lat": 48.860934}, "nom_arrondissement_communes": "Paris", "code_insee_commune": null}, {"stationcode": "31703", "name": "Sadi Carnot - Fran\u00e7ois Mitterrand", "is_installed": "OUI", "capacity": 27, "numdocksavailable": 25, "numbikesavailable": 2, "mechanical": 1, "ebike": 1, "is_renting": "OUI", "is_returning": "OUI", "duedate": "2024-06-14T15:48:52+00:00", "coordonnees_geo": {"lon": 2.4241617321968083, "lat": 48.87532687671517}, "nom_arrondissement_communes": "Bagnolet", "code_insee_commune": null}, {"stationcode": "35003", "name": "Gabrielle Josserand - Edouard Vaillant", "is_installed": "OUI", "capacity": 25, "numdocksavailable": 20, "numbikesavailable": 3, "mechanical": 1, "ebike": 2, "is_renting": "OUI", "is_returning": "OUI", "duedate": "2024-06-14T15:50:18+00:00", "coordonnees_geo": {"lon": 2.3933270573616032, "lat": 48.90271566255436}, "nom_arrondissement_communes": "Pantin", "code_insee_commune": null}, {"stationcode": "35014", "name": "Charles de Gaulle - Jean Lolive", "is_installed": "OUI", "capacity": 26, "numdocksavailable": 23, "numbikesavailable": 3, "mechanical": 2, "ebike": 1, "is_renting": "OUI", "is_returning": "OUI", "duedate": "2024-06-14T15:50:02+00:00", "coordonnees_geo": {"lon": 2.4126765131950383, "lat": 48.8932644350857}, "nom_arrondissement_communes": "Pantin", "code_insee_commune": null}, {"stationcode": "19127", "name": "Aubervilliers - Curial", "is_installed": "OUI", "capacity": 23, "numdocksavailable": 22, "numbikesavailable": 1, "mechanical": 0, "ebike": 1, "is_renting": "OUI", "is_returning": "OUI", "duedate": "2024-06-14T15:44:13+00:00", "coordonnees_geo": {"lon": 2.3688579350709915, "lat": 48.89088305227546}, "nom_arrondissement_communes": "Paris", "code_insee_commune": null}, {"stationcode": "16015", "name": "Bassano -  I\u00e9na", "is_installed": "OUI", "capacity": 15, "numdocksavailable": 12, "numbikesavailable": 3, "mechanical": 2, "ebike": 1, "is_renting": "OUI", "is_returning": "OUI", "duedate": "2024-06-14T15:47:58+00:00", "coordonnees_geo": {"lon": 2.296149600985935, "lat": 48.868144510482075}, "nom_arrondissement_communes": "Paris", "code_insee_commune": null}, {"stationcode": "1120", "name": "Lavandieres Sainte Opportune - Rivoli", "is_installed": "OUI", "capacity": 27, "numdocksavailable": 9, "numbikesavailable": 18, "mechanical": 15, "ebike": 3, "is_renting": "OUI", "is_returning": "OUI", "duedate": "2024-06-14T15:45:19+00:00", "coordonnees_geo": {"lon": 2.3466217517853, "lat": 48.859279702476}, "nom_arrondissement_communes": "Paris", "code_insee_commune": null}, {"stationcode": "47004", "name": "Stade Auguste Delaune", "is_installed": "OUI", "capacity": 21, "numdocksavailable": 0, "numbikesavailable": 20, "mechanical": 18, "ebike": 2, "is_renting": "OUI", "is_returning": "OUI", "duedate": "2024-06-14T15:49:36+00:00", "coordonnees_geo": {"lon": 2.4345204234123234, "lat": 48.80896378683884}, "nom_arrondissement_communes": "Maisons-Alfort", "code_insee_commune": null}, {"stationcode": "9026", "name": "Jean-Baptiste Pigalle - La Bruyere", "is_installed": "OUI", "capacity": 17, "numdocksavailable": 15, "numbikesavailable": 2, "mechanical": 1, "ebike": 1, "is_renting": "OUI", "is_returning": "OUI", "duedate": "2024-06-14T15:44:22+00:00", "coordonnees_geo": {"lon": 2.333709173337285, "lat": 48.87939826447722}, "nom_arrondissement_communes": "Paris", "code_insee_commune": null}, {"stationcode": "21001", "name": "Transvaal - Charles de Gaulle", "is_installed": "OUI", "capacity": 27, "numdocksavailable": 20, "numbikesavailable": 6, "mechanical": 4, "ebike": 2, "is_renting": "OUI", "is_returning": "OUI", "duedate": "2024-06-14T15:46:42+00:00", "coordonnees_geo": {"lon": 2.2373420120857195, "lat": 48.848280403628806}, "nom_arrondissement_communes": "Boulogne-Billancourt", "code_insee_commune": null}, {"stationcode": "16122", "name": "Route de la Muette - Porte de Neuilly", "is_installed": "OUI", "capacity": 50, "numdocksavailable": 44, "numbikesavailable": 6, "mechanical": 1, "ebike": 5, "is_renting": "OUI", "is_returning": "OUI", "duedate": "2024-06-14T15:44:34+00:00", "coordonnees_geo": {"lon": 2.2587671, "lat": 48.8798926}, "nom_arrondissement_communes": "Paris", "code_insee_commune": null}, {"stationcode": "21310", "name": "Kl\u00e9ber - Gouverneur G\u00e9n\u00e9ral Ebou\u00e9", "is_installed": "OUI", "capacity": 24, "numdocksavailable": 3, "numbikesavailable": 20, "mechanical": 19, "ebike": 1, "is_renting": "OUI", "is_returning": "OUI", "duedate": "2024-06-14T15:48:37+00:00", "coordonnees_geo": {"lon": 2.2723413258790965, "lat": 48.826885843069796}, "nom_arrondissement_communes": "Issy-les-Moulineaux", "code_insee_commune": null}, {"stationcode": "23007", "name": "Pr\u00e9sident Wilson - Jean Jaures", "is_installed": "OUI", "capacity": 27, "numdocksavailable": 21, "numbikesavailable": 3, "mechanical": 2, "ebike": 1, "is_renting": "OUI", "is_returning": "OUI", "duedate": "2024-06-14T15:49:16+00:00", "coordonnees_geo": {"lon": 2.2920683026313786, "lat": 48.89034054052266}, "nom_arrondissement_communes": "Levallois-Perret", "code_insee_commune": null}, {"stationcode": "32015", "name": "Gare RER de Saint-Denis", "is_installed": "OUI", "capacity": 40, "numdocksavailable": 25, "numbikesavailable": 11, "mechanical": 5, "ebike": 6, "is_renting": "OUI", "is_returning": "OUI", "duedate": "2024-06-14T15:46:43+00:00", "coordonnees_geo": {"lon": 2.3471488058567047, "lat": 48.93554324248177}, "nom_arrondissement_communes": "Saint-Denis", "code_insee_commune": null}, {"stationcode": "10010", "name": "Place Jacques Bonsergent", "is_installed": "OUI", "capacity": 33, "numdocksavailable": 12, "numbikesavailable": 17, "mechanical": 15, "ebike": 2, "is_renting": "OUI", "is_returning": "OUI", "duedate": "2024-06-14T15:49:37+00:00", "coordonnees_geo": {"lon": 2.3612049221992, "lat": 48.870948218595}, "nom_arrondissement_communes": "Paris", "code_insee_commune": null}, {"stationcode": "5121", "name": "Square Ren\u00e9 Viviani - Montebello", "is_installed": "OUI", "capacity": 34, "numdocksavailable": 9, "numbikesavailable": 23, "mechanical": 19, "ebike": 4, "is_renting": "OUI", "is_returning": "OUI", "duedate": "2024-06-14T15:50:17+00:00", "coordonnees_geo": {"lon": 2.347842156887055, "lat": 48.851904891406384}, "nom_arrondissement_communes": "Paris", "code_insee_commune": null}, {"stationcode": "20116", "name": "Haies - R\u00e9union", "is_installed": "OUI", "capacity": 16, "numdocksavailable": 13, "numbikesavailable": 3, "mechanical": 1, "ebike": 2, "is_renting": "OUI", "is_returning": "OUI", "duedate": "2024-06-14T15:49:24+00:00", "coordonnees_geo": {"lon": 2.402426162238911, "lat": 48.85386896766491}, "nom_arrondissement_communes": "Paris", "code_insee_commune": null}, {"stationcode": "16027", "name": "Mozart - Jasmin", "is_installed": "OUI", "capacity": 62, "numdocksavailable": 58, "numbikesavailable": 4, "mechanical": 2, "ebike": 2, "is_renting": "OUI", "is_returning": "OUI", "duedate": "2024-06-14T15:48:50+00:00", "coordonnees_geo": {"lon": 2.268483570651513, "lat": 48.85286124871689}, "nom_arrondissement_communes": "Paris", "code_insee_commune": null}, {"stationcode": "32004", "name": "Wilson - Landy", "is_installed": "OUI", "capacity": 40, "numdocksavailable": 30, "numbikesavailable": 9, "mechanical": 4, "ebike": 5, "is_renting": "OUI", "is_returning": "OUI", "duedate": "2024-06-14T15:49:17+00:00", "coordonnees_geo": {"lon": 2.357633225619793, "lat": 48.91516726221354}, "nom_arrondissement_communes": "Saint-Denis", "code_insee_commune": null}, {"stationcode": "16029", "name": "Maison de Radio - France", "is_installed": "OUI", "capacity": 47, "numdocksavailable": 19, "numbikesavailable": 26, "mechanical": 22, "ebike": 4, "is_renting": "OUI", "is_returning": "OUI", "duedate": "2024-06-14T15:50:18+00:00", "coordonnees_geo": {"lon": 2.277785539627075, "lat": 48.85132886434057}, "nom_arrondissement_communes": "Paris", "code_insee_commune": null}, {"stationcode": "8019", "name": "Naples - Rome", "is_installed": "OUI", "capacity": 26, "numdocksavailable": 21, "numbikesavailable": 5, "mechanical": 0, "ebike": 5, "is_renting": "OUI", "is_returning": "OUI", "duedate": "2024-06-14T15:46:58+00:00", "coordonnees_geo": {"lon": 2.321358695626259, "lat": 48.879960700846226}, "nom_arrondissement_communes": "Paris", "code_insee_commune": null}, {"stationcode": "18008", "name": "Square L\u00e9on", "is_installed": "OUI", "capacity": 33, "numdocksavailable": 29, "numbikesavailable": 2, "mechanical": 1, "ebike": 1, "is_renting": "OUI", "is_returning": "OUI", "duedate": "2024-06-14T15:47:08+00:00", "coordonnees_geo": {"lon": 2.353205569088459, "lat": 48.88667396788626}, "nom_arrondissement_communes": "Paris", "code_insee_commune": null}, {"stationcode": "42703", "name": "Fontainebleau - Edmond Michelet", "is_installed": "OUI", "capacity": 45, "numdocksavailable": 41, "numbikesavailable": 4, "mechanical": 0, "ebike": 4, "is_renting": "OUI", "is_returning": "OUI", "duedate": "2024-06-14T15:50:05+00:00", "coordonnees_geo": {"lon": 2.3626908659935, "lat": 48.80956436844049}, "nom_arrondissement_communes": "Le Kremlin-Bic\u00eatre", "code_insee_commune": null}, {"stationcode": "14030", "name": "Pernety - Raymond Losserand", "is_installed": "OUI", "capacity": 32, "numdocksavailable": 23, "numbikesavailable": 8, "mechanical": 3, "ebike": 5, "is_renting": "OUI", "is_returning": "OUI", "duedate": "2024-06-14T15:49:25+00:00", "coordonnees_geo": {"lon": 2.317609339387, "lat": 48.834254627953}, "nom_arrondissement_communes": "Paris", "code_insee_commune": null}, {"stationcode": "20201", "name": "Eug\u00e8ne Reisz - Davout", "is_installed": "OUI", "capacity": 20, "numdocksavailable": 15, "numbikesavailable": 4, "mechanical": 3, "ebike": 1, "is_renting": "OUI", "is_returning": "OUI", "duedate": "2024-06-14T15:49:10+00:00", "coordonnees_geo": {"lon": 2.410396970808506, "lat": 48.85631874632638}, "nom_arrondissement_communes": "Paris", "code_insee_commune": null}, {"stationcode": "13046", "name": "Eug\u00e8ne Oudin\u00e9 - Dessous Des Berges", "is_installed": "OUI", "capacity": 44, "numdocksavailable": 7, "numbikesavailable": 37, "mechanical": 36, "ebike": 1, "is_renting": "OUI", "is_returning": "OUI", "duedate": "2024-06-14T15:49:42+00:00", "coordonnees_geo": {"lon": 2.3750226, "lat": 48.8256423}, "nom_arrondissement_communes": "Paris", "code_insee_commune": null}, {"stationcode": "22102", "name": "Mont Val\u00e9rien - Michel Salles", "is_installed": "OUI", "capacity": 24, "numdocksavailable": 16, "numbikesavailable": 8, "mechanical": 1, "ebike": 7, "is_renting": "OUI", "is_returning": "OUI", "duedate": "2024-06-14T15:49:49+00:00", "coordonnees_geo": {"lon": 2.2152966, "lat": 48.8561915}, "nom_arrondissement_communes": "Saint-Cloud", "code_insee_commune": null}, {"stationcode": "15003", "name": "Gare Montparnasse - Vaugirard", "is_installed": "OUI", "capacity": 66, "numdocksavailable": 2, "numbikesavailable": 63, "mechanical": 21, "ebike": 42, "is_renting": "OUI", "is_returning": "OUI", "duedate": "2024-06-14T15:49:18+00:00", "coordonnees_geo": {"lon": 2.31951002690117, "lat": 48.8418071798797}, "nom_arrondissement_communes": "Paris", "code_insee_commune": null}, {"stationcode": "4110", "name": "Neuve Saint-Pierre - Beautreillis", "is_installed": "OUI", "capacity": 20, "numdocksavailable": 2, "numbikesavailable": 16, "mechanical": 15, "ebike": 1, "is_renting": "OUI", "is_returning": "OUI", "duedate": "2024-06-14T15:49:20+00:00", "coordonnees_geo": {"lon": 2.3639122769236565, "lat": 48.85355351439652}, "nom_arrondissement_communes": "Paris", "code_insee_commune": null}, {"stationcode": "6032", "name": "Sabot - Rennes", "is_installed": "OUI", "capacity": 26, "numdocksavailable": 23, "numbikesavailable": 3, "mechanical": 3, "ebike": 0, "is_renting": "OUI", "is_returning": "OUI", "duedate": "2024-06-14T15:49:56+00:00", "coordonnees_geo": {"lon": 2.331552766263485, "lat": 48.852575112948415}, "nom_arrondissement_communes": "Paris", "code_insee_commune": null}, {"stationcode": "10036", "name": "Aqueduc - Villette", "is_installed": "OUI", "capacity": 28, "numdocksavailable": 18, "numbikesavailable": 8, "mechanical": 3, "ebike": 5, "is_renting": "OUI", "is_returning": "OUI", "duedate": "2024-06-14T15:50:19+00:00", "coordonnees_geo": {"lon": 2.367198803315, "lat": 48.883886063895}, "nom_arrondissement_communes": "Paris", "code_insee_commune": null}, {"stationcode": "20019", "name": "Place du Maquis du Vercors", "is_installed": "OUI", "capacity": 31, "numdocksavailable": 30, "numbikesavailable": 1, "mechanical": 1, "ebike": 0, "is_renting": "OUI", "is_returning": "OUI", "duedate": "2024-06-14T14:44:15+00:00", "coordonnees_geo": {"lon": 2.4083782732486725, "lat": 48.877321579493575}, "nom_arrondissement_communes": "Paris", "code_insee_commune": null}, {"stationcode": "13041", "name": "Porte d'Ivry", "is_installed": "OUI", "capacity": 50, "numdocksavailable": 41, "numbikesavailable": 7, "mechanical": 3, "ebike": 4, "is_renting": "OUI", "is_returning": "OUI", "duedate": "2024-06-14T14:45:15+00:00", "coordonnees_geo": {"lon": 2.3688706755638, "lat": 48.821768747596}, "nom_arrondissement_communes": "Paris", "code_insee_commune": null}, {"stationcode": "13010", "name": "Place d'Italie - Vincent Auriol", "is_installed": "OUI", "capacity": 40, "numdocksavailable": 30, "numbikesavailable": 8, "mechanical": 4, "ebike": 4, "is_renting": "OUI", "is_returning": "OUI", "duedate": "2024-06-14T14:49:22+00:00", "coordonnees_geo": {"lon": 2.3567550292319, "lat": 48.831481874467}, "nom_arrondissement_communes": "Paris", "code_insee_commune": null}, {"stationcode": "18001", "name": "Damr\u00e9mont - Caulaincourt", "is_installed": "OUI", "capacity": 18, "numdocksavailable": 16, "numbikesavailable": 2, "mechanical": 0, "ebike": 2, "is_renting": "OUI", "is_returning": "OUI", "duedate": "2024-06-14T14:46:15+00:00", "coordonnees_geo": {"lon": 2.3325880989432335, "lat": 48.88714509078738}, "nom_arrondissement_communes": "Paris", "code_insee_commune": null}, {"stationcode": "17016", "name": "Brochant - Square des Batignolles", "is_installed": "OUI", "capacity": 31, "numdocksavailable": 25, "numbikesavailable": 6, "mechanical": 3, "ebike": 3, "is_renting": "OUI", "is_returning": "OUI", "duedate": "2024-06-14T14:50:13+00:00", "coordonnees_geo": {"lon": 2.316861143151153, "lat": 48.88818698581028}, "nom_arrondissement_communes": "Paris", "code_insee_commune": null}, {"stationcode": "20202", "name": "Dupont de l'Eure - Gambetta", "is_installed": "OUI", "capacity": 31, "numdocksavailable": 29, "numbikesavailable": 2, "mechanical": 0, "ebike": 2, "is_renting": "OUI", "is_returning": "OUI", "duedate": "2024-06-14T14:50:05+00:00", "coordonnees_geo": {"lon": 2.4003649, "lat": 48.8679385}, "nom_arrondissement_communes": "Paris", "code_insee_commune": null}, {"stationcode": "5019", "name": "Poissy - Saint-Germain", "is_installed": "OUI", "capacity": 25, "numdocksavailable": 3, "numbikesavailable": 22, "mechanical": 21, "ebike": 1, "is_renting": "OUI", "is_returning": "OUI", "duedate": "2024-06-14T14:49:25+00:00", "coordonnees_geo": {"lon": 2.3529685288668, "lat": 48.84969649427}, "nom_arrondissement_communes": "Paris", "code_insee_commune": null}, {"stationcode": "11034", "name": "Parmentier - Fontaine au Roi", "is_installed": "OUI", "capacity": 48, "numdocksavailable": 36, "numbikesavailable": 12, "mechanical": 5, "ebike": 7, "is_renting": "OUI", "is_returning": "OUI", "duedate": "2024-06-14T14:50:04+00:00", "coordonnees_geo": {"lon": 2.372705978671471, "lat": 48.86787670551736}, "nom_arrondissement_communes": "Paris", "code_insee_commune": null}, {"stationcode": "9012", "name": "Rougemont - Poissonni\u00e8re", "is_installed": "OUI", "capacity": 30, "numdocksavailable": 5, "numbikesavailable": 25, "mechanical": 19, "ebike": 6, "is_renting": "OUI", "is_returning": "OUI", "duedate": "2024-06-14T14:42:45+00:00", "coordonnees_geo": {"lon": 2.345873080193996, "lat": 48.871611569354755}, "nom_arrondissement_communes": "Paris", "code_insee_commune": null}, {"stationcode": "15020", "name": "Mairie du 15\u00e8me", "is_installed": "OUI", "capacity": 32, "numdocksavailable": 21, "numbikesavailable": 10, "mechanical": 10, "ebike": 0, "is_renting": "OUI", "is_returning": "OUI", "duedate": "2024-06-14T14:48:53+00:00", "coordonnees_geo": {"lon": 2.2986539, "lat": 48.8417762}, "nom_arrondissement_communes": "Paris", "code_insee_commune": null}, {"stationcode": "41206", "name": "Place des Larris", "is_installed": "OUI", "capacity": 34, "numdocksavailable": 34, "numbikesavailable": 0, "mechanical": 0, "ebike": 0, "is_renting": "OUI", "is_returning": "OUI", "duedate": "2024-06-14T14:44:19+00:00", "coordonnees_geo": {"lon": 2.4780236, "lat": 48.8568363}, "nom_arrondissement_communes": "Fontenay-sous-Bois", "code_insee_commune": null}, {"stationcode": "13114", "name": "Nationale - Marcel Duchamp", "is_installed": "OUI", "capacity": 23, "numdocksavailable": 13, "numbikesavailable": 10, "mechanical": 8, "ebike": 2, "is_renting": "OUI", "is_returning": "OUI", "duedate": "2024-06-14T14:49:15+00:00", "coordonnees_geo": {"lon": 2.3678014799952507, "lat": 48.82463749337136}, "nom_arrondissement_communes": "Paris", "code_insee_commune": null}, {"stationcode": "23008", "name": "H\u00f4tel de Ville de Levallois Perret", "is_installed": "OUI", "capacity": 26, "numdocksavailable": 12, "numbikesavailable": 12, "mechanical": 4, "ebike": 8, "is_renting": "OUI", "is_returning": "OUI", "duedate": "2024-06-14T14:47:29+00:00", "coordonnees_geo": {"lon": 2.2888818383216862, "lat": 48.89314451997415}, "nom_arrondissement_communes": "Levallois-Perret", "code_insee_commune": null}, {"stationcode": "15063", "name": "Convention - Saint-Charles", "is_installed": "OUI", "capacity": 23, "numdocksavailable": 22, "numbikesavailable": 1, "mechanical": 0, "ebike": 1, "is_renting": "NON", "is_returning": "NON", "duedate": "2023-12-14T02:53:24+00:00", "coordonnees_geo": {"lon": 2.2831090539694, "lat": 48.843156111116}, "nom_arrondissement_communes": "Paris", "code_insee_commune": null}, {"stationcode": "8015", "name": "Roqu\u00e9pine - Malesherbes", "is_installed": "OUI", "capacity": 37, "numdocksavailable": 12, "numbikesavailable": 22, "mechanical": 19, "ebike": 3, "is_renting": "OUI", "is_returning": "OUI", "duedate": "2024-06-14T14:48:51+00:00", "coordonnees_geo": {"lon": 2.320404499769211, "lat": 48.87345073390807}, "nom_arrondissement_communes": "Paris", "code_insee_commune": null}, {"stationcode": "31018", "name": "Gambetta - Michelet", "is_installed": "OUI", "capacity": 33, "numdocksavailable": 28, "numbikesavailable": 4, "mechanical": 1, "ebike": 3, "is_renting": "OUI", "is_returning": "OUI", "duedate": "2024-06-14T14:49:07+00:00", "coordonnees_geo": {"lon": 2.429966032505036, "lat": 48.85273792380526}, "nom_arrondissement_communes": "Montreuil", "code_insee_commune": null}, {"stationcode": "47002", "name": "Les Juilliottes", "is_installed": "OUI", "capacity": 21, "numdocksavailable": 3, "numbikesavailable": 17, "mechanical": 15, "ebike": 2, "is_renting": "OUI", "is_returning": "OUI", "duedate": "2024-06-14T14:49:54+00:00", "coordonnees_geo": {"lon": 2.4437362, "lat": 48.8043072}, "nom_arrondissement_communes": "Maisons-Alfort", "code_insee_commune": null}, {"stationcode": "33005", "name": "R\u00e9publique - Henri Barbusse", "is_installed": "OUI", "capacity": 32, "numdocksavailable": 27, "numbikesavailable": 5, "mechanical": 4, "ebike": 1, "is_renting": "OUI", "is_returning": "OUI", "duedate": "2024-06-14T14:49:04+00:00", "coordonnees_geo": {"lon": 2.389432489871979, "lat": 48.90661553626751}, "nom_arrondissement_communes": "Aubervilliers", "code_insee_commune": null}, {"stationcode": "2110", "name": "Je\u00fbneurs - Mulhouse", "is_installed": "OUI", "capacity": 28, "numdocksavailable": 23, "numbikesavailable": 4, "mechanical": 1, "ebike": 3, "is_renting": "OUI", "is_returning": "OUI", "duedate": "2024-06-14T14:47:41+00:00", "coordonnees_geo": {"lon": 2.346925, "lat": 48.868997}, "nom_arrondissement_communes": "Paris", "code_insee_commune": null}, {"stationcode": "17033", "name": "Carnot - G\u00e9n\u00e9ral Lanrezac", "is_installed": "OUI", "capacity": 30, "numdocksavailable": 30, "numbikesavailable": 0, "mechanical": 0, "ebike": 0, "is_renting": "OUI", "is_returning": "OUI", "duedate": "2024-06-14T14:42:01+00:00", "coordonnees_geo": {"lon": 2.2938242935036, "lat": 48.875443870736}, "nom_arrondissement_communes": "Paris", "code_insee_commune": null}, {"stationcode": "14007", "name": "Ferrus - Saint-Jacques", "is_installed": "OUI", "capacity": 34, "numdocksavailable": 30, "numbikesavailable": 2, "mechanical": 0, "ebike": 2, "is_renting": "OUI", "is_returning": "OUI", "duedate": "2024-06-14T14:45:14+00:00", "coordonnees_geo": {"lon": 2.3408563, "lat": 48.8313878}, "nom_arrondissement_communes": "Paris", "code_insee_commune": null}, {"stationcode": "10164", "name": "Claude Vellefaux - Sambre et Meuse", "is_installed": "OUI", "capacity": 34, "numdocksavailable": 29, "numbikesavailable": 5, "mechanical": 2, "ebike": 3, "is_renting": "OUI", "is_returning": "OUI", "duedate": "2024-06-14T14:44:16+00:00", "coordonnees_geo": {"lon": 2.370478, "lat": 48.875022}, "nom_arrondissement_communes": "Paris", "code_insee_commune": null}, {"stationcode": "9113", "name": "Bleue - Tr\u00e9vise", "is_installed": "OUI", "capacity": 30, "numdocksavailable": 19, "numbikesavailable": 8, "mechanical": 8, "ebike": 0, "is_renting": "OUI", "is_returning": "OUI", "duedate": "2024-06-14T14:50:09+00:00", "coordonnees_geo": {"lon": 2.347289621829987, "lat": 48.87578906564573}, "nom_arrondissement_communes": "Paris", "code_insee_commune": null}, {"stationcode": "20103", "name": "Le Vau - Maurice Bertaux", "is_installed": "OUI", "capacity": 25, "numdocksavailable": 22, "numbikesavailable": 2, "mechanical": 0, "ebike": 2, "is_renting": "OUI", "is_returning": "OUI", "duedate": "2024-06-14T14:49:05+00:00", "coordonnees_geo": {"lon": 2.411030612453627, "lat": 48.86803439043193}, "nom_arrondissement_communes": "Paris", "code_insee_commune": null}, {"stationcode": "2014", "name": "Daunou - Louis le Grand", "is_installed": "OUI", "capacity": 17, "numdocksavailable": 10, "numbikesavailable": 7, "mechanical": 4, "ebike": 3, "is_renting": "OUI", "is_returning": "OUI", "duedate": "2024-06-14T14:47:42+00:00", "coordonnees_geo": {"lon": 2.332515, "lat": 48.869113}, "nom_arrondissement_communes": "Paris", "code_insee_commune": null}, {"stationcode": "4109", "name": "Mornay - Sully", "is_installed": "OUI", "capacity": 15, "numdocksavailable": 4, "numbikesavailable": 11, "mechanical": 7, "ebike": 4, "is_renting": "OUI", "is_returning": "OUI", "duedate": "2024-06-14T14:47:57+00:00", "coordonnees_geo": {"lon": 2.364460788667202, "lat": 48.84970399548416}, "nom_arrondissement_communes": "Paris", "code_insee_commune": null}, {"stationcode": "8105", "name": "Fran\u00e7ois 1er - Lincoln", "is_installed": "OUI", "capacity": 31, "numdocksavailable": 14, "numbikesavailable": 17, "mechanical": 5, "ebike": 12, "is_renting": "OUI", "is_returning": "OUI", "duedate": "2024-06-14T14:47:37+00:00", "coordonnees_geo": {"lon": 2.3024262188416, "lat": 48.869517979344}, "nom_arrondissement_communes": "Paris", "code_insee_commune": null}, {"stationcode": "11048", "name": "Place Mireille Havet", "is_installed": "OUI", "capacity": 43, "numdocksavailable": 6, "numbikesavailable": 37, "mechanical": 37, "ebike": 0, "is_renting": "OUI", "is_returning": "OUI", "duedate": "2024-06-14T14:49:59+00:00", "coordonnees_geo": {"lon": 2.383756, "lat": 48.850533}, "nom_arrondissement_communes": "Paris", "code_insee_commune": null}, {"stationcode": "21952", "name": "Place Tony de Graaff", "is_installed": "OUI", "capacity": 42, "numdocksavailable": 23, "numbikesavailable": 18, "mechanical": 17, "ebike": 1, "is_renting": "OUI", "is_returning": "OUI", "duedate": "2024-06-14T14:49:14+00:00", "coordonnees_geo": {"lon": 2.2458109, "lat": 48.8181645}, "nom_arrondissement_communes": "Meudon", "code_insee_commune": null}, {"stationcode": "12154", "name": "Square Georges Melies", "is_installed": "OUI", "capacity": 40, "numdocksavailable": 20, "numbikesavailable": 19, "mechanical": 17, "ebike": 2, "is_renting": "OUI", "is_returning": "OUI", "duedate": "2024-06-14T14:49:43+00:00", "coordonnees_geo": {"lon": 2.409667745232582, "lat": 48.84070239213081}, "nom_arrondissement_communes": "Paris", "code_insee_commune": null}, {"stationcode": "9015", "name": "Lamartine - Faubourg Montmartre", "is_installed": "OUI", "capacity": 32, "numdocksavailable": 25, "numbikesavailable": 5, "mechanical": 3, "ebike": 2, "is_renting": "OUI", "is_returning": "OUI", "duedate": "2024-06-14T14:49:59+00:00", "coordonnees_geo": {"lon": 2.339765690267086, "lat": 48.87661398289084}, "nom_arrondissement_communes": "Paris", "code_insee_commune": null}, {"stationcode": "19021", "name": "Mairie du 19\u00e8me", "is_installed": "OUI", "capacity": 27, "numdocksavailable": 25, "numbikesavailable": 1, "mechanical": 0, "ebike": 1, "is_renting": "OUI", "is_returning": "OUI", "duedate": "2024-06-14T14:42:54+00:00", "coordonnees_geo": {"lon": 2.3812624812126164, "lat": 48.88256264247959}, "nom_arrondissement_communes": "Paris", "code_insee_commune": null}, {"stationcode": "17104", "name": "Jardin Marguerite Long", "is_installed": "OUI", "capacity": 22, "numdocksavailable": 18, "numbikesavailable": 4, "mechanical": 1, "ebike": 3, "is_renting": "OUI", "is_returning": "OUI", "duedate": "2024-06-14T14:48:14+00:00", "coordonnees_geo": {"lon": 2.2836575657129288, "lat": 48.8816985773914}, "nom_arrondissement_communes": "Paris", "code_insee_commune": null}, {"stationcode": "19030", "name": "Melun - Jean Jaur\u00e8s", "is_installed": "OUI", "capacity": 28, "numdocksavailable": 24, "numbikesavailable": 3, "mechanical": 2, "ebike": 1, "is_renting": "OUI", "is_returning": "OUI", "duedate": "2024-06-14T14:49:38+00:00", "coordonnees_geo": {"lon": 2.376477420330048, "lat": 48.8837796723475}, "nom_arrondissement_communes": "Paris", "code_insee_commune": null}, {"stationcode": "22002", "name": "Argenson - Ch\u00e2teau", "is_installed": "OUI", "capacity": 25, "numdocksavailable": 14, "numbikesavailable": 11, "mechanical": 6, "ebike": 5, "is_renting": "OUI", "is_returning": "OUI", "duedate": "2024-06-14T14:47:26+00:00", "coordonnees_geo": {"lon": 2.2642001509666447, "lat": 48.888559314669514}, "nom_arrondissement_communes": "Neuilly-sur-Seine", "code_insee_commune": null}, {"stationcode": "35008", "name": "Place de l'Eglise - Pantin", "is_installed": "OUI", "capacity": 30, "numdocksavailable": 29, "numbikesavailable": 1, "mechanical": 1, "ebike": 0, "is_renting": "OUI", "is_returning": "OUI", "duedate": "2024-06-14T14:50:07+00:00", "coordonnees_geo": {"lon": 2.4124351143836975, "lat": 48.892809461520265}, "nom_arrondissement_communes": "Pantin", "code_insee_commune": null}, {"stationcode": "11044", "name": "Square du Bataclan", "is_installed": "OUI", "capacity": 20, "numdocksavailable": 13, "numbikesavailable": 6, "mechanical": 4, "ebike": 2, "is_renting": "OUI", "is_returning": "OUI", "duedate": "2024-06-14T14:47:12+00:00", "coordonnees_geo": {"lon": 2.3711327, "lat": 48.8633762}, "nom_arrondissement_communes": "Paris", "code_insee_commune": null}, {"stationcode": "12153", "name": "Terroirs de France - Lheureux", "is_installed": "OUI", "capacity": 55, "numdocksavailable": 19, "numbikesavailable": 36, "mechanical": 20, "ebike": 16, "is_renting": "OUI", "is_returning": "OUI", "duedate": "2024-06-14T14:48:53+00:00", "coordonnees_geo": {"lon": 2.388618104159832, "lat": 48.83212027074841}, "nom_arrondissement_communes": "Paris", "code_insee_commune": null}, {"stationcode": "17005", "name": "Brochant - Clichy", "is_installed": "OUI", "capacity": 53, "numdocksavailable": 48, "numbikesavailable": 5, "mechanical": 0, "ebike": 5, "is_renting": "OUI", "is_returning": "OUI", "duedate": "2024-06-14T14:49:57+00:00", "coordonnees_geo": {"lon": 2.319730559929781, "lat": 48.89032998912038}, "nom_arrondissement_communes": "Paris", "code_insee_commune": null}, {"stationcode": "21017", "name": "Place Marcel Sembat", "is_installed": "OUI", "capacity": 56, "numdocksavailable": 34, "numbikesavailable": 22, "mechanical": 21, "ebike": 1, "is_renting": "OUI", "is_returning": "OUI", "duedate": "2024-06-14T14:48:54+00:00", "coordonnees_geo": {"lon": 2.2441747784614567, "lat": 48.83328865030686}, "nom_arrondissement_communes": "Boulogne-Billancourt", "code_insee_commune": null}, {"stationcode": "14016", "name": "Ren\u00e9 Coty - Parc Montsouris", "is_installed": "OUI", "capacity": 55, "numdocksavailable": 50, "numbikesavailable": 4, "mechanical": 3, "ebike": 1, "is_renting": "OUI", "is_returning": "OUI", "duedate": "2024-06-14T14:48:50+00:00", "coordonnees_geo": {"lon": 2.336124926805496, "lat": 48.82479134498032}, "nom_arrondissement_communes": "Paris", "code_insee_commune": null}, {"stationcode": "12120", "name": "Lac Daumesnil - Saint-Maurice", "is_installed": "OUI", "capacity": 50, "numdocksavailable": 46, "numbikesavailable": 4, "mechanical": 0, "ebike": 4, "is_renting": "OUI", "is_returning": "OUI", "duedate": "2024-06-14T14:49:40+00:00", "coordonnees_geo": {"lon": 2.4183654785156246, "lat": 48.82774555743318}, "nom_arrondissement_communes": "Paris", "code_insee_commune": null}, {"stationcode": "22012", "name": "Madeleine Michelis - Roule", "is_installed": "OUI", "capacity": 25, "numdocksavailable": 17, "numbikesavailable": 8, "mechanical": 5, "ebike": 3, "is_renting": "OUI", "is_returning": "OUI", "duedate": "2024-06-14T14:48:51+00:00", "coordonnees_geo": {"lon": 2.2773634269833565, "lat": 48.88260431301364}, "nom_arrondissement_communes": "Neuilly-sur-Seine", "code_insee_commune": null}, {"stationcode": "18035", "name": "Ren\u00e9 Binet - Porte de Montmartre", "is_installed": "OUI", "capacity": 37, "numdocksavailable": 27, "numbikesavailable": 9, "mechanical": 8, "ebike": 1, "is_renting": "OUI", "is_returning": "OUI", "duedate": "2024-06-14T14:50:07+00:00", "coordonnees_geo": {"lon": 2.3365534096956253, "lat": 48.89905109950848}, "nom_arrondissement_communes": "Paris", "code_insee_commune": null}, {"stationcode": "13110", "name": "Moulin de la Pointe", "is_installed": "OUI", "capacity": 22, "numdocksavailable": 19, "numbikesavailable": 3, "mechanical": 0, "ebike": 3, "is_renting": "OUI", "is_returning": "OUI", "duedate": "2024-06-14T14:49:45+00:00", "coordonnees_geo": {"lon": 2.3563179373741145, "lat": 48.82092946051445}, "nom_arrondissement_communes": "Paris", "code_insee_commune": null}, {"stationcode": "23105", "name": "S\u00e8vres Rive Gauche", "is_installed": "OUI", "capacity": 33, "numdocksavailable": 33, "numbikesavailable": 0, "mechanical": 0, "ebike": 0, "is_renting": "OUI", "is_returning": "OUI", "duedate": "2024-06-14T14:49:08+00:00", "coordonnees_geo": {"lon": 2.2150785306885, "lat": 48.821443218278}, "nom_arrondissement_communes": "S\u00e8vres", "code_insee_commune": null}, {"stationcode": "42011", "name": "Quai Marcel Boyer - Victor Hugo", "is_installed": "OUI", "capacity": 29, "numdocksavailable": 14, "numbikesavailable": 13, "mechanical": 12, "ebike": 1, "is_renting": "OUI", "is_returning": "OUI", "duedate": "2024-06-14T14:50:10+00:00", "coordonnees_geo": {"lon": 2.392039597034455, "lat": 48.82255636666729}, "nom_arrondissement_communes": "Ivry-sur-Seine", "code_insee_commune": null}, {"stationcode": "15009", "name": "Suffren - P\u00e9rignon", "is_installed": "OUI", "capacity": 46, "numdocksavailable": 34, "numbikesavailable": 12, "mechanical": 9, "ebike": 3, "is_renting": "OUI", "is_returning": "OUI", "duedate": "2024-06-14T14:49:50+00:00", "coordonnees_geo": {"lon": 2.307052147596786, "lat": 48.84717561492764}, "nom_arrondissement_communes": "Paris", "code_insee_commune": null}, {"stationcode": "23005", "name": "Gare de Clichy-Levallois", "is_installed": "OUI", "capacity": 26, "numdocksavailable": 21, "numbikesavailable": 2, "mechanical": 1, "ebike": 1, "is_renting": "OUI", "is_returning": "OUI", "duedate": "2024-06-14T14:45:54+00:00", "coordonnees_geo": {"lon": 2.2984680533409123, "lat": 48.89679827481989}, "nom_arrondissement_communes": "Levallois-Perret", "code_insee_commune": null}, {"stationcode": "21120", "name": "Docteur Calmette - Martre", "is_installed": "OUI", "capacity": 30, "numdocksavailable": 14, "numbikesavailable": 15, "mechanical": 15, "ebike": 0, "is_renting": "OUI", "is_returning": "OUI", "duedate": "2024-06-14T14:50:11+00:00", "coordonnees_geo": {"lon": 2.3086513252383, "lat": 48.898969358483}, "nom_arrondissement_communes": "Clichy", "code_insee_commune": null}, {"stationcode": "48009", "name": "R\u00e9publique - Auguste Perret", "is_installed": "OUI", "capacity": 30, "numdocksavailable": 27, "numbikesavailable": 2, "mechanical": 0, "ebike": 2, "is_renting": "OUI", "is_returning": "OUI", "duedate": "2024-06-14T14:43:59+00:00", "coordonnees_geo": {"lon": 2.3518594354391094, "lat": 48.78695280952244}, "nom_arrondissement_communes": "Villejuif", "code_insee_commune": null}, {"stationcode": "14125", "name": "Dareau - Broussais", "is_installed": "OUI", "capacity": 24, "numdocksavailable": 18, "numbikesavailable": 5, "mechanical": 4, "ebike": 1, "is_renting": "OUI", "is_returning": "OUI", "duedate": "2024-06-14T14:48:59+00:00", "coordonnees_geo": {"lon": 2.3361804, "lat": 48.8307758}, "nom_arrondissement_communes": "Paris", "code_insee_commune": null}, {"stationcode": "20047", "name": "Cours de Vincennes - Davout", "is_installed": "OUI", "capacity": 48, "numdocksavailable": 46, "numbikesavailable": 1, "mechanical": 1, "ebike": 0, "is_renting": "OUI", "is_returning": "OUI", "duedate": "2024-06-14T14:45:50+00:00", "coordonnees_geo": {"lon": 2.4107042336225, "lat": 48.847238029966}, "nom_arrondissement_communes": "Paris", "code_insee_commune": null}, {"stationcode": "9013", "name": "Mairie du 9\u00e8me", "is_installed": "OUI", "capacity": 24, "numdocksavailable": 17, "numbikesavailable": 7, "mechanical": 4, "ebike": 3, "is_renting": "OUI", "is_returning": "OUI", "duedate": "2024-06-14T14:47:27+00:00", "coordonnees_geo": {"lon": 2.340753448052758, "lat": 48.87326713758289}, "nom_arrondissement_communes": "Paris", "code_insee_commune": null}, {"stationcode": "31017", "name": "Jean Moulin - Paul Doumer", "is_installed": "OUI", "capacity": 20, "numdocksavailable": 15, "numbikesavailable": 4, "mechanical": 0, "ebike": 4, "is_renting": "OUI", "is_returning": "OUI", "duedate": "2024-06-14T14:45:24+00:00", "coordonnees_geo": {"lon": 2.45533436536789, "lat": 48.8622179854695}, "nom_arrondissement_communes": "Montreuil", "code_insee_commune": null}, {"stationcode": "13047", "name": "Boutroux - Porte de Vitry", "is_installed": "OUI", "capacity": 49, "numdocksavailable": 2, "numbikesavailable": 43, "mechanical": 42, "ebike": 1, "is_renting": "OUI", "is_returning": "OUI", "duedate": "2024-06-14T14:50:12+00:00", "coordonnees_geo": {"lon": 2.377738, "lat": 48.822632}, "nom_arrondissement_communes": "Paris", "code_insee_commune": null}, {"stationcode": "44103", "name": "Pont De Charenton", "is_installed": "OUI", "capacity": 18, "numdocksavailable": 2, "numbikesavailable": 16, "mechanical": 12, "ebike": 4, "is_renting": "OUI", "is_returning": "OUI", "duedate": "2024-06-14T14:49:04+00:00", "coordonnees_geo": {"lon": 2.4199531, "lat": 48.8179685}, "nom_arrondissement_communes": "Saint-Maurice", "code_insee_commune": null}, {"stationcode": "21951", "name": "Place Centrale", "is_installed": "OUI", "capacity": 22, "numdocksavailable": 21, "numbikesavailable": 1, "mechanical": 1, "ebike": 0, "is_renting": "OUI", "is_returning": "OUI", "duedate": "2024-06-14T14:42:38+00:00", "coordonnees_geo": {"lon": 2.2278830409049992, "lat": 48.78740167690531}, "nom_arrondissement_communes": "Meudon", "code_insee_commune": null}, {"stationcode": "92005", "name": "Gare de Nanterre Ville", "is_installed": "OUI", "capacity": 43, "numdocksavailable": 18, "numbikesavailable": 25, "mechanical": 20, "ebike": 5, "is_renting": "OUI", "is_returning": "OUI", "duedate": "2024-06-14T14:50:10+00:00", "coordonnees_geo": {"lon": 2.1957932, "lat": 48.8950295}, "nom_arrondissement_communes": "Nanterre", "code_insee_commune": null}, {"stationcode": "19113", "name": "Pr\u00e9 Saint-Gervais - Lilas", "is_installed": "OUI", "capacity": 28, "numdocksavailable": 27, "numbikesavailable": 1, "mechanical": 0, "ebike": 1, "is_renting": "OUI", "is_returning": "OUI", "duedate": "2024-06-14T14:49:26+00:00", "coordonnees_geo": {"lon": 2.3959073424339, "lat": 48.877870626988}, "nom_arrondissement_communes": "Paris", "code_insee_commune": null}, {"stationcode": "14128", "name": "Gergovie - Vercing\u00e9torix", "is_installed": "OUI", "capacity": 29, "numdocksavailable": 26, "numbikesavailable": 3, "mechanical": 2, "ebike": 1, "is_renting": "OUI", "is_returning": "OUI", "duedate": "2024-06-14T14:49:27+00:00", "coordonnees_geo": {"lon": 2.313154547426182, "lat": 48.83453413883994}, "nom_arrondissement_communes": "Paris", "code_insee_commune": null}, {"stationcode": "12125", "name": "Pyramide - Parc Floral", "is_installed": "OUI", "capacity": 50, "numdocksavailable": 12, "numbikesavailable": 38, "mechanical": 34, "ebike": 4, "is_renting": "OUI", "is_returning": "OUI", "duedate": "2024-06-14T14:50:03+00:00", "coordonnees_geo": {"lon": 2.440452, "lat": 48.837442}, "nom_arrondissement_communes": "Paris", "code_insee_commune": null}, {"stationcode": "12150", "name": "Bastille - Quai de la Rap\u00e9e", "is_installed": "OUI", "capacity": 27, "numdocksavailable": 1, "numbikesavailable": 24, "mechanical": 18, "ebike": 6, "is_renting": "OUI", "is_returning": "OUI", "duedate": "2024-06-14T14:50:12+00:00", "coordonnees_geo": {"lon": 2.3669364675879, "lat": 48.84682410855}, "nom_arrondissement_communes": "Paris", "code_insee_commune": null}]