[{"stationcode": "42501", "name": "Raspail - Albert Schweitzer", "is_installed": "OUI", "capacity": 28, "numdocksavailable": 2, "numbikesavailable": 25, "mechanical": 8, "ebike": 17, "is_renting": "OUI", "is_returning": "OUI", "duedate": "2024-06-15T01:50:50+00:00", "coordonnees_geo": {"lon": 2.34395871, "lat": 48.81031545}, "nom_arrondissement_communes": "Gentilly", "code_insee_commune": null}, {"stationcode": "13109", "name": "Brillat-Savarin - K\u00fcss", "is_installed": "OUI", "capacity": 21, "numdocksavailable": 5, "numbikesavailable": 16, "mechanical": 6, "ebike": 10, "is_renting": "OUI", "is_returning": "OUI", "duedate": "2024-06-15T01:50:45+00:00", "coordonnees_geo": {"lon": 2.350422, "lat": 48.822203}, "nom_arrondissement_communes": "Paris", "code_insee_commune": null}, {"stationcode": "43001", "name": "Paris - Laiti\u00e8res", "is_installed": "OUI", "capacity": 22, "numdocksavailable": 14, "numbikesavailable": 8, "mechanical": 3, "ebike": 5, "is_renting": "OUI", "is_returning": "OUI", "duedate": "2024-06-15T01:51:13+00:00", "coordonnees_geo": {"lon": 2.4207553267478947, "lat": 48.84630274151258}, "nom_arrondissement_communes": "Vincennes", "code_insee_commune": null}, {"stationcode": "13106", "name": "Bobillot - Paulin Mery", "is_installed": "OUI", "capacity": 23, "numdocksavailable": 22, "numbikesavailable": 1, "mechanical": 0, "ebike": 1, "is_renting": "OUI", "is_returning": "OUI", "duedate": "2024-06-15T01:50:21+00:00", "coordonnees_geo": {"lon": 2.3543356766748507, "lat": 48.829899841747384}, "nom_arrondissement_communes": "Paris", "code_insee_commune": null}, {"stationcode": "11021", "name": "Charonne - Pierre Bayle", "is_installed": "OUI", "capacity": 23, "numdocksavailable": 1, "numbikesavailable": 21, "mechanical": 7, "ebike": 14, "is_renting": "OUI", "is_returning": "OUI", "duedate": "2024-06-15T01:50:20+00:00", "coordonnees_geo": {"lon": 2.3903981223891, "lat": 48.858445054262}, "nom_arrondissement_communes": "Paris", "code_insee_commune": null}, {"stationcode": "21217", "name": "Louis Rolland - R\u00e9publique", "is_installed": "OUI", "capacity": 26, "numdocksavailable": 18, "numbikesavailable": 8, "mechanical": 4, "ebike": 4, "is_renting": "OUI", "is_returning": "OUI", "duedate": "2024-06-15T01:43:24+00:00", "coordonnees_geo": {"lon": 2.3193106434955717, "lat": 48.81710889740748}, "nom_arrondissement_communes": "Montrouge", "code_insee_commune": null}, {"stationcode": "16011", "name": "Victor Hugo - La Pompe", "is_installed": "OUI", "capacity": 41, "numdocksavailable": 40, "numbikesavailable": 1, "mechanical": 0, "ebike": 1, "is_renting": "OUI", "is_returning": "OUI", "duedate": "2024-06-15T01:49:26+00:00", "coordonnees_geo": {"lon": 2.28146318346262, "lat": 48.86795222470859}, "nom_arrondissement_communes": "Paris", "code_insee_commune": null}, {"stationcode": "35007", "name": "Benjamin Delessert - Jean Lolive", "is_installed": "OUI", "capacity": 21, "numdocksavailable": 15, "numbikesavailable": 6, "mechanical": 0, "ebike": 6, "is_renting": "OUI", "is_returning": "OUI", "duedate": "2024-06-15T01:48:40+00:00", "coordonnees_geo": {"lon": 2.417981922626496, "lat": 48.89392043619345}, "nom_arrondissement_communes": "Pantin", "code_insee_commune": null}, {"stationcode": "47001", "name": "Place de la Gare", "is_installed": "OUI", "capacity": 46, "numdocksavailable": 3, "numbikesavailable": 41, "mechanical": 32, "ebike": 9, "is_renting": "OUI", "is_returning": "OUI", "duedate": "2024-06-15T01:50:14+00:00", "coordonnees_geo": {"lon": 2.4275037646293645, "lat": 48.80253358011283}, "nom_arrondissement_communes": "Maisons-Alfort", "code_insee_commune": null}, {"stationcode": "13032", "name": "Italie - Jardin Joan Miro", "is_installed": "OUI", "capacity": 26, "numdocksavailable": 16, "numbikesavailable": 8, "mechanical": 3, "ebike": 5, "is_renting": "OUI", "is_returning": "OUI", "duedate": "2024-06-15T01:51:15+00:00", "coordonnees_geo": {"lon": 2.3592948541045193, "lat": 48.81990914045756}, "nom_arrondissement_communes": "Paris", "code_insee_commune": null}, {"stationcode": "10165", "name": "Gare de l'Est - Place du 11 Novembre 1918", "is_installed": "OUI", "capacity": 40, "numdocksavailable": 15, "numbikesavailable": 18, "mechanical": 16, "ebike": 2, "is_renting": "OUI", "is_returning": "OUI", "duedate": "2024-06-15T01:50:23+00:00", "coordonnees_geo": {"lon": 2.3585464, "lat": 48.876327}, "nom_arrondissement_communes": "Paris", "code_insee_commune": null}, {"stationcode": "22303", "name": "Lucien Lanternier - Le Luth", "is_installed": "OUI", "capacity": 27, "numdocksavailable": 6, "numbikesavailable": 21, "mechanical": 14, "ebike": 7, "is_renting": "OUI", "is_returning": "OUI", "duedate": "2024-06-15T01:45:32+00:00", "coordonnees_geo": {"lon": 2.2889783978462224, "lat": 48.93159430558871}, "nom_arrondissement_communes": "Gennevilliers", "code_insee_commune": null}, {"stationcode": "15057", "name": "Lucien Bossoutrot - G\u00e9n\u00e9ral Martial Vallin", "is_installed": "OUI", "capacity": 39, "numdocksavailable": 38, "numbikesavailable": 1, "mechanical": 1, "ebike": 0, "is_renting": "OUI", "is_returning": "OUI", "duedate": "2024-06-15T01:49:14+00:00", "coordonnees_geo": {"lon": 2.2741072252393, "lat": 48.836956046311}, "nom_arrondissement_communes": "Paris", "code_insee_commune": null}, {"stationcode": "15004", "name": "Vaugirard - Pasteur", "is_installed": "OUI", "capacity": 21, "numdocksavailable": 10, "numbikesavailable": 11, "mechanical": 9, "ebike": 2, "is_renting": "OUI", "is_returning": "OUI", "duedate": "2024-06-15T01:48:22+00:00", "coordonnees_geo": {"lon": 2.3154367133975033, "lat": 48.84040868803496}, "nom_arrondissement_communes": "Paris", "code_insee_commune": null}, {"stationcode": "18007", "name": "Goutte d'or - Barb\u00e8s", "is_installed": "OUI", "capacity": 20, "numdocksavailable": 9, "numbikesavailable": 9, "mechanical": 3, "ebike": 6, "is_renting": "OUI", "is_returning": "OUI", "duedate": "2024-06-15T01:48:47+00:00", "coordonnees_geo": {"lon": 2.3496962338686, "lat": 48.885124323627}, "nom_arrondissement_communes": "Paris", "code_insee_commune": null}, {"stationcode": "22408", "name": "Place du 14 Juillet", "is_installed": "OUI", "capacity": 22, "numdocksavailable": 20, "numbikesavailable": 1, "mechanical": 1, "ebike": 0, "is_renting": "OUI", "is_returning": "OUI", "duedate": "2024-06-15T01:47:55+00:00", "coordonnees_geo": {"lon": 2.30119988322258, "lat": 48.8192669595252}, "nom_arrondissement_communes": "Malakoff", "code_insee_commune": null}, {"stationcode": "21401", "name": "Mairie de Clamart", "is_installed": "OUI", "capacity": 33, "numdocksavailable": 19, "numbikesavailable": 12, "mechanical": 0, "ebike": 12, "is_renting": "OUI", "is_returning": "OUI", "duedate": "2024-06-15T01:50:30+00:00", "coordonnees_geo": {"lon": 2.262151, "lat": 48.800612}, "nom_arrondissement_communes": "Clamart", "code_insee_commune": null}, {"stationcode": "4020", "name": "Place Edmond Michelet", "is_installed": "OUI", "capacity": 23, "numdocksavailable": 20, "numbikesavailable": 3, "mechanical": 2, "ebike": 1, "is_renting": "OUI", "is_returning": "OUI", "duedate": "2024-06-15T01:49:36+00:00", "coordonnees_geo": {"lon": 2.3500636965036, "lat": 48.860134890542}, "nom_arrondissement_communes": "Paris", "code_insee_commune": null}, {"stationcode": "15022", "name": "Emile Zola - Fondary", "is_installed": "OUI", "capacity": 42, "numdocksavailable": 0, "numbikesavailable": 12, "mechanical": 9, "ebike": 3, "is_renting": "OUI", "is_returning": "OUI", "duedate": "2024-06-15T01:50:05+00:00", "coordonnees_geo": {"lon": 2.2953405976295476, "lat": 48.847051143113745}, "nom_arrondissement_communes": "Paris", "code_insee_commune": null}, {"stationcode": "23004", "name": "Paul Vaillant-Couturier - Victor Hugo", "is_installed": "OUI", "capacity": 36, "numdocksavailable": 19, "numbikesavailable": 15, "mechanical": 8, "ebike": 7, "is_renting": "OUI", "is_returning": "OUI", "duedate": "2024-06-15T01:51:10+00:00", "coordonnees_geo": {"lon": 2.293848017974069, "lat": 48.89819702263572}, "nom_arrondissement_communes": "Levallois-Perret", "code_insee_commune": null}, {"stationcode": "16001", "name": "Portugais - Kl\u00e9ber", "is_installed": "OUI", "capacity": 26, "numdocksavailable": 24, "numbikesavailable": 2, "mechanical": 1, "ebike": 1, "is_renting": "OUI", "is_returning": "OUI", "duedate": "2024-06-15T01:49:08+00:00", "coordonnees_geo": {"lon": 2.2937349, "lat": 48.8712148}, "nom_arrondissement_communes": "Paris", "code_insee_commune": null}, {"stationcode": "33015", "name": "Charles Tillon - Cimeti\u00e8re Communal", "is_installed": "OUI", "capacity": 30, "numdocksavailable": 5, "numbikesavailable": 23, "mechanical": 10, "ebike": 13, "is_renting": "OUI", "is_returning": "OUI", "duedate": "2024-06-15T01:46:11+00:00", "coordonnees_geo": {"lon": 2.3935630917549138, "lat": 48.91844023641836}, "nom_arrondissement_communes": "Aubervilliers", "code_insee_commune": null}, {"stationcode": "7017", "name": "La Motte-Picquet - La Tour Maubourg", "is_installed": "OUI", "capacity": 40, "numdocksavailable": 23, "numbikesavailable": 15, "mechanical": 13, "ebike": 2, "is_renting": "OUI", "is_returning": "OUI", "duedate": "2024-06-15T01:50:27+00:00", "coordonnees_geo": {"lon": 2.3096215831203, "lat": 48.856926701847}, "nom_arrondissement_communes": "Paris", "code_insee_commune": null}, {"stationcode": "15311", "name": "Quai du Pr\u00e9sident Roosevelt - Pont Aval", "is_installed": "OUI", "capacity": 30, "numdocksavailable": 13, "numbikesavailable": 17, "mechanical": 15, "ebike": 2, "is_renting": "OUI", "is_returning": "OUI", "duedate": "2024-06-15T01:50:45+00:00", "coordonnees_geo": {"lon": 2.2656820714473724, "lat": 48.8343883676388}, "nom_arrondissement_communes": "Paris", "code_insee_commune": null}, {"stationcode": "35006", "name": "Delizy - Louis Nadot", "is_installed": "OUI", "capacity": 22, "numdocksavailable": 18, "numbikesavailable": 3, "mechanical": 1, "ebike": 2, "is_renting": "OUI", "is_returning": "OUI", "duedate": "2024-06-15T01:50:43+00:00", "coordonnees_geo": {"lon": 2.4094578623771667, "lat": 48.896212845581346}, "nom_arrondissement_communes": "Pantin", "code_insee_commune": null}, {"stationcode": "12018", "name": "Saint-Mand\u00e9 - Fabre d'Eglantine", "is_installed": "OUI", "capacity": 34, "numdocksavailable": 22, "numbikesavailable": 12, "mechanical": 11, "ebike": 1, "is_renting": "OUI", "is_returning": "OUI", "duedate": "2024-06-15T01:48:58+00:00", "coordonnees_geo": {"lon": 2.3965022, "lat": 48.8453579}, "nom_arrondissement_communes": "Paris", "code_insee_commune": null}, {"stationcode": "44005", "name": "Place Saint-Just", "is_installed": "OUI", "capacity": 22, "numdocksavailable": 2, "numbikesavailable": 19, "mechanical": 6, "ebike": 13, "is_renting": "OUI", "is_returning": "OUI", "duedate": "2024-06-15T01:49:02+00:00", "coordonnees_geo": {"lon": 2.3895226791501045, "lat": 48.790379518724265}, "nom_arrondissement_communes": "Vitry-sur-Seine", "code_insee_commune": null}, {"stationcode": "17119", "name": "Toqueville - Cardinet", "is_installed": "OUI", "capacity": 33, "numdocksavailable": 22, "numbikesavailable": 10, "mechanical": 6, "ebike": 4, "is_renting": "OUI", "is_returning": "OUI", "duedate": "2024-06-15T01:47:33+00:00", "coordonnees_geo": {"lon": 2.3109393194317818, "lat": 48.88490187110713}, "nom_arrondissement_communes": "Paris", "code_insee_commune": null}, {"stationcode": "15011", "name": "Cambronne - Villa Croix Nivert", "is_installed": "OUI", "capacity": 62, "numdocksavailable": 48, "numbikesavailable": 14, "mechanical": 13, "ebike": 1, "is_renting": "OUI", "is_returning": "OUI", "duedate": "2024-06-15T01:49:47+00:00", "coordonnees_geo": {"lon": 2.3017574474216, "lat": 48.845847561366}, "nom_arrondissement_communes": "Paris", "code_insee_commune": null}, {"stationcode": "9004", "name": "G\u00e9rando - Rochechouart", "is_installed": "OUI", "capacity": 21, "numdocksavailable": 19, "numbikesavailable": 0, "mechanical": 0, "ebike": 0, "is_renting": "OUI", "is_returning": "OUI", "duedate": "2024-06-15T01:49:11+00:00", "coordonnees_geo": {"lon": 2.3464846238494, "lat": 48.88294340845}, "nom_arrondissement_communes": "Paris", "code_insee_commune": null}, {"stationcode": "51002", "name": "Placette Gr\u00e9goire Collas", "is_installed": "OUI", "capacity": 25, "numdocksavailable": 15, "numbikesavailable": 10, "mechanical": 5, "ebike": 5, "is_renting": "OUI", "is_returning": "OUI", "duedate": "2024-06-15T01:44:27+00:00", "coordonnees_geo": {"lon": 2.2487476095557213, "lat": 48.94342014002797}, "nom_arrondissement_communes": "Argenteuil", "code_insee_commune": null}, {"stationcode": "4021", "name": "Centre Georges Pompidou", "is_installed": "OUI", "capacity": 26, "numdocksavailable": 20, "numbikesavailable": 5, "mechanical": 1, "ebike": 4, "is_renting": "OUI", "is_returning": "OUI", "duedate": "2024-06-15T01:47:33+00:00", "coordonnees_geo": {"lon": 2.352581, "lat": 48.861419}, "nom_arrondissement_communes": "Paris", "code_insee_commune": null}, {"stationcode": "15102", "name": "Square Bela Bartok", "is_installed": "OUI", "capacity": 24, "numdocksavailable": 18, "numbikesavailable": 6, "mechanical": 5, "ebike": 1, "is_renting": "OUI", "is_returning": "OUI", "duedate": "2024-06-15T01:51:10+00:00", "coordonnees_geo": {"lon": 2.2846536710858345, "lat": 48.85120156830401}, "nom_arrondissement_communes": "Paris", "code_insee_commune": null}, {"stationcode": "33016", "name": "Fort d'Aubervilliers", "is_installed": "OUI", "capacity": 22, "numdocksavailable": 2, "numbikesavailable": 19, "mechanical": 9, "ebike": 10, "is_renting": "OUI", "is_returning": "OUI", "duedate": "2024-06-15T01:50:10+00:00", "coordonnees_geo": {"lon": 2.4035281687974925, "lat": 48.91502382370325}, "nom_arrondissement_communes": "Aubervilliers", "code_insee_commune": null}, {"stationcode": "12026", "name": "Place Ginette Hamelin", "is_installed": "OUI", "capacity": 51, "numdocksavailable": 3, "numbikesavailable": 48, "mechanical": 41, "ebike": 7, "is_renting": "OUI", "is_returning": "OUI", "duedate": "2024-06-15T01:51:00+00:00", "coordonnees_geo": {"lon": 2.382064, "lat": 48.837853}, "nom_arrondissement_communes": "Paris", "code_insee_commune": null}, {"stationcode": "6012", "name": "Saint-Germain - Ciseaux", "is_installed": "OUI", "capacity": 18, "numdocksavailable": 16, "numbikesavailable": 1, "mechanical": 0, "ebike": 1, "is_renting": "OUI", "is_returning": "OUI", "duedate": "2024-06-15T01:47:43+00:00", "coordonnees_geo": {"lon": 2.3344654618827, "lat": 48.853305277595}, "nom_arrondissement_communes": "Paris", "code_insee_commune": null}, {"stationcode": "13009", "name": "Auguste Blanqui - Corvisart", "is_installed": "OUI", "capacity": 26, "numdocksavailable": 17, "numbikesavailable": 9, "mechanical": 3, "ebike": 6, "is_renting": "OUI", "is_returning": "OUI", "duedate": "2024-06-15T01:48:22+00:00", "coordonnees_geo": {"lon": 2.3502726, "lat": 48.8300989}, "nom_arrondissement_communes": "Paris", "code_insee_commune": null}, {"stationcode": "27005", "name": "Gare du Stade", "is_installed": "OUI", "capacity": 20, "numdocksavailable": 7, "numbikesavailable": 12, "mechanical": 8, "ebike": 4, "is_renting": "OUI", "is_returning": "OUI", "duedate": "2024-06-15T01:49:22+00:00", "coordonnees_geo": {"lon": 2.2603778, "lat": 48.9312676}, "nom_arrondissement_communes": "Colombes", "code_insee_commune": null}, {"stationcode": "10162", "name": "Alexandre Parodi - Quai de Valmy", "is_installed": "OUI", "capacity": 24, "numdocksavailable": 14, "numbikesavailable": 8, "mechanical": 7, "ebike": 1, "is_renting": "OUI", "is_returning": "OUI", "duedate": "2024-06-15T01:50:55+00:00", "coordonnees_geo": {"lon": 2.3665961623192, "lat": 48.879359419425}, "nom_arrondissement_communes": "Paris", "code_insee_commune": null}, {"stationcode": "92006", "name": "Place Nelson Mandela", "is_installed": "OUI", "capacity": 30, "numdocksavailable": 28, "numbikesavailable": 1, "mechanical": 0, "ebike": 1, "is_renting": "OUI", "is_returning": "OUI", "duedate": "2024-06-15T01:43:47+00:00", "coordonnees_geo": {"lon": 2.2182820737361912, "lat": 48.897874318180556}, "nom_arrondissement_communes": "Nanterre", "code_insee_commune": null}, {"stationcode": "31005", "name": "Square Denise Buisson", "is_installed": "OUI", "capacity": 45, "numdocksavailable": 38, "numbikesavailable": 6, "mechanical": 2, "ebike": 4, "is_renting": "OUI", "is_returning": "OUI", "duedate": "2024-06-15T01:50:11+00:00", "coordonnees_geo": {"lon": 2.426436245441437, "lat": 48.8562322730982}, "nom_arrondissement_communes": "Montreuil", "code_insee_commune": null}, {"stationcode": "13516", "name": "Glaci\u00e8re - Soeur Catherine Marie", "is_installed": "OUI", "capacity": 40, "numdocksavailable": 21, "numbikesavailable": 19, "mechanical": 12, "ebike": 7, "is_renting": "OUI", "is_returning": "OUI", "duedate": "2024-06-15T01:49:29+00:00", "coordonnees_geo": {"lon": 2.343570403754711, "lat": 48.829522989420596}, "nom_arrondissement_communes": "Paris", "code_insee_commune": null}, {"stationcode": "12155", "name": "Rottembourg - G\u00e9n\u00e9ral Michel Bizot", "is_installed": "OUI", "capacity": 43, "numdocksavailable": 1, "numbikesavailable": 42, "mechanical": 36, "ebike": 6, "is_renting": "OUI", "is_returning": "OUI", "duedate": "2024-06-15T01:51:10+00:00", "coordonnees_geo": {"lon": 2.4044052511453633, "lat": 48.83787825992554}, "nom_arrondissement_communes": "Paris", "code_insee_commune": null}, {"stationcode": "12028", "name": "Vivaldi - Antoine-Julien H\u00e9nard", "is_installed": "OUI", "capacity": 27, "numdocksavailable": 0, "numbikesavailable": 27, "mechanical": 12, "ebike": 15, "is_renting": "OUI", "is_returning": "OUI", "duedate": "2024-06-15T01:51:17+00:00", "coordonnees_geo": {"lon": 2.389728979467376, "lat": 48.841923663276546}, "nom_arrondissement_communes": "Paris", "code_insee_commune": null}, {"stationcode": "9034", "name": "Godot de Mauroy - Madeleine", "is_installed": "OUI", "capacity": 22, "numdocksavailable": 19, "numbikesavailable": 1, "mechanical": 0, "ebike": 1, "is_renting": "OUI", "is_returning": "OUI", "duedate": "2024-06-15T01:46:38+00:00", "coordonnees_geo": {"lon": 2.326347, "lat": 48.869789}, "nom_arrondissement_communes": "Paris", "code_insee_commune": null}, {"stationcode": "12035", "name": "Madagascar - Meuniers", "is_installed": "OUI", "capacity": 33, "numdocksavailable": 0, "numbikesavailable": 32, "mechanical": 24, "ebike": 8, "is_renting": "OUI", "is_returning": "OUI", "duedate": "2024-06-15T01:48:11+00:00", "coordonnees_geo": {"lon": 2.3970650508999825, "lat": 48.83460464474706}, "nom_arrondissement_communes": "Paris", "code_insee_commune": null}, {"stationcode": "10021", "name": "March\u00e9 Saint-Quentin", "is_installed": "OUI", "capacity": 15, "numdocksavailable": 6, "numbikesavailable": 9, "mechanical": 5, "ebike": 4, "is_renting": "OUI", "is_returning": "OUI", "duedate": "2024-06-15T01:46:49+00:00", "coordonnees_geo": {"lon": 2.3545114456374, "lat": 48.877356057652}, "nom_arrondissement_communes": "Paris", "code_insee_commune": null}, {"stationcode": "44011", "name": "Lebrun - Colonel Fabien", "is_installed": "OUI", "capacity": 27, "numdocksavailable": 26, "numbikesavailable": 1, "mechanical": 0, "ebike": 1, "is_renting": "OUI", "is_returning": "OUI", "duedate": "2024-06-15T01:50:22+00:00", "coordonnees_geo": {"lon": 2.381317801773548, "lat": 48.78266870733145}, "nom_arrondissement_communes": "Vitry-sur-Seine", "code_insee_commune": null}, {"stationcode": "12101", "name": "Charenton - Prague", "is_installed": "OUI", "capacity": 26, "numdocksavailable": 6, "numbikesavailable": 20, "mechanical": 19, "ebike": 1, "is_renting": "OUI", "is_returning": "OUI", "duedate": "2024-06-15T01:48:07+00:00", "coordonnees_geo": {"lon": 2.3763584494312, "lat": 48.848175129981}, "nom_arrondissement_communes": "Paris", "code_insee_commune": null}, {"stationcode": "21707", "name": "Square Etienne Jarousse", "is_installed": "OUI", "capacity": 25, "numdocksavailable": 12, "numbikesavailable": 12, "mechanical": 2, "ebike": 10, "is_renting": "OUI", "is_returning": "OUI", "duedate": "2024-06-15T01:45:33+00:00", "coordonnees_geo": {"lon": 2.2925933450460434, "lat": 48.82485182597129}, "nom_arrondissement_communes": "Vanves", "code_insee_commune": null}, {"stationcode": "4019", "name": "Clo\u00eetre Saint-Merri - Renard", "is_installed": "OUI", "capacity": 32, "numdocksavailable": 23, "numbikesavailable": 8, "mechanical": 5, "ebike": 3, "is_renting": "OUI", "is_returning": "OUI", "duedate": "2024-06-15T01:45:57+00:00", "coordonnees_geo": {"lon": 2.3518279194832, "lat": 48.858835448898}, "nom_arrondissement_communes": "Paris", "code_insee_commune": null}, {"stationcode": "5001", "name": "Harpe - Saint-Germain", "is_installed": "OUI", "capacity": 45, "numdocksavailable": 22, "numbikesavailable": 22, "mechanical": 21, "ebike": 1, "is_renting": "OUI", "is_returning": "OUI", "duedate": "2024-06-15T01:47:07+00:00", "coordonnees_geo": {"lon": 2.3436703160405, "lat": 48.851518815017}, "nom_arrondissement_communes": "Paris", "code_insee_commune": null}, {"stationcode": "3102", "name": "Bourg l'Abb\u00e9 - Saint-Martin", "is_installed": "OUI", "capacity": 42, "numdocksavailable": 30, "numbikesavailable": 10, "mechanical": 9, "ebike": 1, "is_renting": "OUI", "is_returning": "OUI", "duedate": "2024-06-15T01:49:15+00:00", "coordonnees_geo": {"lon": 2.352406270802021, "lat": 48.86393331949257}, "nom_arrondissement_communes": "Paris", "code_insee_commune": null}, {"stationcode": "20015", "name": "Bagnolet - Orteaux", "is_installed": "OUI", "capacity": 36, "numdocksavailable": 30, "numbikesavailable": 5, "mechanical": 1, "ebike": 4, "is_renting": "OUI", "is_returning": "OUI", "duedate": "2024-06-15T01:48:21+00:00", "coordonnees_geo": {"lon": 2.3984125256538396, "lat": 48.85708641027236}, "nom_arrondissement_communes": "Paris", "code_insee_commune": null}, {"stationcode": "8027", "name": "Mairie du 8\u00e8me", "is_installed": "OUI", "capacity": 14, "numdocksavailable": 10, "numbikesavailable": 2, "mechanical": 1, "ebike": 1, "is_renting": "OUI", "is_returning": "OUI", "duedate": "2024-06-15T01:50:09+00:00", "coordonnees_geo": {"lon": 2.318264, "lat": 48.877932}, "nom_arrondissement_communes": "Paris", "code_insee_commune": null}, {"stationcode": "15039", "name": "Abb\u00e9 Groult - Convention", "is_installed": "OUI", "capacity": 12, "numdocksavailable": 0, "numbikesavailable": 15, "mechanical": 13, "ebike": 2, "is_renting": "OUI", "is_returning": "OUI", "duedate": "2024-06-15T01:50:26+00:00", "coordonnees_geo": {"lon": 2.302064039509349, "lat": 48.83596927866069}, "nom_arrondissement_communes": "Paris", "code_insee_commune": null}, {"stationcode": "2112", "name": "Biblioth\u00e8que Nationale - Richelieu", "is_installed": "OUI", "capacity": 17, "numdocksavailable": 16, "numbikesavailable": 1, "mechanical": 0, "ebike": 1, "is_renting": "OUI", "is_returning": "OUI", "duedate": "2024-06-15T01:51:18+00:00", "coordonnees_geo": {"lon": 2.3380893096328, "lat": 48.868288993515}, "nom_arrondissement_communes": "Paris", "code_insee_commune": null}, {"stationcode": "6022", "name": "March\u00e9 Saint-Germain", "is_installed": "OUI", "capacity": 21, "numdocksavailable": 18, "numbikesavailable": 1, "mechanical": 1, "ebike": 0, "is_renting": "OUI", "is_returning": "OUI", "duedate": "2024-06-15T01:48:14+00:00", "coordonnees_geo": {"lon": 2.335500307381153, "lat": 48.85165625855281}, "nom_arrondissement_communes": "Paris", "code_insee_commune": null}, {"stationcode": "15006", "name": "Cherche-Midi - H\u00f4pital Necker", "is_installed": "OUI", "capacity": 38, "numdocksavailable": 16, "numbikesavailable": 19, "mechanical": 12, "ebike": 7, "is_renting": "OUI", "is_returning": "OUI", "duedate": "2024-06-15T01:43:23+00:00", "coordonnees_geo": {"lon": 2.317914068698883, "lat": 48.84461063309956}, "nom_arrondissement_communes": "Paris", "code_insee_commune": null}, {"stationcode": "21402", "name": "Place Aim\u00e9 C\u00e9saire", "is_installed": "OUI", "capacity": 27, "numdocksavailable": 24, "numbikesavailable": 3, "mechanical": 0, "ebike": 3, "is_renting": "OUI", "is_returning": "OUI", "duedate": "2024-06-15T01:48:16+00:00", "coordonnees_geo": {"lon": 2.2429127991199493, "lat": 48.783194713067815}, "nom_arrondissement_communes": "Clamart", "code_insee_commune": null}, {"stationcode": "41403", "name": "Gare RER - Malleret-Joinville", "is_installed": "OUI", "capacity": 20, "numdocksavailable": 1, "numbikesavailable": 19, "mechanical": 13, "ebike": 6, "is_renting": "OUI", "is_returning": "OUI", "duedate": "2024-06-15T01:50:14+00:00", "coordonnees_geo": {"lon": 2.42531, "lat": 48.802936}, "nom_arrondissement_communes": "Alfortville", "code_insee_commune": null}, {"stationcode": "13018", "name": "Bruant - Vincent Auriol", "is_installed": "OUI", "capacity": 25, "numdocksavailable": 3, "numbikesavailable": 20, "mechanical": 16, "ebike": 4, "is_renting": "OUI", "is_returning": "OUI", "duedate": "2024-06-15T01:49:38+00:00", "coordonnees_geo": {"lon": 2.3668264996271, "lat": 48.834848452929}, "nom_arrondissement_communes": "Paris", "code_insee_commune": null}, {"stationcode": "23102", "name": "H\u00f4tel de Ville de S\u00e8vres", "is_installed": "OUI", "capacity": 32, "numdocksavailable": 21, "numbikesavailable": 10, "mechanical": 8, "ebike": 2, "is_renting": "OUI", "is_returning": "OUI", "duedate": "2024-06-15T01:49:02+00:00", "coordonnees_geo": {"lon": 2.2131047397851944, "lat": 48.824363561288756}, "nom_arrondissement_communes": "S\u00e8vres", "code_insee_commune": null}, {"stationcode": "21303", "name": "Jean Monnet - Iles", "is_installed": "OUI", "capacity": 32, "numdocksavailable": 0, "numbikesavailable": 31, "mechanical": 21, "ebike": 10, "is_renting": "OUI", "is_returning": "OUI", "duedate": "2024-06-15T01:50:44+00:00", "coordonnees_geo": {"lon": 2.2497073194874866, "lat": 48.823393984057304}, "nom_arrondissement_communes": "Issy-les-Moulineaux", "code_insee_commune": null}, {"stationcode": "33014", "name": "Parc Eli Lotar", "is_installed": "OUI", "capacity": 20, "numdocksavailable": 8, "numbikesavailable": 12, "mechanical": 3, "ebike": 9, "is_renting": "OUI", "is_returning": "OUI", "duedate": "2024-06-15T01:50:38+00:00", "coordonnees_geo": {"lon": 2.3727085813879967, "lat": 48.91844993053703}, "nom_arrondissement_communes": "Aubervilliers", "code_insee_commune": null}, {"stationcode": "9007", "name": "Condorcet - Turgot", "is_installed": "OUI", "capacity": 20, "numdocksavailable": 18, "numbikesavailable": 2, "mechanical": 0, "ebike": 2, "is_renting": "OUI", "is_returning": "OUI", "duedate": "2024-06-15T01:44:52+00:00", "coordonnees_geo": {"lon": 2.345232367515564, "lat": 48.87985155789093}, "nom_arrondissement_communes": "Paris", "code_insee_commune": null}, {"stationcode": "20105", "name": "Beno\u00eet Frachon - R\u00e9publique", "is_installed": "OUI", "capacity": 30, "numdocksavailable": 29, "numbikesavailable": 1, "mechanical": 1, "ebike": 0, "is_renting": "OUI", "is_returning": "OUI", "duedate": "2024-06-15T01:49:23+00:00", "coordonnees_geo": {"lon": 2.415605485439301, "lat": 48.85230729014318}, "nom_arrondissement_communes": "Paris", "code_insee_commune": null}, {"stationcode": "33103", "name": "Jean Jaur\u00e8s - Jules Jacquemin", "is_installed": "OUI", "capacity": 24, "numdocksavailable": 2, "numbikesavailable": 21, "mechanical": 3, "ebike": 18, "is_renting": "OUI", "is_returning": "OUI", "duedate": "2024-06-15T01:48:41+00:00", "coordonnees_geo": {"lon": 2.4082902455152104, "lat": 48.88433053604843}, "nom_arrondissement_communes": "Le Pr\u00e9-Saint-Gervais", "code_insee_commune": null}, {"stationcode": "14032", "name": "Mairie du 14\u00e8me", "is_installed": "OUI", "capacity": 32, "numdocksavailable": 11, "numbikesavailable": 21, "mechanical": 14, "ebike": 7, "is_renting": "OUI", "is_returning": "OUI", "duedate": "2024-06-15T01:51:17+00:00", "coordonnees_geo": {"lon": 2.3254923149943, "lat": 48.83254578123}, "nom_arrondissement_communes": "Paris", "code_insee_commune": null}, {"stationcode": "14011", "name": "Place des Droits de l'Enfant", "is_installed": "OUI", "capacity": 24, "numdocksavailable": 3, "numbikesavailable": 21, "mechanical": 10, "ebike": 11, "is_renting": "OUI", "is_returning": "OUI", "duedate": "2024-06-15T01:48:53+00:00", "coordonnees_geo": {"lon": 2.3319217, "lat": 48.8274804}, "nom_arrondissement_communes": "Paris", "code_insee_commune": null}, {"stationcode": "41401", "name": "Marne - Charles de Gaulle", "is_installed": "OUI", "capacity": 27, "numdocksavailable": 6, "numbikesavailable": 19, "mechanical": 10, "ebike": 9, "is_renting": "OUI", "is_returning": "OUI", "duedate": "2024-06-15T01:50:57+00:00", "coordonnees_geo": {"lon": 2.4121668934822087, "lat": 48.815071719544434}, "nom_arrondissement_communes": "Alfortville", "code_insee_commune": null}, {"stationcode": "6002", "name": "Saint-Beno\u00eet - Jacob", "is_installed": "OUI", "capacity": 23, "numdocksavailable": 14, "numbikesavailable": 9, "mechanical": 8, "ebike": 1, "is_renting": "OUI", "is_returning": "OUI", "duedate": "2024-06-15T01:49:46+00:00", "coordonnees_geo": {"lon": 2.3334722220897675, "lat": 48.85545136013941}, "nom_arrondissement_communes": "Paris", "code_insee_commune": null}, {"stationcode": "14031", "name": "Didot - Place de Moro-Giafferi", "is_installed": "OUI", "capacity": 22, "numdocksavailable": 2, "numbikesavailable": 20, "mechanical": 3, "ebike": 17, "is_renting": "OUI", "is_returning": "OUI", "duedate": "2024-06-15T01:45:20+00:00", "coordonnees_geo": {"lon": 2.3215, "lat": 48.8337}, "nom_arrondissement_communes": "Paris", "code_insee_commune": null}, {"stationcode": "20044", "name": "Davout - Volga", "is_installed": "OUI", "capacity": 28, "numdocksavailable": 22, "numbikesavailable": 5, "mechanical": 2, "ebike": 3, "is_renting": "OUI", "is_returning": "OUI", "duedate": "2024-06-15T01:49:44+00:00", "coordonnees_geo": {"lon": 2.410522909779111, "lat": 48.852919679957296}, "nom_arrondissement_communes": "Paris", "code_insee_commune": null}, {"stationcode": "16019", "name": "Porte de la Muette", "is_installed": "OUI", "capacity": 36, "numdocksavailable": 34, "numbikesavailable": 1, "mechanical": 0, "ebike": 1, "is_renting": "OUI", "is_returning": "OUI", "duedate": "2024-06-15T01:48:35+00:00", "coordonnees_geo": {"lon": 2.2687188170157406, "lat": 48.86302317841182}, "nom_arrondissement_communes": "Paris", "code_insee_commune": null}, {"stationcode": "2013", "name": "Favart - Italiens", "is_installed": "OUI", "capacity": 17, "numdocksavailable": 17, "numbikesavailable": 0, "mechanical": 0, "ebike": 0, "is_renting": "OUI", "is_returning": "OUI", "duedate": "2024-06-15T01:42:56+00:00", "coordonnees_geo": {"lon": 2.3382901058508, "lat": 48.871446353921}, "nom_arrondissement_communes": "Paris", "code_insee_commune": null}, {"stationcode": "11033", "name": "Br\u00e9guet - Sabin", "is_installed": "OUI", "capacity": 33, "numdocksavailable": 13, "numbikesavailable": 19, "mechanical": 16, "ebike": 3, "is_renting": "OUI", "is_returning": "OUI", "duedate": "2024-06-15T01:51:14+00:00", "coordonnees_geo": {"lon": 2.3706749462105, "lat": 48.856931678257}, "nom_arrondissement_communes": "Paris", "code_insee_commune": null}, {"stationcode": "12036", "name": "Reuilly - Place Felix Eboue", "is_installed": "OUI", "capacity": 42, "numdocksavailable": 0, "numbikesavailable": 42, "mechanical": 17, "ebike": 25, "is_renting": "OUI", "is_returning": "OUI", "duedate": "2024-06-15T01:49:52+00:00", "coordonnees_geo": {"lon": 2.394630398715453, "lat": 48.84030274499962}, "nom_arrondissement_communes": "Paris", "code_insee_commune": null}, {"stationcode": "16105", "name": "Crevaux - Bugeaud", "is_installed": "OUI", "capacity": 31, "numdocksavailable": 26, "numbikesavailable": 4, "mechanical": 1, "ebike": 3, "is_renting": "OUI", "is_returning": "OUI", "duedate": "2024-06-15T01:49:19+00:00", "coordonnees_geo": {"lon": 2.281149007691853, "lat": 48.870809428669546}, "nom_arrondissement_communes": "Paris", "code_insee_commune": null}, {"stationcode": "16012", "name": "Flandrin - Longchamp", "is_installed": "OUI", "capacity": 42, "numdocksavailable": 37, "numbikesavailable": 5, "mechanical": 4, "ebike": 1, "is_renting": "OUI", "is_returning": "OUI", "duedate": "2024-06-15T01:48:04+00:00", "coordonnees_geo": {"lon": 2.274354539176829, "lat": 48.86877849178477}, "nom_arrondissement_communes": "Paris", "code_insee_commune": null}, {"stationcode": "42505", "name": "Charles Fr\u00e9rot - Albert Guilpin", "is_installed": "OUI", "capacity": 30, "numdocksavailable": 1, "numbikesavailable": 29, "mechanical": 26, "ebike": 3, "is_renting": "OUI", "is_returning": "OUI", "duedate": "2024-06-15T01:50:58+00:00", "coordonnees_geo": {"lon": 2.3505029082298283, "lat": 48.8155839183714}, "nom_arrondissement_communes": "Gentilly", "code_insee_commune": null}, {"stationcode": "8117", "name": "Place de la Madeleine - Royale", "is_installed": "OUI", "capacity": 43, "numdocksavailable": 38, "numbikesavailable": 4, "mechanical": 2, "ebike": 2, "is_renting": "OUI", "is_returning": "OUI", "duedate": "2024-06-15T01:49:29+00:00", "coordonnees_geo": {"lon": 2.324421107769, "lat": 48.869228052648}, "nom_arrondissement_communes": "Paris", "code_insee_commune": null}, {"stationcode": "10032", "name": "Claude Vellefaux - H\u00f4pital Saint-Louis", "is_installed": "OUI", "capacity": 32, "numdocksavailable": 17, "numbikesavailable": 13, "mechanical": 5, "ebike": 8, "is_renting": "OUI", "is_returning": "OUI", "duedate": "2024-06-15T01:51:15+00:00", "coordonnees_geo": {"lon": 2.3700717069851, "lat": 48.872859139003}, "nom_arrondissement_communes": "Paris", "code_insee_commune": null}, {"stationcode": "12015", "name": "Place de la Nation - Picpus", "is_installed": "OUI", "capacity": 36, "numdocksavailable": 31, "numbikesavailable": 5, "mechanical": 1, "ebike": 4, "is_renting": "OUI", "is_returning": "OUI", "duedate": "2024-06-15T01:49:09+00:00", "coordonnees_geo": {"lon": 2.4001130461693, "lat": 48.846821681548}, "nom_arrondissement_communes": "Paris", "code_insee_commune": null}, {"stationcode": "48004", "name": "Maxime Gorki - Louis Aragon", "is_installed": "OUI", "capacity": 20, "numdocksavailable": 19, "numbikesavailable": 1, "mechanical": 0, "ebike": 1, "is_renting": "OUI", "is_returning": "OUI", "duedate": "2024-06-15T01:49:52+00:00", "coordonnees_geo": {"lon": 2.368387877941132, "lat": 48.78909814728443}, "nom_arrondissement_communes": "Villejuif", "code_insee_commune": null}, {"stationcode": "16042", "name": "Murat - Porte de Saint-Cloud", "is_installed": "OUI", "capacity": 38, "numdocksavailable": 3, "numbikesavailable": 34, "mechanical": 32, "ebike": 2, "is_renting": "OUI", "is_returning": "OUI", "duedate": "2024-06-15T01:49:32+00:00", "coordonnees_geo": {"lon": 2.2577651962637906, "lat": 48.83750862621299}, "nom_arrondissement_communes": "Paris", "code_insee_commune": null}, {"stationcode": "1006", "name": "Grande Truanderie - Saint-Denis", "is_installed": "OUI", "capacity": 33, "numdocksavailable": 31, "numbikesavailable": 1, "mechanical": 1, "ebike": 0, "is_renting": "OUI", "is_returning": "OUI", "duedate": "2024-06-15T01:48:35+00:00", "coordonnees_geo": {"lon": 2.3498075, "lat": 48.8626302}, "nom_arrondissement_communes": "Paris", "code_insee_commune": null}, {"stationcode": "15001", "name": "Gare Montparnasse - Arriv\u00e9e", "is_installed": "OUI", "capacity": 43, "numdocksavailable": 22, "numbikesavailable": 21, "mechanical": 18, "ebike": 3, "is_renting": "OUI", "is_returning": "OUI", "duedate": "2024-06-15T01:51:15+00:00", "coordonnees_geo": {"lon": 2.3225811123848, "lat": 48.843827994315}, "nom_arrondissement_communes": "Paris", "code_insee_commune": null}, {"stationcode": "19110", "name": "Square Claude Bernard", "is_installed": "OUI", "capacity": 30, "numdocksavailable": 26, "numbikesavailable": 3, "mechanical": 1, "ebike": 2, "is_renting": "OUI", "is_returning": "OUI", "duedate": "2024-06-15T01:50:31+00:00", "coordonnees_geo": {"lon": 2.375325746834278, "lat": 48.89876016219984}, "nom_arrondissement_communes": "Paris", "code_insee_commune": null}, {"stationcode": "18202", "name": "Diane Arbus", "is_installed": "OUI", "capacity": 38, "numdocksavailable": 26, "numbikesavailable": 12, "mechanical": 4, "ebike": 8, "is_renting": "OUI", "is_returning": "OUI", "duedate": "2024-06-15T01:47:21+00:00", "coordonnees_geo": {"lon": 2.3524022474885, "lat": 48.898800717199}, "nom_arrondissement_communes": "Paris", "code_insee_commune": null}, {"stationcode": "6010", "name": "Chevreuse - Montparnasse", "is_installed": "OUI", "capacity": 15, "numdocksavailable": 9, "numbikesavailable": 5, "mechanical": 5, "ebike": 0, "is_renting": "OUI", "is_returning": "OUI", "duedate": "2024-06-15T01:45:50+00:00", "coordonnees_geo": {"lon": 2.3315522167367, "lat": 48.841739161231}, "nom_arrondissement_communes": "Paris", "code_insee_commune": null}, {"stationcode": "5015", "name": "Ep\u00e9e de Bois - Mouffetard", "is_installed": "OUI", "capacity": 63, "numdocksavailable": 51, "numbikesavailable": 11, "mechanical": 8, "ebike": 3, "is_renting": "OUI", "is_returning": "OUI", "duedate": "2024-06-15T01:47:37+00:00", "coordonnees_geo": {"lon": 2.350066713988781, "lat": 48.841508690388835}, "nom_arrondissement_communes": "Paris", "code_insee_commune": null}, {"stationcode": "44014", "name": "Camille Risch - Paul Armangot", "is_installed": "OUI", "capacity": 25, "numdocksavailable": 21, "numbikesavailable": 4, "mechanical": 0, "ebike": 4, "is_renting": "OUI", "is_returning": "OUI", "duedate": "2024-06-15T01:44:57+00:00", "coordonnees_geo": {"lon": 2.373685, "lat": 48.774703}, "nom_arrondissement_communes": "Vitry-sur-Seine", "code_insee_commune": null}, {"stationcode": "16037", "name": "Molitor - Michel-Ange", "is_installed": "OUI", "capacity": 51, "numdocksavailable": 47, "numbikesavailable": 2, "mechanical": 1, "ebike": 1, "is_renting": "OUI", "is_returning": "OUI", "duedate": "2024-06-15T01:51:15+00:00", "coordonnees_geo": {"lon": 2.26211277356597, "lat": 48.845182081538034}, "nom_arrondissement_communes": "Paris", "code_insee_commune": null}, {"stationcode": "47003", "name": "Charentonneau - Maisons Alfort", "is_installed": "OUI", "capacity": 20, "numdocksavailable": 2, "numbikesavailable": 18, "mechanical": 15, "ebike": 3, "is_renting": "OUI", "is_returning": "OUI", "duedate": "2024-06-15T01:48:21+00:00", "coordonnees_geo": {"lon": 2.443288456496946, "lat": 48.809932980484355}, "nom_arrondissement_communes": "Maisons-Alfort", "code_insee_commune": null}, {"stationcode": "18004", "name": "Place des Abbesses", "is_installed": "OUI", "capacity": 12, "numdocksavailable": 11, "numbikesavailable": 1, "mechanical": 0, "ebike": 1, "is_renting": "OUI", "is_returning": "OUI", "duedate": "2024-06-15T01:46:46+00:00", "coordonnees_geo": {"lon": 2.3386867716908455, "lat": 48.884542726149725}, "nom_arrondissement_communes": "Paris", "code_insee_commune": null}, {"stationcode": "7012", "name": "Cit\u00e9 Vaneau", "is_installed": "OUI", "capacity": 26, "numdocksavailable": 8, "numbikesavailable": 18, "mechanical": 10, "ebike": 8, "is_renting": "OUI", "is_returning": "OUI", "duedate": "2024-06-15T01:50:37+00:00", "coordonnees_geo": {"lon": 2.319614924490452, "lat": 48.8542210666207}, "nom_arrondissement_communes": "Paris", "code_insee_commune": null}, {"stationcode": "20001", "name": "Place de la Nation - Charonne", "is_installed": "OUI", "capacity": 36, "numdocksavailable": 24, "numbikesavailable": 12, "mechanical": 11, "ebike": 1, "is_renting": "OUI", "is_returning": "OUI", "duedate": "2024-06-15T01:42:44+00:00", "coordonnees_geo": {"lon": 2.3997623859813, "lat": 48.848364667777}, "nom_arrondissement_communes": "Paris", "code_insee_commune": null}, {"stationcode": "20008", "name": "Pyr\u00e9n\u00e9es - Avron", "is_installed": "OUI", "capacity": 32, "numdocksavailable": 27, "numbikesavailable": 5, "mechanical": 2, "ebike": 3, "is_renting": "OUI", "is_returning": "OUI", "duedate": "2024-06-15T01:50:42+00:00", "coordonnees_geo": {"lon": 2.405871044529538, "lat": 48.853246898211985}, "nom_arrondissement_communes": "Paris", "code_insee_commune": null}, {"stationcode": "18034", "name": "Leibniz - Jean Dollfus", "is_installed": "OUI", "capacity": 32, "numdocksavailable": 24, "numbikesavailable": 7, "mechanical": 3, "ebike": 4, "is_renting": "OUI", "is_returning": "OUI", "duedate": "2024-06-15T01:49:39+00:00", "coordonnees_geo": {"lon": 2.333390423834684, "lat": 48.896328348515986}, "nom_arrondissement_communes": "Paris", "code_insee_commune": null}]