[{"stationcode": "26004", "name": "Gare RER les Gr\u00e9sillons", "is_installed": "OUI", "capacity": 22, "numdocksavailable": 17, "numbikesavailable": 2, "mechanical": 0, "ebike": 2, "is_renting": "OUI", "is_returning": "OUI", "duedate": "2024-06-14T14:45:43+00:00", "coordonnees_geo": {"lon": 2.31458459136273, "lat": 48.919898633572764}, "nom_arrondissement_communes": "Asni\u00e8res-sur-Seine", "code_insee_commune": null}, {"stationcode": "16042", "name": "Murat - Porte de Saint-Cloud", "is_installed": "OUI", "capacity": 38, "numdocksavailable": 18, "numbikesavailable": 20, "mechanical": 18, "ebike": 2, "is_renting": "OUI", "is_returning": "OUI", "duedate": "2024-06-14T14:49:49+00:00", "coordonnees_geo": {"lon": 2.2577651962637906, "lat": 48.83750862621299}, "nom_arrondissement_communes": "Paris", "code_insee_commune": null}, {"stationcode": "1006", "name": "Grande Truanderie - Saint-Denis", "is_installed": "OUI", "capacity": 33, "numdocksavailable": 3, "numbikesavailable": 29, "mechanical": 14, "ebike": 15, "is_renting": "OUI", "is_returning": "OUI", "duedate": "2024-06-14T14:48:53+00:00", "coordonnees_geo": {"lon": 2.3498075, "lat": 48.8626302}, "nom_arrondissement_communes": "Paris", "code_insee_commune": null}, {"stationcode": "19110", "name": "Square Claude Bernard", "is_installed": "OUI", "capacity": 30, "numdocksavailable": 10, "numbikesavailable": 19, "mechanical": 17, "ebike": 2, "is_renting": "OUI", "is_returning": "OUI", "duedate": "2024-06-14T14:50:07+00:00", "coordonnees_geo": {"lon": 2.375325746834278, "lat": 48.89876016219984}, "nom_arrondissement_communes": "Paris", "code_insee_commune": null}, {"stationcode": "11112", "name": "Jules Vall\u00e8s - Charonne", "is_installed": "OUI", "capacity": 23, "numdocksavailable": 17, "numbikesavailable": 4, "mechanical": 0, "ebike": 4, "is_renting": "OUI", "is_returning": "OUI", "duedate": "2024-06-14T14:49:00+00:00", "coordonnees_geo": {"lon": 2.384767457842827, "lat": 48.85428437993525}, "nom_arrondissement_communes": "Paris", "code_insee_commune": null}, {"stationcode": "17009", "name": "Paul Bodin - Clichy", "is_installed": "OUI", "capacity": 0, "numdocksavailable": 0, "numbikesavailable": 0, "mechanical": 0, "ebike": 0, "is_renting": "NON", "is_returning": "NON", "duedate": "2024-06-14T14:45:08+00:00", "coordonnees_geo": {"lon": 2.317142598331, "lat": 48.892396146189}, "nom_arrondissement_communes": "Paris", "code_insee_commune": null}, {"stationcode": "18202", "name": "Diane Arbus", "is_installed": "OUI", "capacity": 38, "numdocksavailable": 28, "numbikesavailable": 9, "mechanical": 2, "ebike": 7, "is_renting": "OUI", "is_returning": "OUI", "duedate": "2024-06-14T14:48:46+00:00", "coordonnees_geo": {"lon": 2.3524022474885, "lat": 48.898800717199}, "nom_arrondissement_communes": "Paris", "code_insee_commune": null}, {"stationcode": "3008", "name": "Perle - Vieille du Temple", "is_installed": "OUI", "capacity": 36, "numdocksavailable": 7, "numbikesavailable": 28, "mechanical": 20, "ebike": 8, "is_renting": "OUI", "is_returning": "OUI", "duedate": "2024-06-14T14:50:07+00:00", "coordonnees_geo": {"lon": 2.3611206, "lat": 48.8601346}, "nom_arrondissement_communes": "Paris", "code_insee_commune": null}, {"stationcode": "6010", "name": "Chevreuse - Montparnasse", "is_installed": "OUI", "capacity": 15, "numdocksavailable": 14, "numbikesavailable": 1, "mechanical": 0, "ebike": 1, "is_renting": "OUI", "is_returning": "OUI", "duedate": "2024-06-14T14:47:06+00:00", "coordonnees_geo": {"lon": 2.3315522167367, "lat": 48.841739161231}, "nom_arrondissement_communes": "Paris", "code_insee_commune": null}, {"stationcode": "5015", "name": "Ep\u00e9e de Bois - Mouffetard", "is_installed": "OUI", "capacity": 63, "numdocksavailable": 32, "numbikesavailable": 30, "mechanical": 15, "ebike": 15, "is_renting": "OUI", "is_returning": "OUI", "duedate": "2024-06-14T14:49:26+00:00", "coordonnees_geo": {"lon": 2.350066713988781, "lat": 48.841508690388835}, "nom_arrondissement_communes": "Paris", "code_insee_commune": null}, {"stationcode": "12037", "name": "Reuilly - Daumesnil", "is_installed": "OUI", "capacity": 36, "numdocksavailable": 33, "numbikesavailable": 3, "mechanical": 1, "ebike": 2, "is_renting": "OUI", "is_returning": "OUI", "duedate": "2024-06-14T14:43:50+00:00", "coordonnees_geo": {"lon": 2.3972516, "lat": 48.8395385}, "nom_arrondissement_communes": "Paris", "code_insee_commune": null}, {"stationcode": "16037", "name": "Molitor - Michel-Ange", "is_installed": "OUI", "capacity": 51, "numdocksavailable": 41, "numbikesavailable": 9, "mechanical": 7, "ebike": 2, "is_renting": "OUI", "is_returning": "OUI", "duedate": "2024-06-14T14:45:56+00:00", "coordonnees_geo": {"lon": 2.26211277356597, "lat": 48.845182081538034}, "nom_arrondissement_communes": "Paris", "code_insee_commune": null}, {"stationcode": "20034", "name": "Sorbier - M\u00e9nilmontant", "is_installed": "OUI", "capacity": 24, "numdocksavailable": 19, "numbikesavailable": 4, "mechanical": 0, "ebike": 4, "is_renting": "OUI", "is_returning": "OUI", "duedate": "2024-06-14T14:49:59+00:00", "coordonnees_geo": {"lon": 2.3897721245884895, "lat": 48.86854239566069}, "nom_arrondissement_communes": "Paris", "code_insee_commune": null}, {"stationcode": "7012", "name": "Cit\u00e9 Vaneau", "is_installed": "OUI", "capacity": 26, "numdocksavailable": 8, "numbikesavailable": 18, "mechanical": 13, "ebike": 5, "is_renting": "OUI", "is_returning": "OUI", "duedate": "2024-06-14T14:49:38+00:00", "coordonnees_geo": {"lon": 2.319614924490452, "lat": 48.8542210666207}, "nom_arrondissement_communes": "Paris", "code_insee_commune": null}, {"stationcode": "20001", "name": "Place de la Nation - Charonne", "is_installed": "OUI", "capacity": 36, "numdocksavailable": 22, "numbikesavailable": 14, "mechanical": 7, "ebike": 7, "is_renting": "OUI", "is_returning": "OUI", "duedate": "2024-06-14T14:49:56+00:00", "coordonnees_geo": {"lon": 2.3997623859813, "lat": 48.848364667777}, "nom_arrondissement_communes": "Paris", "code_insee_commune": null}, {"stationcode": "18034", "name": "Leibniz - Jean Dollfus", "is_installed": "OUI", "capacity": 32, "numdocksavailable": 31, "numbikesavailable": 1, "mechanical": 0, "ebike": 1, "is_renting": "OUI", "is_returning": "OUI", "duedate": "2024-06-14T14:46:51+00:00", "coordonnees_geo": {"lon": 2.333390423834684, "lat": 48.896328348515986}, "nom_arrondissement_communes": "Paris", "code_insee_commune": null}, {"stationcode": "12019", "name": "Gare de Reuilly - Picpus", "is_installed": "OUI", "capacity": 28, "numdocksavailable": 22, "numbikesavailable": 6, "mechanical": 1, "ebike": 5, "is_renting": "OUI", "is_returning": "OUI", "duedate": "2024-06-14T14:48:26+00:00", "coordonnees_geo": {"lon": 2.3972943797707558, "lat": 48.84267354116789}, "nom_arrondissement_communes": "Paris", "code_insee_commune": null}, {"stationcode": "3010", "name": "Beaubourg - Michel-le-Comte", "is_installed": "OUI", "capacity": 17, "numdocksavailable": 3, "numbikesavailable": 14, "mechanical": 8, "ebike": 6, "is_renting": "OUI", "is_returning": "OUI", "duedate": "2024-06-14T14:48:06+00:00", "coordonnees_geo": {"lon": 2.3543103039265, "lat": 48.862534941806}, "nom_arrondissement_communes": "Paris", "code_insee_commune": null}, {"stationcode": "12156", "name": "Niger - Soult", "is_installed": "OUI", "capacity": 24, "numdocksavailable": 19, "numbikesavailable": 5, "mechanical": 2, "ebike": 3, "is_renting": "OUI", "is_returning": "OUI", "duedate": "2024-06-14T14:42:07+00:00", "coordonnees_geo": {"lon": 2.410361237220498, "lat": 48.84369906369085}, "nom_arrondissement_communes": "Paris", "code_insee_commune": null}, {"stationcode": "18140", "name": "Porte de Clignancourt - Ney", "is_installed": "OUI", "capacity": 40, "numdocksavailable": 32, "numbikesavailable": 7, "mechanical": 4, "ebike": 3, "is_renting": "OUI", "is_returning": "OUI", "duedate": "2024-06-14T14:48:50+00:00", "coordonnees_geo": {"lon": 2.344321422278881, "lat": 48.899641123987095}, "nom_arrondissement_communes": "Paris", "code_insee_commune": null}, {"stationcode": "10034", "name": "Louis Blanc - La Chapelle", "is_installed": "OUI", "capacity": 21, "numdocksavailable": 18, "numbikesavailable": 2, "mechanical": 0, "ebike": 2, "is_renting": "OUI", "is_returning": "OUI", "duedate": "2024-06-14T14:48:31+00:00", "coordonnees_geo": {"lon": 2.3599335551262, "lat": 48.884008964514}, "nom_arrondissement_communes": "Paris", "code_insee_commune": null}, {"stationcode": "4108", "name": "Quai de B\u00e9thune - Pont de la Tournelle", "is_installed": "OUI", "capacity": 25, "numdocksavailable": 14, "numbikesavailable": 11, "mechanical": 9, "ebike": 2, "is_renting": "OUI", "is_returning": "OUI", "duedate": "2024-06-14T14:49:55+00:00", "coordonnees_geo": {"lon": 2.356307208538055, "lat": 48.85097433194032}, "nom_arrondissement_communes": "Paris", "code_insee_commune": null}, {"stationcode": "19002", "name": "Centquatre", "is_installed": "OUI", "capacity": 42, "numdocksavailable": 39, "numbikesavailable": 3, "mechanical": 2, "ebike": 1, "is_renting": "OUI", "is_returning": "OUI", "duedate": "2024-06-14T14:46:30+00:00", "coordonnees_geo": {"lon": 2.3707854375243187, "lat": 48.88933353845543}, "nom_arrondissement_communes": "Paris", "code_insee_commune": null}, {"stationcode": "9009", "name": "Square Montholon", "is_installed": "OUI", "capacity": 21, "numdocksavailable": 12, "numbikesavailable": 8, "mechanical": 2, "ebike": 6, "is_renting": "OUI", "is_returning": "OUI", "duedate": "2024-06-14T14:48:46+00:00", "coordonnees_geo": {"lon": 2.3457641154527664, "lat": 48.876620377545024}, "nom_arrondissement_communes": "Paris", "code_insee_commune": null}, {"stationcode": "17019", "name": "Phalsbourg - Villiers", "is_installed": "OUI", "capacity": 20, "numdocksavailable": 17, "numbikesavailable": 2, "mechanical": 1, "ebike": 1, "is_renting": "OUI", "is_returning": "OUI", "duedate": "2024-06-14T14:49:42+00:00", "coordonnees_geo": {"lon": 2.3090453445911407, "lat": 48.88242307900951}, "nom_arrondissement_communes": "Paris", "code_insee_commune": null}, {"stationcode": "19201", "name": "Petit - Georges Thill", "is_installed": "OUI", "capacity": 23, "numdocksavailable": 17, "numbikesavailable": 6, "mechanical": 4, "ebike": 2, "is_renting": "OUI", "is_returning": "OUI", "duedate": "2024-06-14T14:49:35+00:00", "coordonnees_geo": {"lon": 2.3895753175020222, "lat": 48.88603131999171}, "nom_arrondissement_communes": "Paris", "code_insee_commune": null}, {"stationcode": "10009", "name": "Mairie du 10\u00e8me", "is_installed": "OUI", "capacity": 19, "numdocksavailable": 6, "numbikesavailable": 11, "mechanical": 7, "ebike": 4, "is_renting": "OUI", "is_returning": "OUI", "duedate": "2024-06-14T14:48:53+00:00", "coordonnees_geo": {"lon": 2.3575825989246, "lat": 48.872089449907}, "nom_arrondissement_communes": "Paris", "code_insee_commune": null}, {"stationcode": "22301", "name": "Chausson - Gabriel P\u00e9ri", "is_installed": "OUI", "capacity": 22, "numdocksavailable": 16, "numbikesavailable": 5, "mechanical": 2, "ebike": 3, "is_renting": "OUI", "is_returning": "OUI", "duedate": "2024-06-14T14:47:44+00:00", "coordonnees_geo": {"lon": 2.2952306270599365, "lat": 48.921891003481115}, "nom_arrondissement_communes": "Gennevilliers", "code_insee_commune": null}, {"stationcode": "15132", "name": "Bargue -  Dutot", "is_installed": "OUI", "capacity": 21, "numdocksavailable": 17, "numbikesavailable": 3, "mechanical": 1, "ebike": 2, "is_renting": "OUI", "is_returning": "OUI", "duedate": "2024-06-14T14:49:20+00:00", "coordonnees_geo": {"lon": 2.308876, "lat": 48.837884}, "nom_arrondissement_communes": "Paris", "code_insee_commune": null}, {"stationcode": "20006", "name": "Pyr\u00e9n\u00e9es - Plaine", "is_installed": "OUI", "capacity": 12, "numdocksavailable": 9, "numbikesavailable": 3, "mechanical": 1, "ebike": 2, "is_renting": "OUI", "is_returning": "OUI", "duedate": "2024-06-14T14:43:24+00:00", "coordonnees_geo": {"lon": 2.4062821269035, "lat": 48.85026702458}, "nom_arrondissement_communes": "Paris", "code_insee_commune": null}, {"stationcode": "21026", "name": "S\u00e8vres - G\u00e9n\u00e9ral Leclerc", "is_installed": "OUI", "capacity": 30, "numdocksavailable": 26, "numbikesavailable": 4, "mechanical": 3, "ebike": 1, "is_renting": "OUI", "is_returning": "OUI", "duedate": "2024-06-14T14:44:01+00:00", "coordonnees_geo": {"lon": 2.231426239013672, "lat": 48.83012155905476}, "nom_arrondissement_communes": "Boulogne-Billancourt", "code_insee_commune": null}, {"stationcode": "32013", "name": "Saint-Denis - Universit\u00e9", "is_installed": "OUI", "capacity": 24, "numdocksavailable": 9, "numbikesavailable": 14, "mechanical": 2, "ebike": 12, "is_renting": "OUI", "is_returning": "OUI", "duedate": "2024-06-14T14:49:27+00:00", "coordonnees_geo": {"lon": 2.3638297989964485, "lat": 48.94563430946964}, "nom_arrondissement_communes": "Saint-Denis", "code_insee_commune": null}, {"stationcode": "2015", "name": "Louis le Grand - Italiens", "is_installed": "OUI", "capacity": 33, "numdocksavailable": 3, "numbikesavailable": 30, "mechanical": 15, "ebike": 15, "is_renting": "OUI", "is_returning": "OUI", "duedate": "2024-06-14T14:49:55+00:00", "coordonnees_geo": {"lon": 2.3340544619393, "lat": 48.870508937204}, "nom_arrondissement_communes": "Paris", "code_insee_commune": null}, {"stationcode": "14137", "name": "Maurice d'Ocagne - General Maudhuy", "is_installed": "OUI", "capacity": 30, "numdocksavailable": 23, "numbikesavailable": 7, "mechanical": 6, "ebike": 1, "is_renting": "OUI", "is_returning": "OUI", "duedate": "2024-06-14T14:47:01+00:00", "coordonnees_geo": {"lon": 2.3158789426088333, "lat": 48.82414282524159}, "nom_arrondissement_communes": "Paris", "code_insee_commune": null}, {"stationcode": "14019", "name": "Sarrette - G\u00e9n\u00e9ral Leclerc", "is_installed": "OUI", "capacity": 22, "numdocksavailable": 15, "numbikesavailable": 7, "mechanical": 3, "ebike": 4, "is_renting": "OUI", "is_returning": "OUI", "duedate": "2024-06-14T14:49:46+00:00", "coordonnees_geo": {"lon": 2.3264128693982, "lat": 48.825030852925}, "nom_arrondissement_communes": "Paris", "code_insee_commune": null}, {"stationcode": "31709", "name": "Place de la Fraternit\u00e9", "is_installed": "OUI", "capacity": 22, "numdocksavailable": 15, "numbikesavailable": 5, "mechanical": 2, "ebike": 3, "is_renting": "OUI", "is_returning": "OUI", "duedate": "2024-06-14T14:47:20+00:00", "coordonnees_geo": {"lon": 2.422847449779511, "lat": 48.85716405838368}, "nom_arrondissement_communes": "Montreuil", "code_insee_commune": null}, {"stationcode": "9037", "name": "Parme - Clichy", "is_installed": "OUI", "capacity": 24, "numdocksavailable": 24, "numbikesavailable": 0, "mechanical": 0, "ebike": 0, "is_renting": "NON", "is_returning": "NON", "duedate": "2023-10-01T22:05:20+00:00", "coordonnees_geo": {"lon": 2.3281970934506, "lat": 48.881266424227}, "nom_arrondissement_communes": "Paris", "code_insee_commune": null}, {"stationcode": "10027", "name": "Dunkerque - Alsace", "is_installed": "OUI", "capacity": 20, "numdocksavailable": 15, "numbikesavailable": 3, "mechanical": 0, "ebike": 3, "is_renting": "OUI", "is_returning": "OUI", "duedate": "2024-06-14T14:43:59+00:00", "coordonnees_geo": {"lon": 2.358379, "lat": 48.879355}, "nom_arrondissement_communes": "Paris", "code_insee_commune": null}, {"stationcode": "22401", "name": "Charles de Gaulle - Plateau de Vanves", "is_installed": "OUI", "capacity": 33, "numdocksavailable": 32, "numbikesavailable": 1, "mechanical": 1, "ebike": 0, "is_renting": "OUI", "is_returning": "OUI", "duedate": "2024-06-14T14:41:22+00:00", "coordonnees_geo": {"lon": 2.298571803412886, "lat": 48.82233088973263}, "nom_arrondissement_communes": "Malakoff", "code_insee_commune": null}, {"stationcode": "12002", "name": "Lacu\u00e9e - Lyon", "is_installed": "OUI", "capacity": 16, "numdocksavailable": 0, "numbikesavailable": 13, "mechanical": 7, "ebike": 6, "is_renting": "OUI", "is_returning": "OUI", "duedate": "2024-06-14T14:47:38+00:00", "coordonnees_geo": {"lon": 2.3704585433006, "lat": 48.849268481958}, "nom_arrondissement_communes": "Paris", "code_insee_commune": null}, {"stationcode": "19129", "name": "Solitaires - Place des F\u00eates", "is_installed": "OUI", "capacity": 29, "numdocksavailable": 27, "numbikesavailable": 1, "mechanical": 0, "ebike": 1, "is_renting": "OUI", "is_returning": "OUI", "duedate": "2024-06-14T14:49:53+00:00", "coordonnees_geo": {"lon": 2.391769, "lat": 48.876601}, "nom_arrondissement_communes": "Paris", "code_insee_commune": null}, {"stationcode": "14103", "name": "Maine - Liancourt", "is_installed": "OUI", "capacity": 27, "numdocksavailable": 19, "numbikesavailable": 8, "mechanical": 3, "ebike": 5, "is_renting": "OUI", "is_returning": "OUI", "duedate": "2024-06-14T14:50:02+00:00", "coordonnees_geo": {"lon": 2.323731449974, "lat": 48.835064363954}, "nom_arrondissement_communes": "Paris", "code_insee_commune": null}, {"stationcode": "3001", "name": "Beaumarchais - Saint-Gilles", "is_installed": "OUI", "capacity": 51, "numdocksavailable": 5, "numbikesavailable": 45, "mechanical": 36, "ebike": 9, "is_renting": "OUI", "is_returning": "OUI", "duedate": "2024-06-14T14:48:10+00:00", "coordonnees_geo": {"lon": 2.3679352, "lat": 48.8580378}, "nom_arrondissement_communes": "Paris", "code_insee_commune": null}, {"stationcode": "10011", "name": "Bourse du Travail", "is_installed": "OUI", "capacity": 17, "numdocksavailable": 10, "numbikesavailable": 5, "mechanical": 4, "ebike": 1, "is_renting": "OUI", "is_returning": "OUI", "duedate": "2024-06-14T14:49:12+00:00", "coordonnees_geo": {"lon": 2.3623438552022, "lat": 48.868976638826}, "nom_arrondissement_communes": "Paris", "code_insee_commune": null}, {"stationcode": "22503", "name": "Joffre - Aigle", "is_installed": "OUI", "capacity": 20, "numdocksavailable": 13, "numbikesavailable": 6, "mechanical": 5, "ebike": 1, "is_renting": "OUI", "is_returning": "OUI", "duedate": "2024-06-14T14:43:51+00:00", "coordonnees_geo": {"lon": 2.245096, "lat": 48.904033}, "nom_arrondissement_communes": "La Garenne-Colombes", "code_insee_commune": null}, {"stationcode": "21110", "name": "Parc Roger Salengro", "is_installed": "OUI", "capacity": 35, "numdocksavailable": 1, "numbikesavailable": 33, "mechanical": 30, "ebike": 3, "is_renting": "OUI", "is_returning": "OUI", "duedate": "2024-06-14T14:49:33+00:00", "coordonnees_geo": {"lon": 2.31055945158, "lat": 48.905303858642}, "nom_arrondissement_communes": "Clichy", "code_insee_commune": null}, {"stationcode": "13017", "name": "Nationale - Vincent Auriol", "is_installed": "OUI", "capacity": 33, "numdocksavailable": 24, "numbikesavailable": 7, "mechanical": 6, "ebike": 1, "is_renting": "OUI", "is_returning": "OUI", "duedate": "2024-06-14T14:50:09+00:00", "coordonnees_geo": {"lon": 2.362354410392119, "lat": 48.83252708397293}, "nom_arrondissement_communes": "Paris", "code_insee_commune": null}, {"stationcode": "12020", "name": "Cours de Vincennes - Soult", "is_installed": "OUI", "capacity": 45, "numdocksavailable": 40, "numbikesavailable": 5, "mechanical": 4, "ebike": 1, "is_renting": "OUI", "is_returning": "OUI", "duedate": "2024-06-14T14:45:59+00:00", "coordonnees_geo": {"lon": 2.4105220288038, "lat": 48.846918761569}, "nom_arrondissement_communes": "Paris", "code_insee_commune": null}, {"stationcode": "2021", "name": "Cl\u00e9ry - Montmartre", "is_installed": "OUI", "capacity": 44, "numdocksavailable": 31, "numbikesavailable": 13, "mechanical": 8, "ebike": 5, "is_renting": "OUI", "is_returning": "OUI", "duedate": "2024-06-14T14:49:09+00:00", "coordonnees_geo": {"lon": 2.3445211, "lat": 48.867458}, "nom_arrondissement_communes": "Paris", "code_insee_commune": null}, {"stationcode": "3009", "name": "Temple - Haudriettes", "is_installed": "OUI", "capacity": 19, "numdocksavailable": 2, "numbikesavailable": 17, "mechanical": 11, "ebike": 6, "is_renting": "OUI", "is_returning": "OUI", "duedate": "2024-06-14T14:50:00+00:00", "coordonnees_geo": {"lon": 2.3566960206458, "lat": 48.861636880212}, "nom_arrondissement_communes": "Paris", "code_insee_commune": null}, {"stationcode": "26005", "name": "H\u00f4tel de Ville d'Asni\u00e8res sur Seine", "is_installed": "OUI", "capacity": 30, "numdocksavailable": 25, "numbikesavailable": 5, "mechanical": 0, "ebike": 5, "is_renting": "OUI", "is_returning": "OUI", "duedate": "2024-06-14T14:48:34+00:00", "coordonnees_geo": {"lon": 2.288238108158112, "lat": 48.90999330025577}, "nom_arrondissement_communes": "Asni\u00e8res-sur-Seine", "code_insee_commune": null}, {"stationcode": "2005", "name": "Montmartre - Etienne Marcel", "is_installed": "OUI", "capacity": 16, "numdocksavailable": 6, "numbikesavailable": 9, "mechanical": 4, "ebike": 5, "is_renting": "OUI", "is_returning": "OUI", "duedate": "2024-06-14T14:46:42+00:00", "coordonnees_geo": {"lon": 2.3450684401448, "lat": 48.86502194581}, "nom_arrondissement_communes": "Paris", "code_insee_commune": null}, {"stationcode": "3001", "name": "Beaumarchais - Saint-Gilles", "is_installed": "OUI", "capacity": 51, "numdocksavailable": 11, "numbikesavailable": 39, "mechanical": 34, "ebike": 5, "is_renting": "OUI", "is_returning": "OUI", "duedate": "2024-06-14T13:48:37+00:00", "coordonnees_geo": {"lon": 2.3679352, "lat": 48.8580378}, "nom_arrondissement_communes": "Paris", "code_insee_commune": null}, {"stationcode": "10011", "name": "Bourse du Travail", "is_installed": "OUI", "capacity": 17, "numdocksavailable": 6, "numbikesavailable": 9, "mechanical": 6, "ebike": 3, "is_renting": "OUI", "is_returning": "OUI", "duedate": "2024-06-14T13:48:58+00:00", "coordonnees_geo": {"lon": 2.3623438552022, "lat": 48.868976638826}, "nom_arrondissement_communes": "Paris", "code_insee_commune": null}, {"stationcode": "20029", "name": "Fr\u00e8res Flavien - Porte des Lilas", "is_installed": "OUI", "capacity": 23, "numdocksavailable": 22, "numbikesavailable": 1, "mechanical": 0, "ebike": 1, "is_renting": "OUI", "is_returning": "OUI", "duedate": "2024-06-14T13:40:38+00:00", "coordonnees_geo": {"lon": 2.41104629853209, "lat": 48.8780992764359}, "nom_arrondissement_communes": "Paris", "code_insee_commune": null}, {"stationcode": "2003", "name": "Saint-Denis - R\u00e9aumur", "is_installed": "OUI", "capacity": 32, "numdocksavailable": 25, "numbikesavailable": 5, "mechanical": 3, "ebike": 2, "is_renting": "OUI", "is_returning": "OUI", "duedate": "2024-06-14T13:44:50+00:00", "coordonnees_geo": {"lon": 2.3507790675507594, "lat": 48.8661116315789}, "nom_arrondissement_communes": "Paris", "code_insee_commune": null}, {"stationcode": "13017", "name": "Nationale - Vincent Auriol", "is_installed": "OUI", "capacity": 33, "numdocksavailable": 28, "numbikesavailable": 4, "mechanical": 2, "ebike": 2, "is_renting": "OUI", "is_returning": "OUI", "duedate": "2024-06-14T13:49:50+00:00", "coordonnees_geo": {"lon": 2.362354410392119, "lat": 48.83252708397293}, "nom_arrondissement_communes": "Paris", "code_insee_commune": null}, {"stationcode": "12020", "name": "Cours de Vincennes - Soult", "is_installed": "OUI", "capacity": 45, "numdocksavailable": 45, "numbikesavailable": 0, "mechanical": 0, "ebike": 0, "is_renting": "OUI", "is_returning": "OUI", "duedate": "2024-06-14T13:46:16+00:00", "coordonnees_geo": {"lon": 2.4105220288038, "lat": 48.846918761569}, "nom_arrondissement_communes": "Paris", "code_insee_commune": null}, {"stationcode": "2021", "name": "Cl\u00e9ry - Montmartre", "is_installed": "OUI", "capacity": 44, "numdocksavailable": 29, "numbikesavailable": 15, "mechanical": 8, "ebike": 7, "is_renting": "OUI", "is_returning": "OUI", "duedate": "2024-06-14T13:50:03+00:00", "coordonnees_geo": {"lon": 2.3445211, "lat": 48.867458}, "nom_arrondissement_communes": "Paris", "code_insee_commune": null}, {"stationcode": "24006", "name": "Adolphe Lalyre - Armand Silvestre", "is_installed": "OUI", "capacity": 40, "numdocksavailable": 32, "numbikesavailable": 6, "mechanical": 1, "ebike": 5, "is_renting": "OUI", "is_returning": "OUI", "duedate": "2024-06-14T13:47:56+00:00", "coordonnees_geo": {"lon": 2.273416221141815, "lat": 48.90406266961591}, "nom_arrondissement_communes": "Courbevoie", "code_insee_commune": null}, {"stationcode": "14132", "name": "B\u00e9zout - G\u00e9n\u00e9ral Leclerc", "is_installed": "OUI", "capacity": 30, "numdocksavailable": 23, "numbikesavailable": 6, "mechanical": 1, "ebike": 5, "is_renting": "OUI", "is_returning": "OUI", "duedate": "2024-06-14T13:47:56+00:00", "coordonnees_geo": {"lon": 2.3285973072052, "lat": 48.82884804502439}, "nom_arrondissement_communes": "Paris", "code_insee_commune": null}, {"stationcode": "4014", "name": "Blancs-Manteaux - Archives", "is_installed": "OUI", "capacity": 29, "numdocksavailable": 2, "numbikesavailable": 25, "mechanical": 20, "ebike": 5, "is_renting": "OUI", "is_returning": "OUI", "duedate": "2024-06-14T13:45:18+00:00", "coordonnees_geo": {"lon": 2.3559471219778, "lat": 48.85941800703}, "nom_arrondissement_communes": "Paris", "code_insee_commune": null}, {"stationcode": "2005", "name": "Montmartre - Etienne Marcel", "is_installed": "OUI", "capacity": 16, "numdocksavailable": 5, "numbikesavailable": 11, "mechanical": 2, "ebike": 9, "is_renting": "OUI", "is_returning": "OUI", "duedate": "2024-06-14T13:46:21+00:00", "coordonnees_geo": {"lon": 2.3450684401448, "lat": 48.86502194581}, "nom_arrondissement_communes": "Paris", "code_insee_commune": null}, {"stationcode": "13125", "name": "Gare d'Austerlitz - Pont Charles de Gaulle", "is_installed": "OUI", "capacity": 55, "numdocksavailable": 1, "numbikesavailable": 52, "mechanical": 39, "ebike": 13, "is_renting": "OUI", "is_returning": "OUI", "duedate": "2024-06-14T13:49:33+00:00", "coordonnees_geo": {"lon": 2.3670300096273422, "lat": 48.842319830109304}, "nom_arrondissement_communes": "Paris", "code_insee_commune": null}, {"stationcode": "14022", "name": "Didot - Mariniers", "is_installed": "OUI", "capacity": 35, "numdocksavailable": 31, "numbikesavailable": 3, "mechanical": 0, "ebike": 3, "is_renting": "OUI", "is_returning": "OUI", "duedate": "2024-06-14T13:47:59+00:00", "coordonnees_geo": {"lon": 2.313136198271666, "lat": 48.82650543613106}, "nom_arrondissement_communes": "Paris", "code_insee_commune": null}, {"stationcode": "2002", "name": "Etienne Marcel - Montorgueil", "is_installed": "OUI", "capacity": 28, "numdocksavailable": 16, "numbikesavailable": 12, "mechanical": 10, "ebike": 2, "is_renting": "OUI", "is_returning": "OUI", "duedate": "2024-06-14T13:46:52+00:00", "coordonnees_geo": {"lon": 2.3461959511041637, "lat": 48.86450567259199}, "nom_arrondissement_communes": "Paris", "code_insee_commune": null}, {"stationcode": "22502", "name": "Kl\u00e9ber - National", "is_installed": "OUI", "capacity": 20, "numdocksavailable": 20, "numbikesavailable": 0, "mechanical": 0, "ebike": 0, "is_renting": "OUI", "is_returning": "OUI", "duedate": "2024-06-14T13:46:15+00:00", "coordonnees_geo": {"lon": 2.2393910586833954, "lat": 48.906333898712234}, "nom_arrondissement_communes": "La Garenne-Colombes", "code_insee_commune": null}, {"stationcode": "3005", "name": "Sainte-Elisabeth - Turbigo", "is_installed": "OUI", "capacity": 33, "numdocksavailable": 33, "numbikesavailable": 0, "mechanical": 0, "ebike": 0, "is_renting": "NON", "is_returning": "NON", "duedate": "2024-06-02T06:46:29+00:00", "coordonnees_geo": {"lon": 2.3596492409706, "lat": 48.86610337431}, "nom_arrondissement_communes": "Paris", "code_insee_commune": null}, {"stationcode": "5122", "name": "Saint-Michel - Luxembourg", "is_installed": "OUI", "capacity": 29, "numdocksavailable": 23, "numbikesavailable": 6, "mechanical": 3, "ebike": 3, "is_renting": "OUI", "is_returning": "OUI", "duedate": "2024-06-14T13:47:57+00:00", "coordonnees_geo": {"lon": 2.3394941166043, "lat": 48.84501507626}, "nom_arrondissement_communes": "Paris", "code_insee_commune": null}, {"stationcode": "48005", "name": "Eug\u00e8ne Varlin - Place de la Paix", "is_installed": "OUI", "capacity": 23, "numdocksavailable": 22, "numbikesavailable": 0, "mechanical": 0, "ebike": 0, "is_renting": "OUI", "is_returning": "OUI", "duedate": "2024-06-14T13:42:06+00:00", "coordonnees_geo": {"lon": 2.363093, "lat": 48.792862}, "nom_arrondissement_communes": "Villejuif", "code_insee_commune": null}, {"stationcode": "14133", "name": "Froidevaux - Boulard", "is_installed": "OUI", "capacity": 35, "numdocksavailable": 33, "numbikesavailable": 2, "mechanical": 0, "ebike": 2, "is_renting": "OUI", "is_returning": "OUI", "duedate": "2024-06-14T13:46:13+00:00", "coordonnees_geo": {"lon": 2.3294411972165, "lat": 48.835147319625}, "nom_arrondissement_communes": "Paris", "code_insee_commune": null}, {"stationcode": "41208", "name": "Alouettes - Mar\u00e9chal de Lattre de Tassigny", "is_installed": "OUI", "capacity": 22, "numdocksavailable": 11, "numbikesavailable": 11, "mechanical": 6, "ebike": 5, "is_renting": "OUI", "is_returning": "OUI", "duedate": "2024-06-14T13:42:18+00:00", "coordonnees_geo": {"lon": 2.4930700287222862, "lat": 48.85511009293948}, "nom_arrondissement_communes": "Fontenay-sous-Bois", "code_insee_commune": null}, {"stationcode": "21706", "name": "Jean Bleuzen - Square du 11 Novembre", "is_installed": "OUI", "capacity": 49, "numdocksavailable": 44, "numbikesavailable": 2, "mechanical": 1, "ebike": 1, "is_renting": "OUI", "is_returning": "OUI", "duedate": "2024-06-14T13:45:48+00:00", "coordonnees_geo": {"lon": 2.2965213, "lat": 48.8232579}, "nom_arrondissement_communes": "Vanves", "code_insee_commune": null}, {"stationcode": "4017", "name": "Place de l'H\u00f4tel de Ville", "is_installed": "OUI", "capacity": 14, "numdocksavailable": 3, "numbikesavailable": 10, "mechanical": 8, "ebike": 2, "is_renting": "OUI", "is_returning": "OUI", "duedate": "2024-06-14T13:49:57+00:00", "coordonnees_geo": {"lon": 2.351458, "lat": 48.8573314}, "nom_arrondissement_communes": "Paris", "code_insee_commune": null}, {"stationcode": "26006", "name": "Bas - Gabriel P\u00e9ri", "is_installed": "OUI", "capacity": 30, "numdocksavailable": 29, "numbikesavailable": 1, "mechanical": 0, "ebike": 1, "is_renting": "OUI", "is_returning": "OUI", "duedate": "2024-06-14T13:49:54+00:00", "coordonnees_geo": {"lon": 2.2948095202445984, "lat": 48.91585580539625}, "nom_arrondissement_communes": "Asni\u00e8res-sur-Seine", "code_insee_commune": null}, {"stationcode": "42211", "name": "S\u00e9minaire de Conflans - Libert\u00e9", "is_installed": "OUI", "capacity": 26, "numdocksavailable": 14, "numbikesavailable": 12, "mechanical": 4, "ebike": 8, "is_renting": "OUI", "is_returning": "OUI", "duedate": "2024-06-14T13:50:05+00:00", "coordonnees_geo": {"lon": 2.404179, "lat": 48.823194}, "nom_arrondissement_communes": "Charenton-le-Pont", "code_insee_commune": null}, {"stationcode": "12163", "name": "Hippodrome Paris-Vincennes", "is_installed": "OUI", "capacity": 42, "numdocksavailable": 39, "numbikesavailable": 3, "mechanical": 1, "ebike": 2, "is_renting": "OUI", "is_returning": "OUI", "duedate": "2024-06-14T13:46:04+00:00", "coordonnees_geo": {"lon": 2.446271181106568, "lat": 48.82048387758518}, "nom_arrondissement_communes": "Paris", "code_insee_commune": null}, {"stationcode": "3002", "name": "Saint-Gilles - Turenne", "is_installed": "OUI", "capacity": 18, "numdocksavailable": 7, "numbikesavailable": 10, "mechanical": 6, "ebike": 4, "is_renting": "OUI", "is_returning": "OUI", "duedate": "2024-06-14T13:50:05+00:00", "coordonnees_geo": {"lon": 2.3647149920992, "lat": 48.858158956779}, "nom_arrondissement_communes": "Paris", "code_insee_commune": null}, {"stationcode": "4101", "name": "Bastille - Beaumarchais", "is_installed": "OUI", "capacity": 23, "numdocksavailable": 0, "numbikesavailable": 21, "mechanical": 14, "ebike": 7, "is_renting": "OUI", "is_returning": "OUI", "duedate": "2024-06-14T13:48:13+00:00", "coordonnees_geo": {"lon": 2.3685702681541, "lat": 48.853833463852}, "nom_arrondissement_communes": "Paris", "code_insee_commune": null}, {"stationcode": "21509", "name": "Gardenat Lapostol - Franklin Roosevelt", "is_installed": "OUI", "capacity": 24, "numdocksavailable": 23, "numbikesavailable": 1, "mechanical": 0, "ebike": 1, "is_renting": "OUI", "is_returning": "OUI", "duedate": "2024-06-14T13:40:26+00:00", "coordonnees_geo": {"lon": 2.222505, "lat": 48.871839}, "nom_arrondissement_communes": "Suresnes", "code_insee_commune": null}, {"stationcode": "2004", "name": "Square Pierre Lazareff", "is_installed": "OUI", "capacity": 17, "numdocksavailable": 0, "numbikesavailable": 16, "mechanical": 10, "ebike": 6, "is_renting": "OUI", "is_returning": "OUI", "duedate": "2024-06-14T13:41:15+00:00", "coordonnees_geo": {"lon": 2.3483933508396, "lat": 48.867141720746}, "nom_arrondissement_communes": "Paris", "code_insee_commune": null}, {"stationcode": "2016", "name": "Aboukir - Alexandrie", "is_installed": "OUI", "capacity": 21, "numdocksavailable": 10, "numbikesavailable": 10, "mechanical": 5, "ebike": 5, "is_renting": "OUI", "is_returning": "OUI", "duedate": "2024-06-14T13:49:54+00:00", "coordonnees_geo": {"lon": 2.3502043269474897, "lat": 48.86868344444473}, "nom_arrondissement_communes": "Paris", "code_insee_commune": null}, {"stationcode": "4018", "name": "Saint-Bon - Rivoli", "is_installed": "OUI", "capacity": 19, "numdocksavailable": 8, "numbikesavailable": 11, "mechanical": 3, "ebike": 8, "is_renting": "OUI", "is_returning": "OUI", "duedate": "2024-06-14T13:49:38+00:00", "coordonnees_geo": {"lon": 2.3502172809763, "lat": 48.857999643315}, "nom_arrondissement_communes": "Paris", "code_insee_commune": null}, {"stationcode": "16044", "name": "Porte de Saint Cloud - Parc des Princes", "is_installed": "OUI", "capacity": 32, "numdocksavailable": 9, "numbikesavailable": 22, "mechanical": 21, "ebike": 1, "is_renting": "OUI", "is_returning": "OUI", "duedate": "2024-06-14T13:47:51+00:00", "coordonnees_geo": {"lon": 2.2525164484978, "lat": 48.838662757066}, "nom_arrondissement_communes": "Paris", "code_insee_commune": null}, {"stationcode": "1025", "name": "Oratoire - Rivoli", "is_installed": "OUI", "capacity": 18, "numdocksavailable": 3, "numbikesavailable": 15, "mechanical": 11, "ebike": 4, "is_renting": "OUI", "is_returning": "OUI", "duedate": "2024-06-14T13:49:41+00:00", "coordonnees_geo": {"lon": 2.3400047421455, "lat": 48.861342760889}, "nom_arrondissement_communes": "Paris", "code_insee_commune": null}, {"stationcode": "1026", "name": "Place du Lieutenant Henri Karcher", "is_installed": "OUI", "capacity": 30, "numdocksavailable": 11, "numbikesavailable": 18, "mechanical": 9, "ebike": 9, "is_renting": "OUI", "is_returning": "OUI", "duedate": "2024-06-14T13:49:49+00:00", "coordonnees_geo": {"lon": 2.3400671035051346, "lat": 48.863490871724466}, "nom_arrondissement_communes": "Paris", "code_insee_commune": null}, {"stationcode": "23101", "name": "Grande Rue - Europe", "is_installed": "OUI", "capacity": 25, "numdocksavailable": 17, "numbikesavailable": 8, "mechanical": 5, "ebike": 3, "is_renting": "OUI", "is_returning": "OUI", "duedate": "2024-06-14T13:41:30+00:00", "coordonnees_geo": {"lon": 2.205879874527455, "lat": 48.8218104687602}, "nom_arrondissement_communes": "S\u00e8vres", "code_insee_commune": null}, {"stationcode": "18015", "name": "Custine - Ramey", "is_installed": "OUI", "capacity": 41, "numdocksavailable": 37, "numbikesavailable": 3, "mechanical": 1, "ebike": 2, "is_renting": "OUI", "is_returning": "OUI", "duedate": "2024-06-14T13:48:47+00:00", "coordonnees_geo": {"lon": 2.3469526693225, "lat": 48.888735896947}, "nom_arrondissement_communes": "Paris", "code_insee_commune": null}, {"stationcode": "17106", "name": "Berthier - Porte de Clichy", "is_installed": "OUI", "capacity": 24, "numdocksavailable": 5, "numbikesavailable": 19, "mechanical": 18, "ebike": 1, "is_renting": "OUI", "is_returning": "OUI", "duedate": "2024-06-14T13:49:23+00:00", "coordonnees_geo": {"lon": 2.3125872006816, "lat": 48.894222687781}, "nom_arrondissement_communes": "Paris", "code_insee_commune": null}, {"stationcode": "1116", "name": "Ventadour - Op\u00e9ra", "is_installed": "OUI", "capacity": 27, "numdocksavailable": 4, "numbikesavailable": 23, "mechanical": 19, "ebike": 4, "is_renting": "OUI", "is_returning": "OUI", "duedate": "2024-06-14T13:49:12+00:00", "coordonnees_geo": {"lon": 2.3343884482519, "lat": 48.866810653323}, "nom_arrondissement_communes": "Paris", "code_insee_commune": null}, {"stationcode": "6201", "name": "Saint P\u00e8res - Saint Germain", "is_installed": "OUI", "capacity": 22, "numdocksavailable": 18, "numbikesavailable": 4, "mechanical": 3, "ebike": 1, "is_renting": "OUI", "is_returning": "OUI", "duedate": "2024-06-14T13:43:25+00:00", "coordonnees_geo": {"lon": 2.3300181032703, "lat": 48.853729675265}, "nom_arrondissement_communes": "Paris", "code_insee_commune": null}, {"stationcode": "6026", "name": "Saint-Placide - Cherche Midi", "is_installed": "OUI", "capacity": 66, "numdocksavailable": 45, "numbikesavailable": 20, "mechanical": 18, "ebike": 2, "is_renting": "OUI", "is_returning": "OUI", "duedate": "2024-06-14T13:48:07+00:00", "coordonnees_geo": {"lon": 2.325317971408367, "lat": 48.8490535919234}, "nom_arrondissement_communes": "Paris", "code_insee_commune": null}, {"stationcode": "22601", "name": "Marx Dormoy - Ch\u00e2teau Sainte-Barbe", "is_installed": "OUI", "capacity": 22, "numdocksavailable": 18, "numbikesavailable": 3, "mechanical": 1, "ebike": 2, "is_renting": "OUI", "is_returning": "OUI", "duedate": "2024-06-14T13:45:23+00:00", "coordonnees_geo": {"lon": 2.297856844961643, "lat": 48.791782341055324}, "nom_arrondissement_communes": "Fontenay-aux-Roses", "code_insee_commune": null}, {"stationcode": "42018", "name": "Am\u00e9d\u00e9e Huon - Fort d'Ivry", "is_installed": "OUI", "capacity": 31, "numdocksavailable": 25, "numbikesavailable": 6, "mechanical": 4, "ebike": 2, "is_renting": "OUI", "is_returning": "OUI", "duedate": "2024-06-14T13:46:00+00:00", "coordonnees_geo": {"lon": 2.388489693403244, "lat": 48.805131376899986}, "nom_arrondissement_communes": "Ivry-sur-Seine", "code_insee_commune": null}, {"stationcode": "1023", "name": "Saint-Honor\u00e9 - Mus\u00e9e du Louvre", "is_installed": "OUI", "capacity": 22, "numdocksavailable": 1, "numbikesavailable": 21, "mechanical": 18, "ebike": 3, "is_renting": "OUI", "is_returning": "OUI", "duedate": "2024-06-14T13:49:55+00:00", "coordonnees_geo": {"lon": 2.3348781846405, "lat": 48.863443132848}, "nom_arrondissement_communes": "Paris", "code_insee_commune": null}, {"stationcode": "14134", "name": "Ch\u00e2teau - Place de Catalogne", "is_installed": "OUI", "capacity": 0, "numdocksavailable": 0, "numbikesavailable": 0, "mechanical": 0, "ebike": 0, "is_renting": "NON", "is_returning": "NON", "duedate": "2024-01-30T22:37:44+00:00", "coordonnees_geo": {"lon": 2.3185293003917, "lat": 48.836805542262}, "nom_arrondissement_communes": "Paris", "code_insee_commune": null}, {"stationcode": "27001", "name": "Square Victor Basch", "is_installed": "OUI", "capacity": 20, "numdocksavailable": 17, "numbikesavailable": 3, "mechanical": 2, "ebike": 1, "is_renting": "OUI", "is_returning": "OUI", "duedate": "2024-06-14T13:40:17+00:00", "coordonnees_geo": {"lon": 2.2289156913757, "lat": 48.914304862261}, "nom_arrondissement_communes": "Colombes", "code_insee_commune": null}, {"stationcode": "3007", "name": "Archives - Pastourelle", "is_installed": "OUI", "capacity": 28, "numdocksavailable": 5, "numbikesavailable": 22, "mechanical": 18, "ebike": 4, "is_renting": "OUI", "is_returning": "OUI", "duedate": "2024-06-14T13:45:55+00:00", "coordonnees_geo": {"lon": 2.3595041, "lat": 48.8623615}, "nom_arrondissement_communes": "Paris", "code_insee_commune": null}, {"stationcode": "31020", "name": "R\u00e9sistance - Parmentier", "is_installed": "OUI", "capacity": 35, "numdocksavailable": 32, "numbikesavailable": 2, "mechanical": 1, "ebike": 1, "is_renting": "OUI", "is_returning": "OUI", "duedate": "2024-06-14T13:49:35+00:00", "coordonnees_geo": {"lon": 2.436705082654953, "lat": 48.85965138131299}, "nom_arrondissement_communes": "Montreuil", "code_insee_commune": null}, {"stationcode": "18112", "name": "Arthur Ranc - H\u00f4pital Bichat", "is_installed": "OUI", "capacity": 26, "numdocksavailable": 22, "numbikesavailable": 3, "mechanical": 1, "ebike": 2, "is_renting": "OUI", "is_returning": "OUI", "duedate": "2024-06-14T13:49:43+00:00", "coordonnees_geo": {"lon": 2.333521842956543, "lat": 48.8978712500682}, "nom_arrondissement_communes": "Paris", "code_insee_commune": null}]