[{"stationcode": "11017", "name": "Charonne - Bureau", "is_installed": "OUI", "capacity": 47, "numdocksavailable": 40, "numbikesavailable": 6, "mechanical": 0, "ebike": 6, "is_renting": "OUI", "is_returning": "OUI", "duedate": "2024-06-16T16:55:21+00:00", "coordonnees_geo": {"lon": 2.396093, "lat": 48.854176}, "nom_arrondissement_communes": "Paris", "code_insee_commune": null}, {"stationcode": "1021", "name": "Halles - Bourdonnais", "is_installed": "OUI", "capacity": 20, "numdocksavailable": 6, "numbikesavailable": 13, "mechanical": 9, "ebike": 4, "is_renting": "OUI", "is_returning": "OUI", "duedate": "2024-06-16T16:54:59+00:00", "coordonnees_geo": {"lon": 2.3460162431002, "lat": 48.860448992575}, "nom_arrondissement_communes": "Paris", "code_insee_commune": null}, {"stationcode": "15311", "name": "Quai du Pr\u00e9sident Roosevelt - Pont Aval", "is_installed": "OUI", "capacity": 30, "numdocksavailable": 15, "numbikesavailable": 15, "mechanical": 13, "ebike": 2, "is_renting": "OUI", "is_returning": "OUI", "duedate": "2024-06-16T16:55:40+00:00", "coordonnees_geo": {"lon": 2.2656820714473724, "lat": 48.8343883676388}, "nom_arrondissement_communes": "Paris", "code_insee_commune": null}, {"stationcode": "35006", "name": "Delizy - Louis Nadot", "is_installed": "OUI", "capacity": 22, "numdocksavailable": 12, "numbikesavailable": 9, "mechanical": 7, "ebike": 2, "is_renting": "OUI", "is_returning": "OUI", "duedate": "2024-06-16T16:51:46+00:00", "coordonnees_geo": {"lon": 2.4094578623771667, "lat": 48.896212845581346}, "nom_arrondissement_communes": "Pantin", "code_insee_commune": null}, {"stationcode": "41205", "name": "Mar\u00e9chal Joffre - Verdun", "is_installed": "OUI", "capacity": 20, "numdocksavailable": 16, "numbikesavailable": 3, "mechanical": 0, "ebike": 3, "is_renting": "OUI", "is_returning": "OUI", "duedate": "2024-06-16T16:53:59+00:00", "coordonnees_geo": {"lon": 2.470307, "lat": 48.85385}, "nom_arrondissement_communes": "Fontenay-sous-Bois", "code_insee_commune": null}, {"stationcode": "22015", "name": "\u00cele de la Jatte", "is_installed": "OUI", "capacity": 23, "numdocksavailable": 15, "numbikesavailable": 8, "mechanical": 1, "ebike": 7, "is_renting": "OUI", "is_returning": "OUI", "duedate": "2024-06-16T16:54:02+00:00", "coordonnees_geo": {"lon": 2.2666339203715324, "lat": 48.894036161302104}, "nom_arrondissement_communes": "Neuilly-sur-Seine", "code_insee_commune": null}, {"stationcode": "17111", "name": "Lemercier - Cardinet", "is_installed": "OUI", "capacity": 24, "numdocksavailable": 19, "numbikesavailable": 4, "mechanical": 4, "ebike": 0, "is_renting": "OUI", "is_returning": "OUI", "duedate": "2024-06-16T16:52:48+00:00", "coordonnees_geo": {"lon": 2.317377626895905, "lat": 48.890097168851746}, "nom_arrondissement_communes": "Paris", "code_insee_commune": null}, {"stationcode": "44005", "name": "Place Saint-Just", "is_installed": "OUI", "capacity": 22, "numdocksavailable": 6, "numbikesavailable": 16, "mechanical": 4, "ebike": 12, "is_renting": "OUI", "is_returning": "OUI", "duedate": "2024-06-16T16:55:51+00:00", "coordonnees_geo": {"lon": 2.3895226791501045, "lat": 48.790379518724265}, "nom_arrondissement_communes": "Vitry-sur-Seine", "code_insee_commune": null}, {"stationcode": "17119", "name": "Toqueville - Cardinet", "is_installed": "OUI", "capacity": 33, "numdocksavailable": 27, "numbikesavailable": 5, "mechanical": 4, "ebike": 1, "is_renting": "OUI", "is_returning": "OUI", "duedate": "2024-06-16T16:52:39+00:00", "coordonnees_geo": {"lon": 2.3109393194317818, "lat": 48.88490187110713}, "nom_arrondissement_communes": "Paris", "code_insee_commune": null}, {"stationcode": "15011", "name": "Cambronne - Villa Croix Nivert", "is_installed": "OUI", "capacity": 62, "numdocksavailable": 51, "numbikesavailable": 11, "mechanical": 9, "ebike": 2, "is_renting": "OUI", "is_returning": "OUI", "duedate": "2024-06-16T16:52:32+00:00", "coordonnees_geo": {"lon": 2.3017574474216, "lat": 48.845847561366}, "nom_arrondissement_communes": "Paris", "code_insee_commune": null}, {"stationcode": "9004", "name": "G\u00e9rando - Rochechouart", "is_installed": "OUI", "capacity": 21, "numdocksavailable": 17, "numbikesavailable": 1, "mechanical": 0, "ebike": 1, "is_renting": "OUI", "is_returning": "OUI", "duedate": "2024-06-16T16:46:05+00:00", "coordonnees_geo": {"lon": 2.3464846238494, "lat": 48.88294340845}, "nom_arrondissement_communes": "Paris", "code_insee_commune": null}, {"stationcode": "4021", "name": "Centre Georges Pompidou", "is_installed": "OUI", "capacity": 26, "numdocksavailable": 21, "numbikesavailable": 4, "mechanical": 2, "ebike": 2, "is_renting": "OUI", "is_returning": "OUI", "duedate": "2024-06-16T16:55:50+00:00", "coordonnees_geo": {"lon": 2.352581, "lat": 48.861419}, "nom_arrondissement_communes": "Paris", "code_insee_commune": null}, {"stationcode": "15102", "name": "Square Bela Bartok", "is_installed": "OUI", "capacity": 24, "numdocksavailable": 4, "numbikesavailable": 20, "mechanical": 18, "ebike": 2, "is_renting": "OUI", "is_returning": "OUI", "duedate": "2024-06-16T16:55:06+00:00", "coordonnees_geo": {"lon": 2.2846536710858345, "lat": 48.85120156830401}, "nom_arrondissement_communes": "Paris", "code_insee_commune": null}, {"stationcode": "33016", "name": "Fort d'Aubervilliers", "is_installed": "OUI", "capacity": 22, "numdocksavailable": 2, "numbikesavailable": 19, "mechanical": 11, "ebike": 8, "is_renting": "OUI", "is_returning": "OUI", "duedate": "2024-06-16T16:54:55+00:00", "coordonnees_geo": {"lon": 2.4035281687974925, "lat": 48.91502382370325}, "nom_arrondissement_communes": "Aubervilliers", "code_insee_commune": null}, {"stationcode": "12026", "name": "Place Ginette Hamelin", "is_installed": "OUI", "capacity": 51, "numdocksavailable": 14, "numbikesavailable": 35, "mechanical": 29, "ebike": 6, "is_renting": "OUI", "is_returning": "OUI", "duedate": "2024-06-16T16:55:05+00:00", "coordonnees_geo": {"lon": 2.382064, "lat": 48.837853}, "nom_arrondissement_communes": "Paris", "code_insee_commune": null}, {"stationcode": "17123", "name": "Mstislav Rostropovitch - Berthier", "is_installed": "OUI", "capacity": 18, "numdocksavailable": 8, "numbikesavailable": 10, "mechanical": 5, "ebike": 5, "is_renting": "OUI", "is_returning": "OUI", "duedate": "2024-06-16T16:54:03+00:00", "coordonnees_geo": {"lon": 2.309234105050564, "lat": 48.892120821173975}, "nom_arrondissement_communes": "Paris", "code_insee_commune": null}, {"stationcode": "6012", "name": "Saint-Germain - Ciseaux", "is_installed": "OUI", "capacity": 18, "numdocksavailable": 8, "numbikesavailable": 9, "mechanical": 9, "ebike": 0, "is_renting": "OUI", "is_returning": "OUI", "duedate": "2024-06-16T16:55:46+00:00", "coordonnees_geo": {"lon": 2.3344654618827, "lat": 48.853305277595}, "nom_arrondissement_communes": "Paris", "code_insee_commune": null}, {"stationcode": "13009", "name": "Auguste Blanqui - Corvisart", "is_installed": "OUI", "capacity": 26, "numdocksavailable": 25, "numbikesavailable": 1, "mechanical": 1, "ebike": 0, "is_renting": "OUI", "is_returning": "OUI", "duedate": "2024-06-16T16:51:45+00:00", "coordonnees_geo": {"lon": 2.3502726, "lat": 48.8300989}, "nom_arrondissement_communes": "Paris", "code_insee_commune": null}, {"stationcode": "27005", "name": "Gare du Stade", "is_installed": "OUI", "capacity": 20, "numdocksavailable": 10, "numbikesavailable": 10, "mechanical": 6, "ebike": 4, "is_renting": "OUI", "is_returning": "OUI", "duedate": "2024-06-16T16:55:34+00:00", "coordonnees_geo": {"lon": 2.2603778, "lat": 48.9312676}, "nom_arrondissement_communes": "Colombes", "code_insee_commune": null}, {"stationcode": "15071", "name": "Suffren - Champ de Mars", "is_installed": "OUI", "capacity": 23, "numdocksavailable": 7, "numbikesavailable": 16, "mechanical": 12, "ebike": 4, "is_renting": "OUI", "is_returning": "OUI", "duedate": "2024-06-16T16:55:13+00:00", "coordonnees_geo": {"lon": 2.2952168, "lat": 48.8547194}, "nom_arrondissement_communes": "Paris", "code_insee_commune": null}, {"stationcode": "8201", "name": "Ars\u00e8ne Houssaye - Friedland", "is_installed": "OUI", "capacity": 29, "numdocksavailable": 27, "numbikesavailable": 2, "mechanical": 2, "ebike": 0, "is_renting": "OUI", "is_returning": "OUI", "duedate": "2024-06-16T16:54:48+00:00", "coordonnees_geo": {"lon": 2.2994716674148, "lat": 48.874510616163}, "nom_arrondissement_communes": "Paris", "code_insee_commune": null}, {"stationcode": "9102", "name": "Londres - Place d'Estienne d'Orves", "is_installed": "OUI", "capacity": 25, "numdocksavailable": 16, "numbikesavailable": 9, "mechanical": 7, "ebike": 2, "is_renting": "OUI", "is_returning": "OUI", "duedate": "2024-06-16T16:53:15+00:00", "coordonnees_geo": {"lon": 2.3305362090468407, "lat": 48.876693805756986}, "nom_arrondissement_communes": "Paris", "code_insee_commune": null}, {"stationcode": "18030", "name": "Joseph Dijon - Ornano", "is_installed": "OUI", "capacity": 37, "numdocksavailable": 25, "numbikesavailable": 12, "mechanical": 6, "ebike": 6, "is_renting": "OUI", "is_returning": "OUI", "duedate": "2024-06-16T16:53:39+00:00", "coordonnees_geo": {"lon": 2.3476678133010864, "lat": 48.89374453351521}, "nom_arrondissement_communes": "Paris", "code_insee_commune": null}, {"stationcode": "5024", "name": "Place Monge", "is_installed": "OUI", "capacity": 21, "numdocksavailable": 2, "numbikesavailable": 19, "mechanical": 15, "ebike": 4, "is_renting": "OUI", "is_returning": "OUI", "duedate": "2024-06-16T16:52:07+00:00", "coordonnees_geo": {"lon": 2.3524079471827, "lat": 48.842761803051}, "nom_arrondissement_communes": "Paris", "code_insee_commune": null}, {"stationcode": "12038", "name": "Picpus - Louis Braille", "is_installed": "OUI", "capacity": 44, "numdocksavailable": 34, "numbikesavailable": 10, "mechanical": 6, "ebike": 4, "is_renting": "OUI", "is_returning": "OUI", "duedate": "2024-06-16T16:55:07+00:00", "coordonnees_geo": {"lon": 2.4005256685521, "lat": 48.839988788912}, "nom_arrondissement_communes": "Paris", "code_insee_commune": null}, {"stationcode": "12005", "name": "Crozatier - Faubourg Saint-Antoine", "is_installed": "OUI", "capacity": 42, "numdocksavailable": 7, "numbikesavailable": 35, "mechanical": 32, "ebike": 3, "is_renting": "OUI", "is_returning": "OUI", "duedate": "2024-06-16T16:55:08+00:00", "coordonnees_geo": {"lon": 2.378901366211, "lat": 48.850440013405}, "nom_arrondissement_communes": "Paris", "code_insee_commune": null}, {"stationcode": "13516", "name": "Glaci\u00e8re - Soeur Catherine Marie", "is_installed": "OUI", "capacity": 40, "numdocksavailable": 15, "numbikesavailable": 22, "mechanical": 21, "ebike": 1, "is_renting": "OUI", "is_returning": "OUI", "duedate": "2024-06-16T16:53:34+00:00", "coordonnees_geo": {"lon": 2.343570403754711, "lat": 48.829522989420596}, "nom_arrondissement_communes": "Paris", "code_insee_commune": null}, {"stationcode": "9011", "name": "Geoffroy - Marie", "is_installed": "OUI", "capacity": 20, "numdocksavailable": 2, "numbikesavailable": 18, "mechanical": 16, "ebike": 2, "is_renting": "OUI", "is_returning": "OUI", "duedate": "2024-06-16T16:55:01+00:00", "coordonnees_geo": {"lon": 2.344513876337893, "lat": 48.873781940593325}, "nom_arrondissement_communes": "Paris", "code_insee_commune": null}, {"stationcode": "13025", "name": "Place de Rungis", "is_installed": "OUI", "capacity": 32, "numdocksavailable": 15, "numbikesavailable": 16, "mechanical": 6, "ebike": 10, "is_renting": "OUI", "is_returning": "OUI", "duedate": "2024-06-16T16:53:57+00:00", "coordonnees_geo": {"lon": 2.347382729482953, "lat": 48.82245594764965}, "nom_arrondissement_communes": "Paris", "code_insee_commune": null}, {"stationcode": "10021", "name": "March\u00e9 Saint-Quentin", "is_installed": "OUI", "capacity": 15, "numdocksavailable": 14, "numbikesavailable": 1, "mechanical": 0, "ebike": 1, "is_renting": "OUI", "is_returning": "OUI", "duedate": "2024-06-16T16:55:17+00:00", "coordonnees_geo": {"lon": 2.3545114456374, "lat": 48.877356057652}, "nom_arrondissement_communes": "Paris", "code_insee_commune": null}, {"stationcode": "41211", "name": "Louis Xavier de Ricard - Ancienne Mairie", "is_installed": "OUI", "capacity": 34, "numdocksavailable": 19, "numbikesavailable": 13, "mechanical": 4, "ebike": 9, "is_renting": "OUI", "is_returning": "OUI", "duedate": "2024-06-16T16:52:50+00:00", "coordonnees_geo": {"lon": 2.472420372068882, "lat": 48.84629899065091}, "nom_arrondissement_communes": "Fontenay-sous-Bois", "code_insee_commune": null}, {"stationcode": "2108", "name": "Vivienne - Montmartre", "is_installed": "OUI", "capacity": 39, "numdocksavailable": 29, "numbikesavailable": 10, "mechanical": 10, "ebike": 0, "is_renting": "OUI", "is_returning": "OUI", "duedate": "2024-06-16T16:55:23+00:00", "coordonnees_geo": {"lon": 2.3414588347077, "lat": 48.871347597383}, "nom_arrondissement_communes": "Paris", "code_insee_commune": null}, {"stationcode": "12101", "name": "Charenton - Prague", "is_installed": "OUI", "capacity": 26, "numdocksavailable": 5, "numbikesavailable": 20, "mechanical": 13, "ebike": 7, "is_renting": "OUI", "is_returning": "OUI", "duedate": "2024-06-16T16:50:50+00:00", "coordonnees_geo": {"lon": 2.3763584494312, "lat": 48.848175129981}, "nom_arrondissement_communes": "Paris", "code_insee_commune": null}, {"stationcode": "4019", "name": "Clo\u00eetre Saint-Merri - Renard", "is_installed": "OUI", "capacity": 32, "numdocksavailable": 9, "numbikesavailable": 21, "mechanical": 14, "ebike": 7, "is_renting": "OUI", "is_returning": "OUI", "duedate": "2024-06-16T16:55:05+00:00", "coordonnees_geo": {"lon": 2.3518279194832, "lat": 48.858835448898}, "nom_arrondissement_communes": "Paris", "code_insee_commune": null}, {"stationcode": "5001", "name": "Harpe - Saint-Germain", "is_installed": "OUI", "capacity": 45, "numdocksavailable": 8, "numbikesavailable": 37, "mechanical": 36, "ebike": 1, "is_renting": "OUI", "is_returning": "OUI", "duedate": "2024-06-16T16:54:02+00:00", "coordonnees_geo": {"lon": 2.3436703160405, "lat": 48.851518815017}, "nom_arrondissement_communes": "Paris", "code_insee_commune": null}, {"stationcode": "15039", "name": "Abb\u00e9 Groult - Convention", "is_installed": "OUI", "capacity": 12, "numdocksavailable": 9, "numbikesavailable": 3, "mechanical": 1, "ebike": 2, "is_renting": "OUI", "is_returning": "OUI", "duedate": "2024-06-16T16:55:02+00:00", "coordonnees_geo": {"lon": 2.302064039509349, "lat": 48.83596927866069}, "nom_arrondissement_communes": "Paris", "code_insee_commune": null}, {"stationcode": "2112", "name": "Biblioth\u00e8que Nationale - Richelieu", "is_installed": "OUI", "capacity": 17, "numdocksavailable": 12, "numbikesavailable": 4, "mechanical": 1, "ebike": 3, "is_renting": "OUI", "is_returning": "OUI", "duedate": "2024-06-16T16:54:50+00:00", "coordonnees_geo": {"lon": 2.3380893096328, "lat": 48.868288993515}, "nom_arrondissement_communes": "Paris", "code_insee_commune": null}, {"stationcode": "21402", "name": "Place Aim\u00e9 C\u00e9saire", "is_installed": "OUI", "capacity": 27, "numdocksavailable": 26, "numbikesavailable": 1, "mechanical": 0, "ebike": 1, "is_renting": "OUI", "is_returning": "OUI", "duedate": "2024-06-16T16:48:05+00:00", "coordonnees_geo": {"lon": 2.2429127991199493, "lat": 48.783194713067815}, "nom_arrondissement_communes": "Clamart", "code_insee_commune": null}, {"stationcode": "23102", "name": "H\u00f4tel de Ville de S\u00e8vres", "is_installed": "OUI", "capacity": 32, "numdocksavailable": 6, "numbikesavailable": 24, "mechanical": 17, "ebike": 7, "is_renting": "OUI", "is_returning": "OUI", "duedate": "2024-06-16T16:51:03+00:00", "coordonnees_geo": {"lon": 2.2131047397851944, "lat": 48.824363561288756}, "nom_arrondissement_communes": "S\u00e8vres", "code_insee_commune": null}, {"stationcode": "33014", "name": "Parc Eli Lotar", "is_installed": "OUI", "capacity": 20, "numdocksavailable": 17, "numbikesavailable": 3, "mechanical": 0, "ebike": 3, "is_renting": "OUI", "is_returning": "OUI", "duedate": "2024-06-16T16:48:53+00:00", "coordonnees_geo": {"lon": 2.3727085813879967, "lat": 48.91844993053703}, "nom_arrondissement_communes": "Aubervilliers", "code_insee_commune": null}, {"stationcode": "9007", "name": "Condorcet - Turgot", "is_installed": "OUI", "capacity": 20, "numdocksavailable": 18, "numbikesavailable": 2, "mechanical": 0, "ebike": 2, "is_renting": "OUI", "is_returning": "OUI", "duedate": "2024-06-16T16:50:27+00:00", "coordonnees_geo": {"lon": 2.345232367515564, "lat": 48.87985155789093}, "nom_arrondissement_communes": "Paris", "code_insee_commune": null}, {"stationcode": "17024", "name": "Villiers - Batignolles", "is_installed": "OUI", "capacity": 23, "numdocksavailable": 19, "numbikesavailable": 4, "mechanical": 1, "ebike": 3, "is_renting": "OUI", "is_returning": "OUI", "duedate": "2024-06-16T16:55:25+00:00", "coordonnees_geo": {"lon": 2.31653843075037, "lat": 48.88125253846116}, "nom_arrondissement_communes": "Paris", "code_insee_commune": null}, {"stationcode": "15036", "name": "Croix Nivert - Square Saint-Lambert", "is_installed": "OUI", "capacity": 47, "numdocksavailable": 1, "numbikesavailable": 45, "mechanical": 43, "ebike": 2, "is_renting": "OUI", "is_returning": "OUI", "duedate": "2024-06-16T16:55:49+00:00", "coordonnees_geo": {"lon": 2.295200452208519, "lat": 48.8430515215905}, "nom_arrondissement_communes": "Paris", "code_insee_commune": null}, {"stationcode": "20105", "name": "Beno\u00eet Frachon - R\u00e9publique", "is_installed": "OUI", "capacity": 30, "numdocksavailable": 23, "numbikesavailable": 7, "mechanical": 5, "ebike": 2, "is_renting": "OUI", "is_returning": "OUI", "duedate": "2024-06-16T16:53:19+00:00", "coordonnees_geo": {"lon": 2.415605485439301, "lat": 48.85230729014318}, "nom_arrondissement_communes": "Paris", "code_insee_commune": null}, {"stationcode": "33103", "name": "Jean Jaur\u00e8s - Jules Jacquemin", "is_installed": "OUI", "capacity": 24, "numdocksavailable": 16, "numbikesavailable": 7, "mechanical": 2, "ebike": 5, "is_renting": "OUI", "is_returning": "OUI", "duedate": "2024-06-16T16:52:21+00:00", "coordonnees_geo": {"lon": 2.4082902455152104, "lat": 48.88433053604843}, "nom_arrondissement_communes": "Le Pr\u00e9-Saint-Gervais", "code_insee_commune": null}, {"stationcode": "14032", "name": "Mairie du 14\u00e8me", "is_installed": "OUI", "capacity": 32, "numdocksavailable": 20, "numbikesavailable": 9, "mechanical": 1, "ebike": 8, "is_renting": "OUI", "is_returning": "OUI", "duedate": "2024-06-16T16:53:43+00:00", "coordonnees_geo": {"lon": 2.3254923149943, "lat": 48.83254578123}, "nom_arrondissement_communes": "Paris", "code_insee_commune": null}, {"stationcode": "14011", "name": "Place des Droits de l'Enfant", "is_installed": "OUI", "capacity": 24, "numdocksavailable": 19, "numbikesavailable": 5, "mechanical": 4, "ebike": 1, "is_renting": "OUI", "is_returning": "OUI", "duedate": "2024-06-16T16:54:58+00:00", "coordonnees_geo": {"lon": 2.3319217, "lat": 48.8274804}, "nom_arrondissement_communes": "Paris", "code_insee_commune": null}, {"stationcode": "41401", "name": "Marne - Charles de Gaulle", "is_installed": "OUI", "capacity": 27, "numdocksavailable": 0, "numbikesavailable": 27, "mechanical": 20, "ebike": 7, "is_renting": "OUI", "is_returning": "OUI", "duedate": "2024-06-16T16:52:47+00:00", "coordonnees_geo": {"lon": 2.4121668934822087, "lat": 48.815071719544434}, "nom_arrondissement_communes": "Alfortville", "code_insee_commune": null}, {"stationcode": "6002", "name": "Saint-Beno\u00eet - Jacob", "is_installed": "OUI", "capacity": 23, "numdocksavailable": 10, "numbikesavailable": 13, "mechanical": 8, "ebike": 5, "is_renting": "OUI", "is_returning": "OUI", "duedate": "2024-06-16T16:53:13+00:00", "coordonnees_geo": {"lon": 2.3334722220897675, "lat": 48.85545136013941}, "nom_arrondissement_communes": "Paris", "code_insee_commune": null}, {"stationcode": "20044", "name": "Davout - Volga", "is_installed": "OUI", "capacity": 28, "numdocksavailable": 23, "numbikesavailable": 5, "mechanical": 5, "ebike": 0, "is_renting": "OUI", "is_returning": "OUI", "duedate": "2024-06-16T16:55:30+00:00", "coordonnees_geo": {"lon": 2.410522909779111, "lat": 48.852919679957296}, "nom_arrondissement_communes": "Paris", "code_insee_commune": null}, {"stationcode": "16019", "name": "Porte de la Muette", "is_installed": "OUI", "capacity": 36, "numdocksavailable": 33, "numbikesavailable": 1, "mechanical": 0, "ebike": 1, "is_renting": "OUI", "is_returning": "OUI", "duedate": "2024-06-16T16:54:27+00:00", "coordonnees_geo": {"lon": 2.2687188170157406, "lat": 48.86302317841182}, "nom_arrondissement_communes": "Paris", "code_insee_commune": null}, {"stationcode": "2013", "name": "Favart - Italiens", "is_installed": "OUI", "capacity": 17, "numdocksavailable": 14, "numbikesavailable": 2, "mechanical": 2, "ebike": 0, "is_renting": "OUI", "is_returning": "OUI", "duedate": "2024-06-16T16:54:22+00:00", "coordonnees_geo": {"lon": 2.3382901058508, "lat": 48.871446353921}, "nom_arrondissement_communes": "Paris", "code_insee_commune": null}, {"stationcode": "11033", "name": "Br\u00e9guet - Sabin", "is_installed": "OUI", "capacity": 33, "numdocksavailable": 13, "numbikesavailable": 17, "mechanical": 14, "ebike": 3, "is_renting": "OUI", "is_returning": "OUI", "duedate": "2024-06-16T16:52:59+00:00", "coordonnees_geo": {"lon": 2.3706749462105, "lat": 48.856931678257}, "nom_arrondissement_communes": "Paris", "code_insee_commune": null}, {"stationcode": "10033", "name": "Gare du Nord - Saint-Vincent de Paul", "is_installed": "OUI", "capacity": 24, "numdocksavailable": 21, "numbikesavailable": 2, "mechanical": 2, "ebike": 0, "is_renting": "OUI", "is_returning": "OUI", "duedate": "2024-06-16T16:55:20+00:00", "coordonnees_geo": {"lon": 2.3524305148385, "lat": 48.880955741648}, "nom_arrondissement_communes": "Paris", "code_insee_commune": null}, {"stationcode": "10024", "name": "Buisson Saint-Louis - Saint-Maur", "is_installed": "OUI", "capacity": 19, "numdocksavailable": 9, "numbikesavailable": 10, "mechanical": 6, "ebike": 4, "is_renting": "OUI", "is_returning": "OUI", "duedate": "2024-06-16T16:54:10+00:00", "coordonnees_geo": {"lon": 2.372252832879, "lat": 48.871746849303}, "nom_arrondissement_communes": "Paris", "code_insee_commune": null}, {"stationcode": "16005", "name": "Raymond Poincar\u00e9 - Place Victor Hugo", "is_installed": "OUI", "capacity": 25, "numdocksavailable": 24, "numbikesavailable": 1, "mechanical": 0, "ebike": 1, "is_renting": "OUI", "is_returning": "OUI", "duedate": "2024-06-16T16:55:01+00:00", "coordonnees_geo": {"lon": 2.285074541420228, "lat": 48.870306124369975}, "nom_arrondissement_communes": "Paris", "code_insee_commune": null}, {"stationcode": "4006", "name": "Bourdon - Pont Morland", "is_installed": "OUI", "capacity": 52, "numdocksavailable": 4, "numbikesavailable": 45, "mechanical": 40, "ebike": 5, "is_renting": "OUI", "is_returning": "OUI", "duedate": "2024-06-16T16:55:32+00:00", "coordonnees_geo": {"lon": 2.3659356, "lat": 48.8478103}, "nom_arrondissement_communes": "Paris", "code_insee_commune": null}, {"stationcode": "12036", "name": "Reuilly - Place Felix Eboue", "is_installed": "OUI", "capacity": 42, "numdocksavailable": 38, "numbikesavailable": 3, "mechanical": 0, "ebike": 3, "is_renting": "OUI", "is_returning": "OUI", "duedate": "2024-06-16T16:46:28+00:00", "coordonnees_geo": {"lon": 2.394630398715453, "lat": 48.84030274499962}, "nom_arrondissement_communes": "Paris", "code_insee_commune": null}, {"stationcode": "14026", "name": "Plantes - Moulin Vert", "is_installed": "OUI", "capacity": 45, "numdocksavailable": 36, "numbikesavailable": 8, "mechanical": 0, "ebike": 8, "is_renting": "OUI", "is_returning": "OUI", "duedate": "2024-06-16T16:53:25+00:00", "coordonnees_geo": {"lon": 2.3232302069664006, "lat": 48.83005755305626}, "nom_arrondissement_communes": "Paris", "code_insee_commune": null}, {"stationcode": "16105", "name": "Crevaux - Bugeaud", "is_installed": "OUI", "capacity": 31, "numdocksavailable": 20, "numbikesavailable": 10, "mechanical": 9, "ebike": 1, "is_renting": "OUI", "is_returning": "OUI", "duedate": "2024-06-16T16:52:49+00:00", "coordonnees_geo": {"lon": 2.281149007691853, "lat": 48.870809428669546}, "nom_arrondissement_communes": "Paris", "code_insee_commune": null}, {"stationcode": "8117", "name": "Place de la Madeleine - Royale", "is_installed": "OUI", "capacity": 43, "numdocksavailable": 31, "numbikesavailable": 11, "mechanical": 9, "ebike": 2, "is_renting": "OUI", "is_returning": "OUI", "duedate": "2024-06-16T16:54:50+00:00", "coordonnees_geo": {"lon": 2.324421107769, "lat": 48.869228052648}, "nom_arrondissement_communes": "Paris", "code_insee_commune": null}, {"stationcode": "10032", "name": "Claude Vellefaux - H\u00f4pital Saint-Louis", "is_installed": "OUI", "capacity": 32, "numdocksavailable": 22, "numbikesavailable": 10, "mechanical": 2, "ebike": 8, "is_renting": "OUI", "is_returning": "OUI", "duedate": "2024-06-16T16:55:30+00:00", "coordonnees_geo": {"lon": 2.3700717069851, "lat": 48.872859139003}, "nom_arrondissement_communes": "Paris", "code_insee_commune": null}, {"stationcode": "26004", "name": "Gare RER les Gr\u00e9sillons", "is_installed": "OUI", "capacity": 22, "numdocksavailable": 6, "numbikesavailable": 13, "mechanical": 7, "ebike": 6, "is_renting": "OUI", "is_returning": "OUI", "duedate": "2024-06-16T16:49:17+00:00", "coordonnees_geo": {"lon": 2.31458459136273, "lat": 48.919898633572764}, "nom_arrondissement_communes": "Asni\u00e8res-sur-Seine", "code_insee_commune": null}, {"stationcode": "16042", "name": "Murat - Porte de Saint-Cloud", "is_installed": "OUI", "capacity": 38, "numdocksavailable": 16, "numbikesavailable": 19, "mechanical": 17, "ebike": 2, "is_renting": "OUI", "is_returning": "OUI", "duedate": "2024-06-16T16:55:48+00:00", "coordonnees_geo": {"lon": 2.2577651962637906, "lat": 48.83750862621299}, "nom_arrondissement_communes": "Paris", "code_insee_commune": null}, {"stationcode": "1006", "name": "Grande Truanderie - Saint-Denis", "is_installed": "OUI", "capacity": 33, "numdocksavailable": 10, "numbikesavailable": 21, "mechanical": 17, "ebike": 4, "is_renting": "OUI", "is_returning": "OUI", "duedate": "2024-06-16T16:54:16+00:00", "coordonnees_geo": {"lon": 2.3498075, "lat": 48.8626302}, "nom_arrondissement_communes": "Paris", "code_insee_commune": null}, {"stationcode": "15001", "name": "Gare Montparnasse - Arriv\u00e9e", "is_installed": "OUI", "capacity": 43, "numdocksavailable": 32, "numbikesavailable": 9, "mechanical": 4, "ebike": 5, "is_renting": "OUI", "is_returning": "OUI", "duedate": "2024-06-16T16:55:23+00:00", "coordonnees_geo": {"lon": 2.3225811123848, "lat": 48.843827994315}, "nom_arrondissement_communes": "Paris", "code_insee_commune": null}, {"stationcode": "15008", "name": "S\u00e8vres - Lecourbe", "is_installed": "OUI", "capacity": 62, "numdocksavailable": 40, "numbikesavailable": 21, "mechanical": 15, "ebike": 6, "is_renting": "OUI", "is_returning": "OUI", "duedate": "2024-06-16T16:55:36+00:00", "coordonnees_geo": {"lon": 2.3110086, "lat": 48.8447677}, "nom_arrondissement_communes": "Paris", "code_insee_commune": null}, {"stationcode": "11112", "name": "Jules Vall\u00e8s - Charonne", "is_installed": "OUI", "capacity": 23, "numdocksavailable": 1, "numbikesavailable": 19, "mechanical": 14, "ebike": 5, "is_renting": "OUI", "is_returning": "OUI", "duedate": "2024-06-16T16:54:00+00:00", "coordonnees_geo": {"lon": 2.384767457842827, "lat": 48.85428437993525}, "nom_arrondissement_communes": "Paris", "code_insee_commune": null}, {"stationcode": "5015", "name": "Ep\u00e9e de Bois - Mouffetard", "is_installed": "OUI", "capacity": 63, "numdocksavailable": 53, "numbikesavailable": 7, "mechanical": 5, "ebike": 2, "is_renting": "OUI", "is_returning": "OUI", "duedate": "2024-06-16T16:55:41+00:00", "coordonnees_geo": {"lon": 2.350066713988781, "lat": 48.841508690388835}, "nom_arrondissement_communes": "Paris", "code_insee_commune": null}, {"stationcode": "45002", "name": "Roger Salengro - G\u00e9n\u00e9ral de Gaulle", "is_installed": "OUI", "capacity": 27, "numdocksavailable": 5, "numbikesavailable": 22, "mechanical": 17, "ebike": 5, "is_renting": "OUI", "is_returning": "OUI", "duedate": "2024-06-16T16:55:13+00:00", "coordonnees_geo": {"lon": 2.4846760556101803, "lat": 48.820029010376956}, "nom_arrondissement_communes": "Champigny-sur-Marne", "code_insee_commune": null}, {"stationcode": "44014", "name": "Camille Risch - Paul Armangot", "is_installed": "OUI", "capacity": 25, "numdocksavailable": 6, "numbikesavailable": 19, "mechanical": 11, "ebike": 8, "is_renting": "OUI", "is_returning": "OUI", "duedate": "2024-06-16T16:53:35+00:00", "coordonnees_geo": {"lon": 2.373685, "lat": 48.774703}, "nom_arrondissement_communes": "Vitry-sur-Seine", "code_insee_commune": null}, {"stationcode": "1007", "name": "Turbigo - Fran\u00e7aise", "is_installed": "OUI", "capacity": 16, "numdocksavailable": 5, "numbikesavailable": 10, "mechanical": 6, "ebike": 4, "is_renting": "OUI", "is_returning": "OUI", "duedate": "2024-06-16T16:55:37+00:00", "coordonnees_geo": {"lon": 2.3477794602513313, "lat": 48.86358858111446}, "nom_arrondissement_communes": "Paris", "code_insee_commune": null}, {"stationcode": "47003", "name": "Charentonneau - Maisons Alfort", "is_installed": "OUI", "capacity": 20, "numdocksavailable": 1, "numbikesavailable": 18, "mechanical": 14, "ebike": 4, "is_renting": "OUI", "is_returning": "OUI", "duedate": "2024-06-16T16:55:45+00:00", "coordonnees_geo": {"lon": 2.443288456496946, "lat": 48.809932980484355}, "nom_arrondissement_communes": "Maisons-Alfort", "code_insee_commune": null}, {"stationcode": "16013", "name": "Mairie du 16\u00e8me", "is_installed": "OUI", "capacity": 35, "numdocksavailable": 20, "numbikesavailable": 14, "mechanical": 6, "ebike": 8, "is_renting": "OUI", "is_returning": "OUI", "duedate": "2024-06-16T16:55:39+00:00", "coordonnees_geo": {"lon": 2.2765953093767166, "lat": 48.863936848471994}, "nom_arrondissement_communes": "Paris", "code_insee_commune": null}, {"stationcode": "20001", "name": "Place de la Nation - Charonne", "is_installed": "OUI", "capacity": 36, "numdocksavailable": 30, "numbikesavailable": 5, "mechanical": 4, "ebike": 1, "is_renting": "OUI", "is_returning": "OUI", "duedate": "2024-06-16T16:54:19+00:00", "coordonnees_geo": {"lon": 2.3997623859813, "lat": 48.848364667777}, "nom_arrondissement_communes": "Paris", "code_insee_commune": null}, {"stationcode": "20008", "name": "Pyr\u00e9n\u00e9es - Avron", "is_installed": "OUI", "capacity": 32, "numdocksavailable": 26, "numbikesavailable": 6, "mechanical": 3, "ebike": 3, "is_renting": "OUI", "is_returning": "OUI", "duedate": "2024-06-16T16:49:44+00:00", "coordonnees_geo": {"lon": 2.405871044529538, "lat": 48.853246898211985}, "nom_arrondissement_communes": "Paris", "code_insee_commune": null}, {"stationcode": "12019", "name": "Gare de Reuilly - Picpus", "is_installed": "OUI", "capacity": 28, "numdocksavailable": 25, "numbikesavailable": 3, "mechanical": 2, "ebike": 1, "is_renting": "OUI", "is_returning": "OUI", "duedate": "2024-06-16T16:49:35+00:00", "coordonnees_geo": {"lon": 2.3972943797707558, "lat": 48.84267354116789}, "nom_arrondissement_communes": "Paris", "code_insee_commune": null}, {"stationcode": "16102", "name": "Pergol\u00e8se - Marbeau", "is_installed": "OUI", "capacity": 27, "numdocksavailable": 23, "numbikesavailable": 4, "mechanical": 3, "ebike": 1, "is_renting": "OUI", "is_returning": "OUI", "duedate": "2024-06-16T16:50:31+00:00", "coordonnees_geo": {"lon": 2.281512522529856, "lat": 48.87356870686902}, "nom_arrondissement_communes": "Paris", "code_insee_commune": null}, {"stationcode": "14135", "name": "Jourdan - Cit\u00e9 Universitaire", "is_installed": "OUI", "capacity": 39, "numdocksavailable": 35, "numbikesavailable": 3, "mechanical": 1, "ebike": 2, "is_renting": "OUI", "is_returning": "OUI", "duedate": "2024-06-16T16:54:00+00:00", "coordonnees_geo": {"lon": 2.3397007964124366, "lat": 48.819897343156676}, "nom_arrondissement_communes": "Paris", "code_insee_commune": null}, {"stationcode": "8110", "name": "Gare Saint-Lazare - Stockholm", "is_installed": "OUI", "capacity": 32, "numdocksavailable": 27, "numbikesavailable": 5, "mechanical": 3, "ebike": 2, "is_renting": "OUI", "is_returning": "OUI", "duedate": "2024-06-16T16:55:38+00:00", "coordonnees_geo": {"lon": 2.322417162358761, "lat": 48.877127316667654}, "nom_arrondissement_communes": "Paris", "code_insee_commune": null}, {"stationcode": "3010", "name": "Beaubourg - Michel-le-Comte", "is_installed": "OUI", "capacity": 17, "numdocksavailable": 1, "numbikesavailable": 15, "mechanical": 11, "ebike": 4, "is_renting": "OUI", "is_returning": "OUI", "duedate": "2024-06-16T16:53:38+00:00", "coordonnees_geo": {"lon": 2.3543103039265, "lat": 48.862534941806}, "nom_arrondissement_communes": "Paris", "code_insee_commune": null}, {"stationcode": "18140", "name": "Porte de Clignancourt - Ney", "is_installed": "OUI", "capacity": 40, "numdocksavailable": 27, "numbikesavailable": 13, "mechanical": 3, "ebike": 10, "is_renting": "OUI", "is_returning": "OUI", "duedate": "2024-06-16T16:53:48+00:00", "coordonnees_geo": {"lon": 2.344321422278881, "lat": 48.899641123987095}, "nom_arrondissement_communes": "Paris", "code_insee_commune": null}, {"stationcode": "9009", "name": "Square Montholon", "is_installed": "OUI", "capacity": 21, "numdocksavailable": 13, "numbikesavailable": 7, "mechanical": 6, "ebike": 1, "is_renting": "OUI", "is_returning": "OUI", "duedate": "2024-06-16T16:54:04+00:00", "coordonnees_geo": {"lon": 2.3457641154527664, "lat": 48.876620377545024}, "nom_arrondissement_communes": "Paris", "code_insee_commune": null}, {"stationcode": "6104", "name": "Herschel - Observatoire", "is_installed": "OUI", "capacity": 37, "numdocksavailable": 24, "numbikesavailable": 12, "mechanical": 1, "ebike": 11, "is_renting": "OUI", "is_returning": "OUI", "duedate": "2024-06-16T16:55:04+00:00", "coordonnees_geo": {"lon": 2.3376645147800446, "lat": 48.84342376221923}, "nom_arrondissement_communes": "Paris", "code_insee_commune": null}, {"stationcode": "20006", "name": "Pyr\u00e9n\u00e9es - Plaine", "is_installed": "OUI", "capacity": 12, "numdocksavailable": 3, "numbikesavailable": 8, "mechanical": 4, "ebike": 4, "is_renting": "OUI", "is_returning": "OUI", "duedate": "2024-06-16T16:49:47+00:00", "coordonnees_geo": {"lon": 2.4062821269035, "lat": 48.85026702458}, "nom_arrondissement_communes": "Paris", "code_insee_commune": null}, {"stationcode": "32013", "name": "Saint-Denis - Universit\u00e9", "is_installed": "OUI", "capacity": 24, "numdocksavailable": 19, "numbikesavailable": 4, "mechanical": 0, "ebike": 4, "is_renting": "OUI", "is_returning": "OUI", "duedate": "2024-06-16T16:54:22+00:00", "coordonnees_geo": {"lon": 2.3638297989964485, "lat": 48.94563430946964}, "nom_arrondissement_communes": "Saint-Denis", "code_insee_commune": null}, {"stationcode": "21953", "name": "Gare de Bellevue", "is_installed": "OUI", "capacity": 20, "numdocksavailable": 17, "numbikesavailable": 3, "mechanical": 1, "ebike": 2, "is_renting": "OUI", "is_returning": "OUI", "duedate": "2024-06-16T16:54:48+00:00", "coordonnees_geo": {"lon": 2.2295309230685234, "lat": 48.8192404685572}, "nom_arrondissement_communes": "Meudon", "code_insee_commune": null}, {"stationcode": "14137", "name": "Maurice d'Ocagne - General Maudhuy", "is_installed": "OUI", "capacity": 30, "numdocksavailable": 29, "numbikesavailable": 1, "mechanical": 0, "ebike": 1, "is_renting": "OUI", "is_returning": "OUI", "duedate": "2024-06-16T16:48:38+00:00", "coordonnees_geo": {"lon": 2.3158789426088333, "lat": 48.82414282524159}, "nom_arrondissement_communes": "Paris", "code_insee_commune": null}, {"stationcode": "14019", "name": "Sarrette - G\u00e9n\u00e9ral Leclerc", "is_installed": "OUI", "capacity": 22, "numdocksavailable": 14, "numbikesavailable": 7, "mechanical": 5, "ebike": 2, "is_renting": "OUI", "is_returning": "OUI", "duedate": "2024-06-16T16:51:30+00:00", "coordonnees_geo": {"lon": 2.3264128693982, "lat": 48.825030852925}, "nom_arrondissement_communes": "Paris", "code_insee_commune": null}, {"stationcode": "10006", "name": "Petites Ecuries - Faubourg Saint-Denis", "is_installed": "OUI", "capacity": 28, "numdocksavailable": 6, "numbikesavailable": 21, "mechanical": 10, "ebike": 11, "is_renting": "OUI", "is_returning": "OUI", "duedate": "2024-06-16T16:55:47+00:00", "coordonnees_geo": {"lon": 2.3542150855064397, "lat": 48.87287120589831}, "nom_arrondissement_communes": "Paris", "code_insee_commune": null}, {"stationcode": "21506", "name": "Maurice Payret-Dortail", "is_installed": "OUI", "capacity": 22, "numdocksavailable": 16, "numbikesavailable": 6, "mechanical": 1, "ebike": 5, "is_renting": "OUI", "is_returning": "OUI", "duedate": "2024-06-16T16:54:24+00:00", "coordonnees_geo": {"lon": 2.2233625128865246, "lat": 48.87811957063342}, "nom_arrondissement_communes": "Suresnes", "code_insee_commune": null}, {"stationcode": "4103", "name": "Archives - Rivoli", "is_installed": "OUI", "capacity": 25, "numdocksavailable": 19, "numbikesavailable": 5, "mechanical": 1, "ebike": 4, "is_renting": "OUI", "is_returning": "OUI", "duedate": "2024-06-16T16:54:41+00:00", "coordonnees_geo": {"lon": 2.3539767041802, "lat": 48.857346707443}, "nom_arrondissement_communes": "Paris", "code_insee_commune": null}, {"stationcode": "14103", "name": "Maine - Liancourt", "is_installed": "OUI", "capacity": 27, "numdocksavailable": 24, "numbikesavailable": 3, "mechanical": 1, "ebike": 2, "is_renting": "OUI", "is_returning": "OUI", "duedate": "2024-06-16T16:52:46+00:00", "coordonnees_geo": {"lon": 2.323731449974, "lat": 48.835064363954}, "nom_arrondissement_communes": "Paris", "code_insee_commune": null}, {"stationcode": "3001", "name": "Beaumarchais - Saint-Gilles", "is_installed": "OUI", "capacity": 51, "numdocksavailable": 24, "numbikesavailable": 27, "mechanical": 18, "ebike": 9, "is_renting": "OUI", "is_returning": "OUI", "duedate": "2024-06-16T16:55:38+00:00", "coordonnees_geo": {"lon": 2.3679352, "lat": 48.8580378}, "nom_arrondissement_communes": "Paris", "code_insee_commune": null}, {"stationcode": "2003", "name": "Saint-Denis - R\u00e9aumur", "is_installed": "OUI", "capacity": 32, "numdocksavailable": 11, "numbikesavailable": 20, "mechanical": 17, "ebike": 3, "is_renting": "OUI", "is_returning": "OUI", "duedate": "2024-06-16T16:55:00+00:00", "coordonnees_geo": {"lon": 2.3507790675507594, "lat": 48.8661116315789}, "nom_arrondissement_communes": "Paris", "code_insee_commune": null}, {"stationcode": "22503", "name": "Joffre - Aigle", "is_installed": "OUI", "capacity": 20, "numdocksavailable": 11, "numbikesavailable": 9, "mechanical": 6, "ebike": 3, "is_renting": "OUI", "is_returning": "OUI", "duedate": "2024-06-16T16:54:28+00:00", "coordonnees_geo": {"lon": 2.245096, "lat": 48.904033}, "nom_arrondissement_communes": "La Garenne-Colombes", "code_insee_commune": null}, {"stationcode": "1102", "name": "Fran\u00e7aise - Etienne Marcel", "is_installed": "OUI", "capacity": 37, "numdocksavailable": 0, "numbikesavailable": 36, "mechanical": 34, "ebike": 2, "is_renting": "OUI", "is_returning": "OUI", "duedate": "2024-06-16T16:55:29+00:00", "coordonnees_geo": {"lon": 2.347587011754513, "lat": 48.864053304653766}, "nom_arrondissement_communes": "Paris", "code_insee_commune": null}, {"stationcode": "13017", "name": "Nationale - Vincent Auriol", "is_installed": "OUI", "capacity": 33, "numdocksavailable": 13, "numbikesavailable": 19, "mechanical": 8, "ebike": 11, "is_renting": "OUI", "is_returning": "OUI", "duedate": "2024-06-16T16:53:20+00:00", "coordonnees_geo": {"lon": 2.362354410392119, "lat": 48.83252708397293}, "nom_arrondissement_communes": "Paris", "code_insee_commune": null}, {"stationcode": "12020", "name": "Cours de Vincennes - Soult", "is_installed": "OUI", "capacity": 45, "numdocksavailable": 32, "numbikesavailable": 13, "mechanical": 10, "ebike": 3, "is_renting": "OUI", "is_returning": "OUI", "duedate": "2024-06-16T16:55:49+00:00", "coordonnees_geo": {"lon": 2.4105220288038, "lat": 48.846918761569}, "nom_arrondissement_communes": "Paris", "code_insee_commune": null}, {"stationcode": "2021", "name": "Cl\u00e9ry - Montmartre", "is_installed": "OUI", "capacity": 44, "numdocksavailable": 23, "numbikesavailable": 21, "mechanical": 15, "ebike": 6, "is_renting": "OUI", "is_returning": "OUI", "duedate": "2024-06-16T16:54:27+00:00", "coordonnees_geo": {"lon": 2.3445211, "lat": 48.867458}, "nom_arrondissement_communes": "Paris", "code_insee_commune": null}]