[{"stationcode": "21703", "name": "Square du Carrefour de l'Insurrection", "is_installed": "OUI", "capacity": 23, "numdocksavailable": 21, "numbikesavailable": 2, "mechanical": 1, "ebike": 1, "is_renting": "OUI", "is_returning": "OUI", "duedate": "2024-06-17T12:56:19+00:00", "coordonnees_geo": {"lon": 2.291113436222077, "lat": 48.820864559770676}, "nom_arrondissement_communes": "Vanves", "code_insee_commune": null}, {"stationcode": "35017", "name": "Toffier Decaux - Cartier Bresson", "is_installed": "OUI", "capacity": 18, "numdocksavailable": 5, "numbikesavailable": 12, "mechanical": 8, "ebike": 4, "is_renting": "OUI", "is_returning": "OUI", "duedate": "2024-06-17T12:53:48+00:00", "coordonnees_geo": {"lon": 2.4017545580863957, "lat": 48.90165072551549}, "nom_arrondissement_communes": "Pantin", "code_insee_commune": null}, {"stationcode": "16021", "name": "Fran\u00e7ois Ponsard - La Muette", "is_installed": "OUI", "capacity": 23, "numdocksavailable": 15, "numbikesavailable": 7, "mechanical": 3, "ebike": 4, "is_renting": "OUI", "is_returning": "OUI", "duedate": "2024-06-17T12:57:34+00:00", "coordonnees_geo": {"lon": 2.2744515, "lat": 48.8583666}, "nom_arrondissement_communes": "Paris", "code_insee_commune": null}, {"stationcode": "9031", "name": "Provence - Chauss\u00e9e d'Antin", "is_installed": "OUI", "capacity": 25, "numdocksavailable": 0, "numbikesavailable": 25, "mechanical": 8, "ebike": 17, "is_renting": "OUI", "is_returning": "OUI", "duedate": "2024-06-17T12:57:57+00:00", "coordonnees_geo": {"lon": 2.332976511564311, "lat": 48.87428447542072}, "nom_arrondissement_communes": "Paris", "code_insee_commune": null}, {"stationcode": "15035", "name": "Place Etienne Pernet", "is_installed": "OUI", "capacity": 43, "numdocksavailable": 32, "numbikesavailable": 10, "mechanical": 8, "ebike": 2, "is_renting": "OUI", "is_returning": "OUI", "duedate": "2024-06-17T12:57:48+00:00", "coordonnees_geo": {"lon": 2.2921819612383847, "lat": 48.84243457133779}, "nom_arrondissement_communes": "Paris", "code_insee_commune": null}, {"stationcode": "18049", "name": "Porte d'Aubervilliers", "is_installed": "OUI", "capacity": 55, "numdocksavailable": 31, "numbikesavailable": 22, "mechanical": 18, "ebike": 4, "is_renting": "OUI", "is_returning": "OUI", "duedate": "2024-06-17T12:57:50+00:00", "coordonnees_geo": {"lon": 2.3689722642302513, "lat": 48.89859661942376}, "nom_arrondissement_communes": "Paris", "code_insee_commune": null}, {"stationcode": "11041", "name": "Square Saint-Ambroise", "is_installed": "OUI", "capacity": 43, "numdocksavailable": 31, "numbikesavailable": 8, "mechanical": 4, "ebike": 4, "is_renting": "OUI", "is_returning": "OUI", "duedate": "2024-06-17T12:55:26+00:00", "coordonnees_geo": {"lon": 2.375841, "lat": 48.860934}, "nom_arrondissement_communes": "Paris", "code_insee_commune": null}, {"stationcode": "19127", "name": "Aubervilliers - Curial", "is_installed": "OUI", "capacity": 23, "numdocksavailable": 20, "numbikesavailable": 3, "mechanical": 1, "ebike": 2, "is_renting": "OUI", "is_returning": "OUI", "duedate": "2024-06-17T12:58:04+00:00", "coordonnees_geo": {"lon": 2.3688579350709915, "lat": 48.89088305227546}, "nom_arrondissement_communes": "Paris", "code_insee_commune": null}, {"stationcode": "14112", "name": "M\u00e9chain - Faubourg Saint-Jacques", "is_installed": "OUI", "capacity": 16, "numdocksavailable": 13, "numbikesavailable": 3, "mechanical": 0, "ebike": 3, "is_renting": "OUI", "is_returning": "OUI", "duedate": "2024-06-17T12:55:10+00:00", "coordonnees_geo": {"lon": 2.33798034198275, "lat": 48.83586772099485}, "nom_arrondissement_communes": "Paris", "code_insee_commune": null}, {"stationcode": "47004", "name": "Stade Auguste Delaune", "is_installed": "OUI", "capacity": 21, "numdocksavailable": 12, "numbikesavailable": 9, "mechanical": 4, "ebike": 5, "is_renting": "OUI", "is_returning": "OUI", "duedate": "2024-06-17T12:55:59+00:00", "coordonnees_geo": {"lon": 2.4345204234123234, "lat": 48.80896378683884}, "nom_arrondissement_communes": "Maisons-Alfort", "code_insee_commune": null}, {"stationcode": "9026", "name": "Jean-Baptiste Pigalle - La Bruyere", "is_installed": "OUI", "capacity": 17, "numdocksavailable": 15, "numbikesavailable": 2, "mechanical": 0, "ebike": 2, "is_renting": "OUI", "is_returning": "OUI", "duedate": "2024-06-17T12:58:07+00:00", "coordonnees_geo": {"lon": 2.333709173337285, "lat": 48.87939826447722}, "nom_arrondissement_communes": "Paris", "code_insee_commune": null}, {"stationcode": "21001", "name": "Transvaal - Charles de Gaulle", "is_installed": "OUI", "capacity": 27, "numdocksavailable": 11, "numbikesavailable": 16, "mechanical": 15, "ebike": 1, "is_renting": "OUI", "is_returning": "OUI", "duedate": "2024-06-17T12:58:09+00:00", "coordonnees_geo": {"lon": 2.2373420120857195, "lat": 48.848280403628806}, "nom_arrondissement_communes": "Boulogne-Billancourt", "code_insee_commune": null}, {"stationcode": "15002", "name": "Maine - Antoine Bourdelle", "is_installed": "OUI", "capacity": 17, "numdocksavailable": 17, "numbikesavailable": 0, "mechanical": 0, "ebike": 0, "is_renting": "OUI", "is_returning": "OUI", "duedate": "2024-06-17T12:53:27+00:00", "coordonnees_geo": {"lon": 2.320263946784738, "lat": 48.84308531746595}, "nom_arrondissement_communes": "Paris", "code_insee_commune": null}, {"stationcode": "23007", "name": "Pr\u00e9sident Wilson - Jean Jaures", "is_installed": "OUI", "capacity": 27, "numdocksavailable": 14, "numbikesavailable": 13, "mechanical": 7, "ebike": 6, "is_renting": "OUI", "is_returning": "OUI", "duedate": "2024-06-17T12:54:26+00:00", "coordonnees_geo": {"lon": 2.2920683026313786, "lat": 48.89034054052266}, "nom_arrondissement_communes": "Levallois-Perret", "code_insee_commune": null}, {"stationcode": "20016", "name": "Pyr\u00e9n\u00e9es - Mara\u00eechers", "is_installed": "OUI", "capacity": 19, "numdocksavailable": 16, "numbikesavailable": 2, "mechanical": 0, "ebike": 2, "is_renting": "OUI", "is_returning": "OUI", "duedate": "2024-06-17T12:54:47+00:00", "coordonnees_geo": {"lon": 2.4043509364128113, "lat": 48.85714001395299}, "nom_arrondissement_communes": "Paris", "code_insee_commune": null}, {"stationcode": "10010", "name": "Place Jacques Bonsergent", "is_installed": "OUI", "capacity": 33, "numdocksavailable": 7, "numbikesavailable": 25, "mechanical": 21, "ebike": 4, "is_renting": "OUI", "is_returning": "OUI", "duedate": "2024-06-17T12:58:01+00:00", "coordonnees_geo": {"lon": 2.3612049221992, "lat": 48.870948218595}, "nom_arrondissement_communes": "Paris", "code_insee_commune": null}, {"stationcode": "5121", "name": "Square Ren\u00e9 Viviani - Montebello", "is_installed": "OUI", "capacity": 34, "numdocksavailable": 1, "numbikesavailable": 32, "mechanical": 26, "ebike": 6, "is_renting": "OUI", "is_returning": "OUI", "duedate": "2024-06-17T12:58:13+00:00", "coordonnees_geo": {"lon": 2.347842156887055, "lat": 48.851904891406384}, "nom_arrondissement_communes": "Paris", "code_insee_commune": null}, {"stationcode": "20116", "name": "Haies - R\u00e9union", "is_installed": "OUI", "capacity": 16, "numdocksavailable": 15, "numbikesavailable": 1, "mechanical": 0, "ebike": 1, "is_renting": "OUI", "is_returning": "OUI", "duedate": "2024-06-17T12:53:18+00:00", "coordonnees_geo": {"lon": 2.402426162238911, "lat": 48.85386896766491}, "nom_arrondissement_communes": "Paris", "code_insee_commune": null}, {"stationcode": "6107", "name": "Place Alphonse Deville", "is_installed": "OUI", "capacity": 23, "numdocksavailable": 10, "numbikesavailable": 13, "mechanical": 10, "ebike": 3, "is_renting": "OUI", "is_returning": "OUI", "duedate": "2024-06-17T12:58:03+00:00", "coordonnees_geo": {"lon": 2.3275961726904, "lat": 48.850188262662}, "nom_arrondissement_communes": "Paris", "code_insee_commune": null}, {"stationcode": "32004", "name": "Wilson - Landy", "is_installed": "OUI", "capacity": 40, "numdocksavailable": 26, "numbikesavailable": 14, "mechanical": 9, "ebike": 5, "is_renting": "OUI", "is_returning": "OUI", "duedate": "2024-06-17T12:56:29+00:00", "coordonnees_geo": {"lon": 2.357633225619793, "lat": 48.91516726221354}, "nom_arrondissement_communes": "Saint-Denis", "code_insee_commune": null}, {"stationcode": "7008", "name": "Villersexel - Saint-Germain", "is_installed": "OUI", "capacity": 16, "numdocksavailable": 6, "numbikesavailable": 9, "mechanical": 7, "ebike": 2, "is_renting": "OUI", "is_returning": "OUI", "duedate": "2024-06-17T12:56:35+00:00", "coordonnees_geo": {"lon": 2.3237934708595, "lat": 48.858297001218}, "nom_arrondissement_communes": "Paris", "code_insee_commune": null}, {"stationcode": "16112", "name": "Chernoviz - Raynouard", "is_installed": "OUI", "capacity": 37, "numdocksavailable": 35, "numbikesavailable": 1, "mechanical": 0, "ebike": 1, "is_renting": "OUI", "is_returning": "OUI", "duedate": "2024-06-17T12:55:14+00:00", "coordonnees_geo": {"lon": 2.282173218142987, "lat": 48.8569864146289}, "nom_arrondissement_communes": "Paris", "code_insee_commune": null}, {"stationcode": "42703", "name": "Fontainebleau - Edmond Michelet", "is_installed": "OUI", "capacity": 45, "numdocksavailable": 41, "numbikesavailable": 4, "mechanical": 2, "ebike": 2, "is_renting": "OUI", "is_returning": "OUI", "duedate": "2024-06-17T12:52:10+00:00", "coordonnees_geo": {"lon": 2.3626908659935, "lat": 48.80956436844049}, "nom_arrondissement_communes": "Le Kremlin-Bic\u00eatre", "code_insee_commune": null}, {"stationcode": "14030", "name": "Pernety - Raymond Losserand", "is_installed": "OUI", "capacity": 32, "numdocksavailable": 29, "numbikesavailable": 3, "mechanical": 2, "ebike": 1, "is_renting": "OUI", "is_returning": "OUI", "duedate": "2024-06-17T12:54:01+00:00", "coordonnees_geo": {"lon": 2.317609339387, "lat": 48.834254627953}, "nom_arrondissement_communes": "Paris", "code_insee_commune": null}, {"stationcode": "20201", "name": "Eug\u00e8ne Reisz - Davout", "is_installed": "OUI", "capacity": 20, "numdocksavailable": 18, "numbikesavailable": 0, "mechanical": 0, "ebike": 0, "is_renting": "OUI", "is_returning": "OUI", "duedate": "2024-06-17T12:56:39+00:00", "coordonnees_geo": {"lon": 2.410396970808506, "lat": 48.85631874632638}, "nom_arrondissement_communes": "Paris", "code_insee_commune": null}, {"stationcode": "22102", "name": "Mont Val\u00e9rien - Michel Salles", "is_installed": "OUI", "capacity": 24, "numdocksavailable": 22, "numbikesavailable": 2, "mechanical": 1, "ebike": 1, "is_renting": "OUI", "is_returning": "OUI", "duedate": "2024-06-17T12:56:30+00:00", "coordonnees_geo": {"lon": 2.2152966, "lat": 48.8561915}, "nom_arrondissement_communes": "Saint-Cloud", "code_insee_commune": null}, {"stationcode": "15003", "name": "Gare Montparnasse - Vaugirard", "is_installed": "OUI", "capacity": 66, "numdocksavailable": 61, "numbikesavailable": 5, "mechanical": 2, "ebike": 3, "is_renting": "OUI", "is_returning": "OUI", "duedate": "2024-06-17T12:57:53+00:00", "coordonnees_geo": {"lon": 2.31951002690117, "lat": 48.8418071798797}, "nom_arrondissement_communes": "Paris", "code_insee_commune": null}, {"stationcode": "4110", "name": "Neuve Saint-Pierre - Beautreillis", "is_installed": "OUI", "capacity": 20, "numdocksavailable": 8, "numbikesavailable": 10, "mechanical": 8, "ebike": 2, "is_renting": "OUI", "is_returning": "OUI", "duedate": "2024-06-17T12:56:18+00:00", "coordonnees_geo": {"lon": 2.3639122769236565, "lat": 48.85355351439652}, "nom_arrondissement_communes": "Paris", "code_insee_commune": null}, {"stationcode": "6032", "name": "Sabot - Rennes", "is_installed": "OUI", "capacity": 26, "numdocksavailable": 18, "numbikesavailable": 8, "mechanical": 5, "ebike": 3, "is_renting": "OUI", "is_returning": "OUI", "duedate": "2024-06-17T12:56:21+00:00", "coordonnees_geo": {"lon": 2.331552766263485, "lat": 48.852575112948415}, "nom_arrondissement_communes": "Paris", "code_insee_commune": null}, {"stationcode": "7020", "name": "Champ de Mars - Cler", "is_installed": "OUI", "capacity": 40, "numdocksavailable": 9, "numbikesavailable": 29, "mechanical": 28, "ebike": 1, "is_renting": "OUI", "is_returning": "OUI", "duedate": "2024-06-17T12:57:32+00:00", "coordonnees_geo": {"lon": 2.306646779179573, "lat": 48.856691550115315}, "nom_arrondissement_communes": "Paris", "code_insee_commune": null}, {"stationcode": "23304", "name": "Mairie de Sceaux", "is_installed": "OUI", "capacity": 33, "numdocksavailable": 20, "numbikesavailable": 13, "mechanical": 5, "ebike": 8, "is_renting": "OUI", "is_returning": "OUI", "duedate": "2024-06-17T12:56:57+00:00", "coordonnees_geo": {"lon": 2.2887361764861, "lat": 48.778916905132}, "nom_arrondissement_communes": "Sceaux", "code_insee_commune": null}, {"stationcode": "13103", "name": "H\u00f4pital Piti\u00e9 Salp\u00eatri\u00e8re", "is_installed": "OUI", "capacity": 50, "numdocksavailable": 31, "numbikesavailable": 19, "mechanical": 17, "ebike": 2, "is_renting": "OUI", "is_returning": "OUI", "duedate": "2024-06-17T12:57:36+00:00", "coordonnees_geo": {"lon": 2.3604946, "lat": 48.8377016}, "nom_arrondissement_communes": "Paris", "code_insee_commune": null}, {"stationcode": "12161", "name": "Diderot - Reuilly", "is_installed": "OUI", "capacity": 44, "numdocksavailable": 24, "numbikesavailable": 19, "mechanical": 18, "ebike": 1, "is_renting": "OUI", "is_returning": "OUI", "duedate": "2024-06-17T12:55:44+00:00", "coordonnees_geo": {"lon": 2.3861273378134, "lat": 48.847208456061}, "nom_arrondissement_communes": "Paris", "code_insee_commune": null}, {"stationcode": "15107", "name": "Palais des Sports", "is_installed": "OUI", "capacity": 22, "numdocksavailable": 2, "numbikesavailable": 20, "mechanical": 18, "ebike": 2, "is_renting": "OUI", "is_returning": "OUI", "duedate": "2024-06-17T12:56:50+00:00", "coordonnees_geo": {"lon": 2.2858720645308, "lat": 48.833468517426}, "nom_arrondissement_communes": "Paris", "code_insee_commune": null}, {"stationcode": "9101", "name": "Cadet - La Fayette", "is_installed": "OUI", "capacity": 19, "numdocksavailable": 2, "numbikesavailable": 16, "mechanical": 8, "ebike": 8, "is_renting": "OUI", "is_returning": "OUI", "duedate": "2024-06-17T12:57:57+00:00", "coordonnees_geo": {"lon": 2.3435704037547, "lat": 48.875601632672}, "nom_arrondissement_communes": "Paris", "code_insee_commune": null}, {"stationcode": "11043", "name": "Place Pasdeloup", "is_installed": "OUI", "capacity": 21, "numdocksavailable": 1, "numbikesavailable": 20, "mechanical": 16, "ebike": 4, "is_renting": "OUI", "is_returning": "OUI", "duedate": "2024-06-17T12:57:34+00:00", "coordonnees_geo": {"lon": 2.3670325062844, "lat": 48.862654215631}, "nom_arrondissement_communes": "Paris", "code_insee_commune": null}, {"stationcode": "21114", "name": "Gustave Eiffel - Parc des Impressionnistes", "is_installed": "OUI", "capacity": 30, "numdocksavailable": 23, "numbikesavailable": 6, "mechanical": 5, "ebike": 1, "is_renting": "OUI", "is_returning": "OUI", "duedate": "2024-06-17T12:55:22+00:00", "coordonnees_geo": {"lon": 2.2946908324956894, "lat": 48.90390619651018}, "nom_arrondissement_communes": "Clichy", "code_insee_commune": null}, {"stationcode": "23903", "name": "Stade Gaston Bouillant", "is_installed": "OUI", "capacity": 30, "numdocksavailable": 11, "numbikesavailable": 17, "mechanical": 4, "ebike": 13, "is_renting": "OUI", "is_returning": "OUI", "duedate": "2024-06-17T12:57:53+00:00", "coordonnees_geo": {"lon": 2.3279571813836, "lat": 48.939958667023}, "nom_arrondissement_communes": "Villeneuve-la-Garenne", "code_insee_commune": null}, {"stationcode": "7013", "name": "Duroc - Place de Breteuil", "is_installed": "OUI", "capacity": 42, "numdocksavailable": 21, "numbikesavailable": 21, "mechanical": 20, "ebike": 1, "is_renting": "OUI", "is_returning": "OUI", "duedate": "2024-06-17T12:58:11+00:00", "coordonnees_geo": {"lon": 2.3126140236855, "lat": 48.847460641142}, "nom_arrondissement_communes": "Paris", "code_insee_commune": null}, {"stationcode": "21311", "name": "Parvis Corentin Celton", "is_installed": "OUI", "capacity": 55, "numdocksavailable": 3, "numbikesavailable": 50, "mechanical": 49, "ebike": 1, "is_renting": "OUI", "is_returning": "OUI", "duedate": "2024-06-17T12:58:14+00:00", "coordonnees_geo": {"lon": 2.2784319519996648, "lat": 48.82747252522725}, "nom_arrondissement_communes": "Issy-les-Moulineaux", "code_insee_commune": null}, {"stationcode": "12041", "name": "Bois de Vincennes.", "is_installed": "OUI", "capacity": 60, "numdocksavailable": 45, "numbikesavailable": 14, "mechanical": 13, "ebike": 1, "is_renting": "OUI", "is_returning": "OUI", "duedate": "2024-06-17T12:57:09+00:00", "coordonnees_geo": {"lon": 2.4132221, "lat": 48.8338064}, "nom_arrondissement_communes": "Saint-Mand\u00e9", "code_insee_commune": null}, {"stationcode": "23403", "name": "Chateau", "is_installed": "OUI", "capacity": 22, "numdocksavailable": 11, "numbikesavailable": 11, "mechanical": 7, "ebike": 4, "is_renting": "OUI", "is_returning": "OUI", "duedate": "2024-06-17T12:58:00+00:00", "coordonnees_geo": {"lon": 2.3135878035462, "lat": 48.774661399959}, "nom_arrondissement_communes": "Bourg-la-Reine", "code_insee_commune": null}, {"stationcode": "4011", "name": "H\u00f4tel de Ville - Pont-Marie", "is_installed": "OUI", "capacity": 36, "numdocksavailable": 18, "numbikesavailable": 18, "mechanical": 7, "ebike": 11, "is_renting": "OUI", "is_returning": "OUI", "duedate": "2024-06-17T12:51:56+00:00", "coordonnees_geo": {"lon": 2.3569472506642, "lat": 48.853899645527}, "nom_arrondissement_communes": "Paris", "code_insee_commune": null}, {"stationcode": "31023", "name": "Place Fran\u00e7ois Mitterand", "is_installed": "OUI", "capacity": 34, "numdocksavailable": 29, "numbikesavailable": 5, "mechanical": 1, "ebike": 4, "is_renting": "OUI", "is_returning": "OUI", "duedate": "2024-06-17T12:54:23+00:00", "coordonnees_geo": {"lon": 2.442958317697048, "lat": 48.86492782016328}, "nom_arrondissement_communes": "Montreuil", "code_insee_commune": null}, {"stationcode": "9118", "name": "Faubourg Poissonniere - Delta", "is_installed": "OUI", "capacity": 36, "numdocksavailable": 34, "numbikesavailable": 1, "mechanical": 0, "ebike": 1, "is_renting": "OUI", "is_returning": "OUI", "duedate": "2024-06-17T12:57:46+00:00", "coordonnees_geo": {"lon": 2.3497482016682625, "lat": 48.882555807626765}, "nom_arrondissement_communes": "Paris", "code_insee_commune": null}, {"stationcode": "10163", "name": "Gare du Nord - Demarquay", "is_installed": "OUI", "capacity": 30, "numdocksavailable": 23, "numbikesavailable": 7, "mechanical": 3, "ebike": 4, "is_renting": "OUI", "is_returning": "OUI", "duedate": "2024-06-17T12:51:47+00:00", "coordonnees_geo": {"lon": 2.358411, "lat": 48.881154}, "nom_arrondissement_communes": "Paris", "code_insee_commune": null}, {"stationcode": "12108", "name": "Bercy.", "is_installed": "OUI", "capacity": 66, "numdocksavailable": 10, "numbikesavailable": 54, "mechanical": 42, "ebike": 12, "is_renting": "OUI", "is_returning": "OUI", "duedate": "2024-06-17T12:57:49+00:00", "coordonnees_geo": {"lon": 2.3788625746965, "lat": 48.839966914994}, "nom_arrondissement_communes": "Paris", "code_insee_commune": null}, {"stationcode": "7101", "name": "Raspail - Chomel", "is_installed": "OUI", "capacity": 49, "numdocksavailable": 15, "numbikesavailable": 34, "mechanical": 18, "ebike": 16, "is_renting": "OUI", "is_returning": "OUI", "duedate": "2024-06-17T12:57:58+00:00", "coordonnees_geo": {"lon": 2.3266580700874, "lat": 48.852233164303}, "nom_arrondissement_communes": "Paris", "code_insee_commune": null}, {"stationcode": "8056", "name": "Beaujon - Wagram", "is_installed": "OUI", "capacity": 29, "numdocksavailable": 27, "numbikesavailable": 2, "mechanical": 1, "ebike": 1, "is_renting": "OUI", "is_returning": "OUI", "duedate": "2024-06-17T12:52:17+00:00", "coordonnees_geo": {"lon": 2.2964416444302, "lat": 48.875352455985}, "nom_arrondissement_communes": "Paris", "code_insee_commune": null}, {"stationcode": "18138", "name": "Station Paris Basketball - Ney - Charles Hermite", "is_installed": "OUI", "capacity": 20, "numdocksavailable": 8, "numbikesavailable": 11, "mechanical": 7, "ebike": 4, "is_renting": "OUI", "is_returning": "OUI", "duedate": "2024-06-17T12:57:31+00:00", "coordonnees_geo": {"lon": 2.3645754531026, "lat": 48.898748039775}, "nom_arrondissement_communes": "Paris", "code_insee_commune": null}, {"stationcode": "13041", "name": "Porte d'Ivry", "is_installed": "OUI", "capacity": 50, "numdocksavailable": 34, "numbikesavailable": 16, "mechanical": 14, "ebike": 2, "is_renting": "OUI", "is_returning": "OUI", "duedate": "2024-06-17T12:54:55+00:00", "coordonnees_geo": {"lon": 2.3688706755638, "lat": 48.821768747596}, "nom_arrondissement_communes": "Paris", "code_insee_commune": null}, {"stationcode": "13010", "name": "Place d'Italie - Vincent Auriol", "is_installed": "OUI", "capacity": 40, "numdocksavailable": 33, "numbikesavailable": 6, "mechanical": 1, "ebike": 5, "is_renting": "OUI", "is_returning": "OUI", "duedate": "2024-06-17T12:57:40+00:00", "coordonnees_geo": {"lon": 2.3567550292319, "lat": 48.831481874467}, "nom_arrondissement_communes": "Paris", "code_insee_commune": null}, {"stationcode": "14006", "name": "Saint-Jacques - Tombe Issoire", "is_installed": "OUI", "capacity": 23, "numdocksavailable": 19, "numbikesavailable": 4, "mechanical": 0, "ebike": 4, "is_renting": "OUI", "is_returning": "OUI", "duedate": "2024-06-17T12:53:02+00:00", "coordonnees_geo": {"lon": 2.3369108140468597, "lat": 48.833206330538864}, "nom_arrondissement_communes": "Paris", "code_insee_commune": null}, {"stationcode": "20202", "name": "Dupont de l'Eure - Gambetta", "is_installed": "OUI", "capacity": 31, "numdocksavailable": 29, "numbikesavailable": 1, "mechanical": 0, "ebike": 1, "is_renting": "OUI", "is_returning": "OUI", "duedate": "2024-06-17T12:57:03+00:00", "coordonnees_geo": {"lon": 2.4003649, "lat": 48.8679385}, "nom_arrondissement_communes": "Paris", "code_insee_commune": null}, {"stationcode": "11034", "name": "Parmentier - Fontaine au Roi", "is_installed": "OUI", "capacity": 48, "numdocksavailable": 41, "numbikesavailable": 7, "mechanical": 3, "ebike": 4, "is_renting": "OUI", "is_returning": "OUI", "duedate": "2024-06-17T12:52:48+00:00", "coordonnees_geo": {"lon": 2.372705978671471, "lat": 48.86787670551736}, "nom_arrondissement_communes": "Paris", "code_insee_commune": null}, {"stationcode": "1016", "name": "Th\u00e9r\u00e8se - Op\u00e9ra", "is_installed": "OUI", "capacity": 25, "numdocksavailable": 2, "numbikesavailable": 23, "mechanical": 19, "ebike": 4, "is_renting": "OUI", "is_returning": "OUI", "duedate": "2024-06-17T12:56:30+00:00", "coordonnees_geo": {"lon": 2.3344334212238, "lat": 48.866483514509}, "nom_arrondissement_communes": "Paris", "code_insee_commune": null}, {"stationcode": "9012", "name": "Rougemont - Poissonni\u00e8re", "is_installed": "OUI", "capacity": 30, "numdocksavailable": 2, "numbikesavailable": 28, "mechanical": 27, "ebike": 1, "is_renting": "OUI", "is_returning": "OUI", "duedate": "2024-06-17T12:58:00+00:00", "coordonnees_geo": {"lon": 2.345873080193996, "lat": 48.871611569354755}, "nom_arrondissement_communes": "Paris", "code_insee_commune": null}, {"stationcode": "15020", "name": "Mairie du 15\u00e8me", "is_installed": "OUI", "capacity": 32, "numdocksavailable": 28, "numbikesavailable": 3, "mechanical": 0, "ebike": 3, "is_renting": "OUI", "is_returning": "OUI", "duedate": "2024-06-17T12:55:49+00:00", "coordonnees_geo": {"lon": 2.2986539, "lat": 48.8417762}, "nom_arrondissement_communes": "Paris", "code_insee_commune": null}, {"stationcode": "41206", "name": "Place des Larris", "is_installed": "OUI", "capacity": 34, "numdocksavailable": 30, "numbikesavailable": 4, "mechanical": 0, "ebike": 4, "is_renting": "OUI", "is_returning": "OUI", "duedate": "2024-06-17T12:54:32+00:00", "coordonnees_geo": {"lon": 2.4780236, "lat": 48.8568363}, "nom_arrondissement_communes": "Fontenay-sous-Bois", "code_insee_commune": null}, {"stationcode": "13113", "name": "Vistule - Choisy", "is_installed": "OUI", "capacity": 33, "numdocksavailable": 28, "numbikesavailable": 5, "mechanical": 0, "ebike": 5, "is_renting": "OUI", "is_returning": "OUI", "duedate": "2024-06-17T12:56:44+00:00", "coordonnees_geo": {"lon": 2.3615723848342896, "lat": 48.82365543660611}, "nom_arrondissement_communes": "Paris", "code_insee_commune": null}, {"stationcode": "19031", "name": "Manin - Crim\u00e9e", "is_installed": "OUI", "capacity": 23, "numdocksavailable": 18, "numbikesavailable": 5, "mechanical": 3, "ebike": 2, "is_renting": "OUI", "is_returning": "OUI", "duedate": "2024-06-17T12:56:32+00:00", "coordonnees_geo": {"lon": 2.3863670602440834, "lat": 48.8831217743719}, "nom_arrondissement_communes": "Paris", "code_insee_commune": null}, {"stationcode": "23008", "name": "H\u00f4tel de Ville de Levallois Perret", "is_installed": "OUI", "capacity": 26, "numdocksavailable": 17, "numbikesavailable": 8, "mechanical": 3, "ebike": 5, "is_renting": "OUI", "is_returning": "OUI", "duedate": "2024-06-17T12:55:55+00:00", "coordonnees_geo": {"lon": 2.2888818383216862, "lat": 48.89314451997415}, "nom_arrondissement_communes": "Levallois-Perret", "code_insee_commune": null}, {"stationcode": "7026", "name": "Place de Finlande", "is_installed": "OUI", "capacity": 25, "numdocksavailable": 4, "numbikesavailable": 19, "mechanical": 16, "ebike": 3, "is_renting": "OUI", "is_returning": "OUI", "duedate": "2024-06-17T12:56:23+00:00", "coordonnees_geo": {"lon": 2.3113624379039, "lat": 48.862408335967}, "nom_arrondissement_communes": "Paris", "code_insee_commune": null}, {"stationcode": "6014", "name": "Pont de Lodi - Dauphine", "is_installed": "OUI", "capacity": 23, "numdocksavailable": 7, "numbikesavailable": 14, "mechanical": 11, "ebike": 3, "is_renting": "OUI", "is_returning": "OUI", "duedate": "2024-06-17T12:53:04+00:00", "coordonnees_geo": {"lon": 2.339947307565249, "lat": 48.855296898603285}, "nom_arrondissement_communes": "Paris", "code_insee_commune": null}, {"stationcode": "31018", "name": "Gambetta - Michelet", "is_installed": "OUI", "capacity": 33, "numdocksavailable": 27, "numbikesavailable": 5, "mechanical": 1, "ebike": 4, "is_renting": "OUI", "is_returning": "OUI", "duedate": "2024-06-17T12:57:34+00:00", "coordonnees_geo": {"lon": 2.429966032505036, "lat": 48.85273792380526}, "nom_arrondissement_communes": "Montreuil", "code_insee_commune": null}, {"stationcode": "2110", "name": "Je\u00fbneurs - Mulhouse", "is_installed": "OUI", "capacity": 28, "numdocksavailable": 2, "numbikesavailable": 25, "mechanical": 21, "ebike": 4, "is_renting": "OUI", "is_returning": "OUI", "duedate": "2024-06-17T12:58:09+00:00", "coordonnees_geo": {"lon": 2.346925, "lat": 48.868997}, "nom_arrondissement_communes": "Paris", "code_insee_commune": null}, {"stationcode": "10164", "name": "Claude Vellefaux - Sambre et Meuse", "is_installed": "OUI", "capacity": 34, "numdocksavailable": 29, "numbikesavailable": 3, "mechanical": 1, "ebike": 2, "is_renting": "OUI", "is_returning": "OUI", "duedate": "2024-06-17T12:53:05+00:00", "coordonnees_geo": {"lon": 2.370478, "lat": 48.875022}, "nom_arrondissement_communes": "Paris", "code_insee_commune": null}, {"stationcode": "11107", "name": "Faidherbe - Dahomey", "is_installed": "OUI", "capacity": 44, "numdocksavailable": 18, "numbikesavailable": 24, "mechanical": 19, "ebike": 5, "is_renting": "OUI", "is_returning": "OUI", "duedate": "2024-06-17T12:49:32+00:00", "coordonnees_geo": {"lon": 2.383823134795429, "lat": 48.851358329771806}, "nom_arrondissement_communes": "Paris", "code_insee_commune": null}, {"stationcode": "2014", "name": "Daunou - Louis le Grand", "is_installed": "OUI", "capacity": 17, "numdocksavailable": 0, "numbikesavailable": 17, "mechanical": 6, "ebike": 11, "is_renting": "OUI", "is_returning": "OUI", "duedate": "2024-06-17T12:57:23+00:00", "coordonnees_geo": {"lon": 2.332515, "lat": 48.869113}, "nom_arrondissement_communes": "Paris", "code_insee_commune": null}, {"stationcode": "3101", "name": "Porte Saint-Martin", "is_installed": "OUI", "capacity": 34, "numdocksavailable": 3, "numbikesavailable": 29, "mechanical": 16, "ebike": 13, "is_renting": "OUI", "is_returning": "OUI", "duedate": "2024-06-17T12:58:10+00:00", "coordonnees_geo": {"lon": 2.35570102930069, "lat": 48.86860172112996}, "nom_arrondissement_communes": "Paris", "code_insee_commune": null}, {"stationcode": "8105", "name": "Fran\u00e7ois 1er - Lincoln", "is_installed": "OUI", "capacity": 31, "numdocksavailable": 4, "numbikesavailable": 27, "mechanical": 4, "ebike": 23, "is_renting": "OUI", "is_returning": "OUI", "duedate": "2024-06-17T12:57:05+00:00", "coordonnees_geo": {"lon": 2.3024262188416, "lat": 48.869517979344}, "nom_arrondissement_communes": "Paris", "code_insee_commune": null}, {"stationcode": "2101", "name": "Bachaumont - Montmartre", "is_installed": "OUI", "capacity": 33, "numdocksavailable": 0, "numbikesavailable": 28, "mechanical": 20, "ebike": 8, "is_renting": "OUI", "is_returning": "OUI", "duedate": "2024-06-17T12:53:52+00:00", "coordonnees_geo": {"lon": 2.3449775576591496, "lat": 48.86617395079137}, "nom_arrondissement_communes": "Paris", "code_insee_commune": null}, {"stationcode": "8049", "name": "Georges V - Fran\u00e7ois 1er", "is_installed": "OUI", "capacity": 22, "numdocksavailable": 0, "numbikesavailable": 21, "mechanical": 11, "ebike": 10, "is_renting": "OUI", "is_returning": "OUI", "duedate": "2024-06-17T12:56:58+00:00", "coordonnees_geo": {"lon": 2.30082, "lat": 48.87034}, "nom_arrondissement_communes": "Paris", "code_insee_commune": null}, {"stationcode": "12154", "name": "Square Georges Melies", "is_installed": "OUI", "capacity": 40, "numdocksavailable": 34, "numbikesavailable": 6, "mechanical": 1, "ebike": 5, "is_renting": "OUI", "is_returning": "OUI", "duedate": "2024-06-17T12:57:26+00:00", "coordonnees_geo": {"lon": 2.409667745232582, "lat": 48.84070239213081}, "nom_arrondissement_communes": "Paris", "code_insee_commune": null}, {"stationcode": "9015", "name": "Lamartine - Faubourg Montmartre", "is_installed": "OUI", "capacity": 32, "numdocksavailable": 12, "numbikesavailable": 19, "mechanical": 13, "ebike": 6, "is_renting": "OUI", "is_returning": "OUI", "duedate": "2024-06-17T12:57:16+00:00", "coordonnees_geo": {"lon": 2.339765690267086, "lat": 48.87661398289084}, "nom_arrondissement_communes": "Paris", "code_insee_commune": null}, {"stationcode": "22017", "name": "Charles de Gaulle - Louis Philippe", "is_installed": "OUI", "capacity": 28, "numdocksavailable": 3, "numbikesavailable": 25, "mechanical": 6, "ebike": 19, "is_renting": "OUI", "is_returning": "OUI", "duedate": "2024-06-17T12:57:20+00:00", "coordonnees_geo": {"lon": 2.2710045335353, "lat": 48.881742142181}, "nom_arrondissement_communes": "Neuilly-sur-Seine", "code_insee_commune": null}, {"stationcode": "17104", "name": "Jardin Marguerite Long", "is_installed": "OUI", "capacity": 22, "numdocksavailable": 11, "numbikesavailable": 11, "mechanical": 9, "ebike": 2, "is_renting": "OUI", "is_returning": "OUI", "duedate": "2024-06-17T12:55:46+00:00", "coordonnees_geo": {"lon": 2.2836575657129288, "lat": 48.8816985773914}, "nom_arrondissement_communes": "Paris", "code_insee_commune": null}, {"stationcode": "21004", "name": "Jean Jaur\u00e8s - Reine", "is_installed": "OUI", "capacity": 31, "numdocksavailable": 29, "numbikesavailable": 2, "mechanical": 1, "ebike": 1, "is_renting": "OUI", "is_returning": "OUI", "duedate": "2024-06-17T12:55:05+00:00", "coordonnees_geo": {"lon": 2.239872515201569, "lat": 48.84009622558849}, "nom_arrondissement_communes": "Boulogne-Billancourt", "code_insee_commune": null}, {"stationcode": "22002", "name": "Argenson - Ch\u00e2teau", "is_installed": "OUI", "capacity": 25, "numdocksavailable": 16, "numbikesavailable": 9, "mechanical": 2, "ebike": 7, "is_renting": "OUI", "is_returning": "OUI", "duedate": "2024-06-17T12:55:20+00:00", "coordonnees_geo": {"lon": 2.2642001509666447, "lat": 48.888559314669514}, "nom_arrondissement_communes": "Neuilly-sur-Seine", "code_insee_commune": null}, {"stationcode": "13022", "name": "Butte aux Cailles - Esperance", "is_installed": "OUI", "capacity": 36, "numdocksavailable": 31, "numbikesavailable": 5, "mechanical": 3, "ebike": 2, "is_renting": "OUI", "is_returning": "OUI", "duedate": "2024-06-17T12:58:10+00:00", "coordonnees_geo": {"lon": 2.3492151126265526, "lat": 48.82758774190948}, "nom_arrondissement_communes": "Paris", "code_insee_commune": null}, {"stationcode": "20045", "name": "Louis Ganne - Davout", "is_installed": "OUI", "capacity": 30, "numdocksavailable": 30, "numbikesavailable": 0, "mechanical": 0, "ebike": 0, "is_renting": "OUI", "is_returning": "OUI", "duedate": "2024-06-17T12:56:05+00:00", "coordonnees_geo": {"lon": 2.409725748002529, "lat": 48.86338720692607}, "nom_arrondissement_communes": "Paris", "code_insee_commune": null}, {"stationcode": "11110", "name": "Roquette - Folie Regnault", "is_installed": "OUI", "capacity": 52, "numdocksavailable": 43, "numbikesavailable": 5, "mechanical": 3, "ebike": 2, "is_renting": "OUI", "is_returning": "OUI", "duedate": "2024-06-17T12:52:56+00:00", "coordonnees_geo": {"lon": 2.386553623578705, "lat": 48.859246959155485}, "nom_arrondissement_communes": "Paris", "code_insee_commune": null}, {"stationcode": "16031", "name": "Vignes - Boulainvilliers", "is_installed": "OUI", "capacity": 21, "numdocksavailable": 18, "numbikesavailable": 3, "mechanical": 0, "ebike": 3, "is_renting": "OUI", "is_returning": "OUI", "duedate": "2024-06-17T12:54:31+00:00", "coordonnees_geo": {"lon": 2.275240458548069, "lat": 48.856399483950504}, "nom_arrondissement_communes": "Paris", "code_insee_commune": null}, {"stationcode": "21017", "name": "Place Marcel Sembat", "is_installed": "OUI", "capacity": 56, "numdocksavailable": 9, "numbikesavailable": 47, "mechanical": 38, "ebike": 9, "is_renting": "OUI", "is_returning": "OUI", "duedate": "2024-06-17T12:58:08+00:00", "coordonnees_geo": {"lon": 2.2441747784614567, "lat": 48.83328865030686}, "nom_arrondissement_communes": "Boulogne-Billancourt", "code_insee_commune": null}, {"stationcode": "14127", "name": "Odessa - D\u00e9part", "is_installed": "OUI", "capacity": 39, "numdocksavailable": 35, "numbikesavailable": 4, "mechanical": 1, "ebike": 3, "is_renting": "OUI", "is_returning": "OUI", "duedate": "2024-06-17T12:54:08+00:00", "coordonnees_geo": {"lon": 2.3244281485677, "lat": 48.842885590081}, "nom_arrondissement_communes": "Paris", "code_insee_commune": null}, {"stationcode": "14016", "name": "Ren\u00e9 Coty - Parc Montsouris", "is_installed": "OUI", "capacity": 55, "numdocksavailable": 49, "numbikesavailable": 4, "mechanical": 2, "ebike": 2, "is_renting": "OUI", "is_returning": "OUI", "duedate": "2024-06-17T12:57:45+00:00", "coordonnees_geo": {"lon": 2.336124926805496, "lat": 48.82479134498032}, "nom_arrondissement_communes": "Paris", "code_insee_commune": null}, {"stationcode": "12120", "name": "Lac Daumesnil - Saint-Maurice", "is_installed": "OUI", "capacity": 50, "numdocksavailable": 39, "numbikesavailable": 8, "mechanical": 6, "ebike": 2, "is_renting": "OUI", "is_returning": "OUI", "duedate": "2024-06-17T12:51:01+00:00", "coordonnees_geo": {"lon": 2.4183654785156246, "lat": 48.82774555743318}, "nom_arrondissement_communes": "Paris", "code_insee_commune": null}, {"stationcode": "23105", "name": "S\u00e8vres Rive Gauche", "is_installed": "OUI", "capacity": 33, "numdocksavailable": 21, "numbikesavailable": 11, "mechanical": 10, "ebike": 1, "is_renting": "OUI", "is_returning": "OUI", "duedate": "2024-06-17T12:49:35+00:00", "coordonnees_geo": {"lon": 2.2150785306885, "lat": 48.821443218278}, "nom_arrondissement_communes": "S\u00e8vres", "code_insee_commune": null}, {"stationcode": "21120", "name": "Docteur Calmette - Martre", "is_installed": "OUI", "capacity": 30, "numdocksavailable": 24, "numbikesavailable": 5, "mechanical": 3, "ebike": 2, "is_renting": "OUI", "is_returning": "OUI", "duedate": "2024-06-17T12:55:40+00:00", "coordonnees_geo": {"lon": 2.3086513252383, "lat": 48.898969358483}, "nom_arrondissement_communes": "Clichy", "code_insee_commune": null}, {"stationcode": "48009", "name": "R\u00e9publique - Auguste Perret", "is_installed": "OUI", "capacity": 30, "numdocksavailable": 26, "numbikesavailable": 3, "mechanical": 0, "ebike": 3, "is_renting": "OUI", "is_returning": "OUI", "duedate": "2024-06-17T12:54:15+00:00", "coordonnees_geo": {"lon": 2.3518594354391094, "lat": 48.78695280952244}, "nom_arrondissement_communes": "Villejuif", "code_insee_commune": null}, {"stationcode": "9013", "name": "Mairie du 9\u00e8me", "is_installed": "OUI", "capacity": 24, "numdocksavailable": 2, "numbikesavailable": 22, "mechanical": 19, "ebike": 3, "is_renting": "OUI", "is_returning": "OUI", "duedate": "2024-06-17T12:56:57+00:00", "coordonnees_geo": {"lon": 2.340753448052758, "lat": 48.87326713758289}, "nom_arrondissement_communes": "Paris", "code_insee_commune": null}, {"stationcode": "13047", "name": "Boutroux - Porte de Vitry", "is_installed": "OUI", "capacity": 49, "numdocksavailable": 13, "numbikesavailable": 35, "mechanical": 30, "ebike": 5, "is_renting": "OUI", "is_returning": "OUI", "duedate": "2024-06-17T12:58:02+00:00", "coordonnees_geo": {"lon": 2.377738, "lat": 48.822632}, "nom_arrondissement_communes": "Paris", "code_insee_commune": null}, {"stationcode": "18114", "name": "V\u00e9ron - Lepic", "is_installed": "OUI", "capacity": 23, "numdocksavailable": 23, "numbikesavailable": 0, "mechanical": 0, "ebike": 0, "is_renting": "OUI", "is_returning": "OUI", "duedate": "2024-06-17T12:56:27+00:00", "coordonnees_geo": {"lon": 2.334559857845307, "lat": 48.88526123395252}, "nom_arrondissement_communes": "Paris", "code_insee_commune": null}, {"stationcode": "44103", "name": "Pont De Charenton", "is_installed": "OUI", "capacity": 18, "numdocksavailable": 5, "numbikesavailable": 10, "mechanical": 8, "ebike": 2, "is_renting": "OUI", "is_returning": "OUI", "duedate": "2024-06-17T12:55:07+00:00", "coordonnees_geo": {"lon": 2.4199531, "lat": 48.8179685}, "nom_arrondissement_communes": "Saint-Maurice", "code_insee_commune": null}, {"stationcode": "21951", "name": "Place Centrale", "is_installed": "OUI", "capacity": 22, "numdocksavailable": 18, "numbikesavailable": 4, "mechanical": 1, "ebike": 3, "is_renting": "OUI", "is_returning": "OUI", "duedate": "2024-06-17T12:54:21+00:00", "coordonnees_geo": {"lon": 2.2278830409049992, "lat": 48.78740167690531}, "nom_arrondissement_communes": "Meudon", "code_insee_commune": null}, {"stationcode": "22103", "name": "Senard - Charles Blum", "is_installed": "OUI", "capacity": 24, "numdocksavailable": 16, "numbikesavailable": 7, "mechanical": 5, "ebike": 2, "is_renting": "OUI", "is_returning": "OUI", "duedate": "2024-06-17T12:51:38+00:00", "coordonnees_geo": {"lon": 2.221091687679291, "lat": 48.857315824799}, "nom_arrondissement_communes": "Saint-Cloud", "code_insee_commune": null}, {"stationcode": "14128", "name": "Gergovie - Vercing\u00e9torix", "is_installed": "OUI", "capacity": 29, "numdocksavailable": 28, "numbikesavailable": 0, "mechanical": 0, "ebike": 0, "is_renting": "OUI", "is_returning": "OUI", "duedate": "2024-06-17T12:52:05+00:00", "coordonnees_geo": {"lon": 2.313154547426182, "lat": 48.83453413883994}, "nom_arrondissement_communes": "Paris", "code_insee_commune": null}, {"stationcode": "31101", "name": "Jules Guesde - Laennec", "is_installed": "OUI", "capacity": 19, "numdocksavailable": 11, "numbikesavailable": 8, "mechanical": 0, "ebike": 8, "is_renting": "OUI", "is_returning": "OUI", "duedate": "2024-06-17T12:57:03+00:00", "coordonnees_geo": {"lon": 2.5006942078471184, "lat": 48.87628983900398}, "nom_arrondissement_communes": "Rosny-sous-Bois", "code_insee_commune": null}, {"stationcode": "31026", "name": "Demi-Lune - Aristide Briand", "is_installed": "OUI", "capacity": 20, "numdocksavailable": 17, "numbikesavailable": 2, "mechanical": 0, "ebike": 2, "is_renting": "OUI", "is_returning": "OUI", "duedate": "2024-06-17T12:56:59+00:00", "coordonnees_geo": {"lon": 2.4562818557024, "lat": 48.87626381919953}, "nom_arrondissement_communes": "Montreuil", "code_insee_commune": null}, {"stationcode": "17001", "name": "Guy M\u00f4quet - Saint-Ouen", "is_installed": "OUI", "capacity": 53, "numdocksavailable": 48, "numbikesavailable": 2, "mechanical": 1, "ebike": 1, "is_renting": "OUI", "is_returning": "OUI", "duedate": "2024-06-17T12:58:12+00:00", "coordonnees_geo": {"lon": 2.3270335793495183, "lat": 48.892777719023975}, "nom_arrondissement_communes": "Paris", "code_insee_commune": null}]