[{"stationcode": "5119", "name": "Jussieu - Guy de la Brosse", "is_installed": "OUI", "capacity": 40, "numdocksavailable": 32, "numbikesavailable": 7, "mechanical": 2, "ebike": 5, "is_renting": "OUI", "is_returning": "OUI", "duedate": "2024-06-14T17:43:15+00:00", "coordonnees_geo": {"lon": 2.355653, "lat": 48.845665}, "nom_arrondissement_communes": "Paris", "code_insee_commune": null}, {"stationcode": "35009", "name": "Jean Lolive - Parc Stalingrad", "is_installed": "OUI", "capacity": 22, "numdocksavailable": 13, "numbikesavailable": 8, "mechanical": 4, "ebike": 4, "is_renting": "OUI", "is_returning": "OUI", "duedate": "2024-06-14T17:48:02+00:00", "coordonnees_geo": {"lon": 2.4091735482215886, "lat": 48.89206174403158}, "nom_arrondissement_communes": "Pantin", "code_insee_commune": null}, {"stationcode": "31705", "name": "Champeaux - Gallieni", "is_installed": "OUI", "capacity": 50, "numdocksavailable": 48, "numbikesavailable": 2, "mechanical": 0, "ebike": 2, "is_renting": "OUI", "is_returning": "OUI", "duedate": "2024-06-14T17:49:47+00:00", "coordonnees_geo": {"lon": 2.4161778017878532, "lat": 48.864459134684644}, "nom_arrondissement_communes": "Bagnolet", "code_insee_commune": null}, {"stationcode": "8055", "name": "Courcelles - Place des Ternes", "is_installed": "OUI", "capacity": 31, "numdocksavailable": 31, "numbikesavailable": 0, "mechanical": 0, "ebike": 0, "is_renting": "OUI", "is_returning": "OUI", "duedate": "2024-06-14T17:45:37+00:00", "coordonnees_geo": {"lon": 2.2992860188665043, "lat": 48.878199928923124}, "nom_arrondissement_communes": "Paris", "code_insee_commune": null}, {"stationcode": "21109", "name": "Guichet - Jean Jaur\u00e8s", "is_installed": "OUI", "capacity": 28, "numdocksavailable": 12, "numbikesavailable": 15, "mechanical": 9, "ebike": 6, "is_renting": "OUI", "is_returning": "OUI", "duedate": "2024-06-14T17:50:32+00:00", "coordonnees_geo": {"lon": 2.3023840785026555, "lat": 48.905169868129036}, "nom_arrondissement_communes": "Clichy", "code_insee_commune": null}, {"stationcode": "23701", "name": "Parvis Robert Schuman - Roger Salengro", "is_installed": "OUI", "capacity": 24, "numdocksavailable": 22, "numbikesavailable": 2, "mechanical": 0, "ebike": 2, "is_renting": "OUI", "is_returning": "OUI", "duedate": "2024-06-14T17:49:25+00:00", "coordonnees_geo": {"lon": 2.1921751275658607, "lat": 48.812657470558754}, "nom_arrondissement_communes": "Chaville", "code_insee_commune": null}, {"stationcode": "31012", "name": "Place Carnot", "is_installed": "OUI", "capacity": 25, "numdocksavailable": 21, "numbikesavailable": 4, "mechanical": 2, "ebike": 2, "is_renting": "OUI", "is_returning": "OUI", "duedate": "2024-06-14T17:48:25+00:00", "coordonnees_geo": {"lon": 2.441531717777252, "lat": 48.85593932186797}, "nom_arrondissement_communes": "Montreuil", "code_insee_commune": null}, {"stationcode": "16129", "name": "Ceinture du Lac Inferieure - Saint-Cloud", "is_installed": "OUI", "capacity": 42, "numdocksavailable": 26, "numbikesavailable": 12, "mechanical": 7, "ebike": 5, "is_renting": "OUI", "is_returning": "OUI", "duedate": "2024-06-14T17:50:02+00:00", "coordonnees_geo": {"lon": 2.2617871686816216, "lat": 48.86218070933143}, "nom_arrondissement_communes": "Paris", "code_insee_commune": null}, {"stationcode": "6030", "name": "Assas - Vaugirard", "is_installed": "OUI", "capacity": 35, "numdocksavailable": 21, "numbikesavailable": 13, "mechanical": 7, "ebike": 6, "is_renting": "OUI", "is_returning": "OUI", "duedate": "2024-06-14T17:49:53+00:00", "coordonnees_geo": {"lon": 2.3292413726449, "lat": 48.848274111398}, "nom_arrondissement_communes": "Paris", "code_insee_commune": null}, {"stationcode": "8012", "name": "Batignolles - Place de Clichy", "is_installed": "OUI", "capacity": 47, "numdocksavailable": 31, "numbikesavailable": 15, "mechanical": 4, "ebike": 11, "is_renting": "OUI", "is_returning": "OUI", "duedate": "2024-06-14T17:47:46+00:00", "coordonnees_geo": {"lon": 2.326493114233, "lat": 48.883474535757}, "nom_arrondissement_communes": "Paris", "code_insee_commune": null}, {"stationcode": "41604", "name": "Lagny - Joffre", "is_installed": "OUI", "capacity": 31, "numdocksavailable": 31, "numbikesavailable": 0, "mechanical": 0, "ebike": 0, "is_renting": "OUI", "is_returning": "OUI", "duedate": "2024-06-14T17:48:47+00:00", "coordonnees_geo": {"lon": 2.417949736118317, "lat": 48.84930687084088}, "nom_arrondissement_communes": "Saint-Mand\u00e9", "code_insee_commune": null}, {"stationcode": "15029", "name": "Emeriau - Place de Brazzaville", "is_installed": "OUI", "capacity": 51, "numdocksavailable": 13, "numbikesavailable": 38, "mechanical": 37, "ebike": 1, "is_renting": "OUI", "is_returning": "OUI", "duedate": "2024-06-14T17:50:30+00:00", "coordonnees_geo": {"lon": 2.2871585190296173, "lat": 48.850785261674964}, "nom_arrondissement_communes": "Paris", "code_insee_commune": null}, {"stationcode": "17018", "name": "Parc Monceau", "is_installed": "OUI", "capacity": 18, "numdocksavailable": 14, "numbikesavailable": 4, "mechanical": 1, "ebike": 3, "is_renting": "OUI", "is_returning": "OUI", "duedate": "2024-06-14T17:47:34+00:00", "coordonnees_geo": {"lon": 2.3095492646098, "lat": 48.881077914129}, "nom_arrondissement_communes": "Paris", "code_insee_commune": null}, {"stationcode": "5116", "name": "Place Valhubert", "is_installed": "OUI", "capacity": 51, "numdocksavailable": 1, "numbikesavailable": 50, "mechanical": 47, "ebike": 3, "is_renting": "OUI", "is_returning": "OUI", "duedate": "2024-06-14T17:49:41+00:00", "coordonnees_geo": {"lon": 2.3640366643667, "lat": 48.844182577315}, "nom_arrondissement_communes": "Paris", "code_insee_commune": null}, {"stationcode": "20136", "name": "Henri Chevreau - Couronnes", "is_installed": "OUI", "capacity": 27, "numdocksavailable": 23, "numbikesavailable": 4, "mechanical": 1, "ebike": 3, "is_renting": "OUI", "is_returning": "OUI", "duedate": "2024-06-14T17:49:01+00:00", "coordonnees_geo": {"lon": 2.388777695596218, "lat": 48.87033205312931}, "nom_arrondissement_communes": "Paris", "code_insee_commune": null}, {"stationcode": "5026", "name": "Pascal - Claude Bernard", "is_installed": "OUI", "capacity": 49, "numdocksavailable": 28, "numbikesavailable": 21, "mechanical": 16, "ebike": 5, "is_renting": "OUI", "is_returning": "OUI", "duedate": "2024-06-14T17:50:19+00:00", "coordonnees_geo": {"lon": 2.3499782010912895, "lat": 48.839061952159746}, "nom_arrondissement_communes": "Paris", "code_insee_commune": null}, {"stationcode": "43006", "name": "Vignerons - Minimes", "is_installed": "OUI", "capacity": 29, "numdocksavailable": 20, "numbikesavailable": 9, "mechanical": 2, "ebike": 7, "is_renting": "OUI", "is_returning": "OUI", "duedate": "2024-06-14T17:50:15+00:00", "coordonnees_geo": {"lon": 2.430793, "lat": 48.841486}, "nom_arrondissement_communes": "Vincennes", "code_insee_commune": null}, {"stationcode": "21111", "name": "Professeur Ren\u00e9 Leriche - G\u00e9n\u00e9ral Leclerc", "is_installed": "OUI", "capacity": 50, "numdocksavailable": 40, "numbikesavailable": 8, "mechanical": 7, "ebike": 1, "is_renting": "OUI", "is_returning": "OUI", "duedate": "2024-06-14T17:50:09+00:00", "coordonnees_geo": {"lon": 2.307887971401215, "lat": 48.90782845483013}, "nom_arrondissement_communes": "Clichy", "code_insee_commune": null}, {"stationcode": "12126", "name": "Gravelle - Route du Bac", "is_installed": "OUI", "capacity": 51, "numdocksavailable": 42, "numbikesavailable": 8, "mechanical": 2, "ebike": 6, "is_renting": "OUI", "is_returning": "OUI", "duedate": "2024-06-14T15:41:13+00:00", "coordonnees_geo": {"lon": 2.418455, "lat": 48.824407}, "nom_arrondissement_communes": "Paris", "code_insee_commune": null}, {"stationcode": "12024", "name": "Gare de Bercy", "is_installed": "OUI", "capacity": 35, "numdocksavailable": 1, "numbikesavailable": 34, "mechanical": 30, "ebike": 4, "is_renting": "OUI", "is_returning": "OUI", "duedate": "2024-06-14T15:49:58+00:00", "coordonnees_geo": {"lon": 2.3826066032052, "lat": 48.839794573906}, "nom_arrondissement_communes": "Paris", "code_insee_commune": null}, {"stationcode": "6030", "name": "Assas - Vaugirard", "is_installed": "OUI", "capacity": 35, "numdocksavailable": 27, "numbikesavailable": 7, "mechanical": 5, "ebike": 2, "is_renting": "OUI", "is_returning": "OUI", "duedate": "2024-06-14T15:49:37+00:00", "coordonnees_geo": {"lon": 2.3292413726449, "lat": 48.848274111398}, "nom_arrondissement_communes": "Paris", "code_insee_commune": null}, {"stationcode": "8012", "name": "Batignolles - Place de Clichy", "is_installed": "OUI", "capacity": 47, "numdocksavailable": 41, "numbikesavailable": 5, "mechanical": 0, "ebike": 5, "is_renting": "OUI", "is_returning": "OUI", "duedate": "2024-06-14T15:49:45+00:00", "coordonnees_geo": {"lon": 2.326493114233, "lat": 48.883474535757}, "nom_arrondissement_communes": "Paris", "code_insee_commune": null}, {"stationcode": "15029", "name": "Emeriau - Place de Brazzaville", "is_installed": "OUI", "capacity": 51, "numdocksavailable": 7, "numbikesavailable": 44, "mechanical": 41, "ebike": 3, "is_renting": "OUI", "is_returning": "OUI", "duedate": "2024-06-14T15:50:12+00:00", "coordonnees_geo": {"lon": 2.2871585190296173, "lat": 48.850785261674964}, "nom_arrondissement_communes": "Paris", "code_insee_commune": null}, {"stationcode": "17018", "name": "Parc Monceau", "is_installed": "OUI", "capacity": 18, "numdocksavailable": 13, "numbikesavailable": 4, "mechanical": 1, "ebike": 3, "is_renting": "OUI", "is_returning": "OUI", "duedate": "2024-06-14T15:47:26+00:00", "coordonnees_geo": {"lon": 2.3095492646098, "lat": 48.881077914129}, "nom_arrondissement_communes": "Paris", "code_insee_commune": null}, {"stationcode": "5116", "name": "Place Valhubert", "is_installed": "OUI", "capacity": 51, "numdocksavailable": 1, "numbikesavailable": 50, "mechanical": 45, "ebike": 5, "is_renting": "OUI", "is_returning": "OUI", "duedate": "2024-06-14T15:49:29+00:00", "coordonnees_geo": {"lon": 2.3640366643667, "lat": 48.844182577315}, "nom_arrondissement_communes": "Paris", "code_insee_commune": null}, {"stationcode": "18005", "name": "Tardieu - Chappe", "is_installed": "OUI", "capacity": 18, "numdocksavailable": 15, "numbikesavailable": 3, "mechanical": 1, "ebike": 2, "is_renting": "OUI", "is_returning": "OUI", "duedate": "2024-06-14T15:43:17+00:00", "coordonnees_geo": {"lon": 2.341845408082, "lat": 48.884146759782}, "nom_arrondissement_communes": "Paris", "code_insee_commune": null}, {"stationcode": "10005", "name": "Petites Ecuries - Faubourg Poissonni\u00e8re", "is_installed": "OUI", "capacity": 17, "numdocksavailable": 9, "numbikesavailable": 5, "mechanical": 4, "ebike": 1, "is_renting": "OUI", "is_returning": "OUI", "duedate": "2024-06-14T15:49:04+00:00", "coordonnees_geo": {"lon": 2.348388757504776, "lat": 48.87397217237368}, "nom_arrondissement_communes": "Paris", "code_insee_commune": null}, {"stationcode": "5026", "name": "Pascal - Claude Bernard", "is_installed": "OUI", "capacity": 49, "numdocksavailable": 21, "numbikesavailable": 28, "mechanical": 28, "ebike": 0, "is_renting": "OUI", "is_returning": "OUI", "duedate": "2024-06-14T15:49:39+00:00", "coordonnees_geo": {"lon": 2.3499782010912895, "lat": 48.839061952159746}, "nom_arrondissement_communes": "Paris", "code_insee_commune": null}, {"stationcode": "8102", "name": "Lamennais - Washington", "is_installed": "OUI", "capacity": 26, "numdocksavailable": 22, "numbikesavailable": 2, "mechanical": 1, "ebike": 1, "is_renting": "OUI", "is_returning": "OUI", "duedate": "2024-06-14T15:42:15+00:00", "coordonnees_geo": {"lon": 2.303444892168045, "lat": 48.87352990026496}, "nom_arrondissement_communes": "Paris", "code_insee_commune": null}, {"stationcode": "42503", "name": "Vladimir Ilitch L\u00e9nine - Andr\u00e9e Chedid", "is_installed": "OUI", "capacity": 31, "numdocksavailable": 20, "numbikesavailable": 11, "mechanical": 4, "ebike": 7, "is_renting": "OUI", "is_returning": "OUI", "duedate": "2024-06-14T15:47:13+00:00", "coordonnees_geo": {"lon": 2.3319716067039, "lat": 48.813240124373}, "nom_arrondissement_communes": "Gentilly", "code_insee_commune": null}, {"stationcode": "21111", "name": "Professeur Ren\u00e9 Leriche - G\u00e9n\u00e9ral Leclerc", "is_installed": "OUI", "capacity": 50, "numdocksavailable": 47, "numbikesavailable": 1, "mechanical": 0, "ebike": 1, "is_renting": "OUI", "is_returning": "OUI", "duedate": "2024-06-14T15:48:17+00:00", "coordonnees_geo": {"lon": 2.307887971401215, "lat": 48.90782845483013}, "nom_arrondissement_communes": "Clichy", "code_insee_commune": null}, {"stationcode": "2010", "name": "Uz\u00e8s - Montmartre", "is_installed": "OUI", "capacity": 29, "numdocksavailable": 24, "numbikesavailable": 3, "mechanical": 1, "ebike": 2, "is_renting": "OUI", "is_returning": "OUI", "duedate": "2024-06-14T15:50:11+00:00", "coordonnees_geo": {"lon": 2.3431010171771054, "lat": 48.870790980240706}, "nom_arrondissement_communes": "Paris", "code_insee_commune": null}, {"stationcode": "11114", "name": "Ledru-Rollin - Charonne", "is_installed": "OUI", "capacity": 32, "numdocksavailable": 2, "numbikesavailable": 29, "mechanical": 25, "ebike": 4, "is_renting": "OUI", "is_returning": "OUI", "duedate": "2024-06-14T15:49:46+00:00", "coordonnees_geo": {"lon": 2.3772463581947094, "lat": 48.85345855607243}, "nom_arrondissement_communes": "Paris", "code_insee_commune": null}, {"stationcode": "20040", "name": "Parc de Belleville - Julien Lacroix", "is_installed": "OUI", "capacity": 26, "numdocksavailable": 20, "numbikesavailable": 6, "mechanical": 2, "ebike": 4, "is_renting": "OUI", "is_returning": "OUI", "duedate": "2024-06-14T15:48:31+00:00", "coordonnees_geo": {"lon": 2.3842214, "lat": 48.8703459}, "nom_arrondissement_communes": "Paris", "code_insee_commune": null}, {"stationcode": "34002", "name": "Capitaine Glarner - Gabriel P\u00e9ri", "is_installed": "OUI", "capacity": 27, "numdocksavailable": 15, "numbikesavailable": 8, "mechanical": 4, "ebike": 4, "is_renting": "OUI", "is_returning": "OUI", "duedate": "2024-06-14T15:48:13+00:00", "coordonnees_geo": {"lon": 2.3304807533425724, "lat": 48.902449900418745}, "nom_arrondissement_communes": "Saint-Ouen-sur-Seine", "code_insee_commune": null}, {"stationcode": "13026", "name": "Place Jean Delay", "is_installed": "OUI", "capacity": 35, "numdocksavailable": 30, "numbikesavailable": 5, "mechanical": 2, "ebike": 3, "is_renting": "OUI", "is_returning": "OUI", "duedate": "2024-06-14T15:50:16+00:00", "coordonnees_geo": {"lon": 2.354336, "lat": 48.823316}, "nom_arrondissement_communes": "Paris", "code_insee_commune": null}, {"stationcode": "14139", "name": "Pierre Larousse - Raymond Losserand", "is_installed": "OUI", "capacity": 30, "numdocksavailable": 25, "numbikesavailable": 5, "mechanical": 2, "ebike": 3, "is_renting": "OUI", "is_returning": "OUI", "duedate": "2024-06-14T15:49:28+00:00", "coordonnees_geo": {"lon": 2.3119183257222176, "lat": 48.83059564231877}, "nom_arrondissement_communes": "Paris", "code_insee_commune": null}, {"stationcode": "11101", "name": "Charles Delescluze", "is_installed": "OUI", "capacity": 49, "numdocksavailable": 40, "numbikesavailable": 7, "mechanical": 3, "ebike": 4, "is_renting": "OUI", "is_returning": "OUI", "duedate": "2024-06-14T15:49:45+00:00", "coordonnees_geo": {"lon": 2.380632497370243, "lat": 48.85242200848887}, "nom_arrondissement_communes": "Paris", "code_insee_commune": null}, {"stationcode": "14130", "name": "Jonquoy - Didot", "is_installed": "OUI", "capacity": 30, "numdocksavailable": 23, "numbikesavailable": 7, "mechanical": 2, "ebike": 5, "is_renting": "OUI", "is_returning": "OUI", "duedate": "2024-06-14T15:49:49+00:00", "coordonnees_geo": {"lon": 2.31648076325655, "lat": 48.82890454823947}, "nom_arrondissement_communes": "Paris", "code_insee_commune": null}, {"stationcode": "12011", "name": "Charenton - Place du Col Bourgoin", "is_installed": "OUI", "capacity": 35, "numdocksavailable": 0, "numbikesavailable": 34, "mechanical": 28, "ebike": 6, "is_renting": "OUI", "is_returning": "OUI", "duedate": "2024-06-14T15:49:28+00:00", "coordonnees_geo": {"lon": 2.3825789350545, "lat": 48.844867319554}, "nom_arrondissement_communes": "Paris", "code_insee_commune": null}, {"stationcode": "21308", "name": "Bara - Henri Farman", "is_installed": "OUI", "capacity": 58, "numdocksavailable": 40, "numbikesavailable": 18, "mechanical": 16, "ebike": 2, "is_renting": "OUI", "is_returning": "OUI", "duedate": "2024-06-14T15:50:12+00:00", "coordonnees_geo": {"lon": 2.2677567601203923, "lat": 48.833218027457846}, "nom_arrondissement_communes": "Issy-les-Moulineaux", "code_insee_commune": null}, {"stationcode": "21019", "name": "Edouard Vaillant - Paul-Adolphe Souriau", "is_installed": "OUI", "capacity": 28, "numdocksavailable": 28, "numbikesavailable": 0, "mechanical": 0, "ebike": 0, "is_renting": "OUI", "is_returning": "OUI", "duedate": "2024-06-14T15:49:46+00:00", "coordonnees_geo": {"lon": 2.2479459643363957, "lat": 48.83484585882868}, "nom_arrondissement_communes": "Boulogne-Billancourt", "code_insee_commune": null}, {"stationcode": "12032", "name": "Porte Dor\u00e9e", "is_installed": "OUI", "capacity": 36, "numdocksavailable": 26, "numbikesavailable": 8, "mechanical": 7, "ebike": 1, "is_renting": "OUI", "is_returning": "OUI", "duedate": "2024-06-14T15:50:06+00:00", "coordonnees_geo": {"lon": 2.4077132, "lat": 48.8354337}, "nom_arrondissement_communes": "Paris", "code_insee_commune": null}, {"stationcode": "20109", "name": "Haxo - Surmelin", "is_installed": "OUI", "capacity": 21, "numdocksavailable": 19, "numbikesavailable": 1, "mechanical": 0, "ebike": 1, "is_renting": "OUI", "is_returning": "OUI", "duedate": "2024-06-14T15:40:40+00:00", "coordonnees_geo": {"lon": 2.40539657537972, "lat": 48.8694370761222}, "nom_arrondissement_communes": "Paris", "code_insee_commune": null}, {"stationcode": "6103", "name": "M\u00e9zi\u00e8res - Rennes", "is_installed": "OUI", "capacity": 55, "numdocksavailable": 45, "numbikesavailable": 9, "mechanical": 3, "ebike": 6, "is_renting": "OUI", "is_returning": "OUI", "duedate": "2024-06-14T15:48:41+00:00", "coordonnees_geo": {"lon": 2.3303819820284843, "lat": 48.85023459321703}, "nom_arrondissement_communes": "Paris", "code_insee_commune": null}, {"stationcode": "20021", "name": "Indre - Prairies", "is_installed": "OUI", "capacity": 38, "numdocksavailable": 38, "numbikesavailable": 0, "mechanical": 0, "ebike": 0, "is_renting": "OUI", "is_returning": "OUI", "duedate": "2024-06-14T15:49:27+00:00", "coordonnees_geo": {"lon": 2.403290458023548, "lat": 48.86254398506782}, "nom_arrondissement_communes": "Paris", "code_insee_commune": null}, {"stationcode": "6018", "name": "Michelet - Assas", "is_installed": "OUI", "capacity": 18, "numdocksavailable": 11, "numbikesavailable": 5, "mechanical": 1, "ebike": 4, "is_renting": "OUI", "is_returning": "OUI", "duedate": "2024-06-14T15:48:26+00:00", "coordonnees_geo": {"lon": 2.3350211977959, "lat": 48.842741502832}, "nom_arrondissement_communes": "Paris", "code_insee_commune": null}, {"stationcode": "18032", "name": "Porte de Clignancourt.", "is_installed": "OUI", "capacity": 56, "numdocksavailable": 51, "numbikesavailable": 4, "mechanical": 2, "ebike": 2, "is_renting": "OUI", "is_returning": "OUI", "duedate": "2024-06-14T15:50:09+00:00", "coordonnees_geo": {"lon": 2.343996, "lat": 48.897488}, "nom_arrondissement_communes": "Paris", "code_insee_commune": null}, {"stationcode": "17027", "name": "Place du Mar\u00e9chal Juin - P\u00e9reire", "is_installed": "OUI", "capacity": 46, "numdocksavailable": 38, "numbikesavailable": 5, "mechanical": 2, "ebike": 3, "is_renting": "OUI", "is_returning": "OUI", "duedate": "2024-06-14T15:47:49+00:00", "coordonnees_geo": {"lon": 2.298286, "lat": 48.885263}, "nom_arrondissement_communes": "Paris", "code_insee_commune": null}, {"stationcode": "31016", "name": "Lucie Aubrac - Franklin", "is_installed": "OUI", "capacity": 36, "numdocksavailable": 29, "numbikesavailable": 7, "mechanical": 2, "ebike": 5, "is_renting": "OUI", "is_returning": "OUI", "duedate": "2024-06-14T15:50:19+00:00", "coordonnees_geo": {"lon": 2.4435862898826604, "lat": 48.86223916006812}, "nom_arrondissement_communes": "Montreuil", "code_insee_commune": null}, {"stationcode": "51003", "name": "H\u00f4tel de Ville d'Argenteuil", "is_installed": "OUI", "capacity": 30, "numdocksavailable": 15, "numbikesavailable": 14, "mechanical": 13, "ebike": 1, "is_renting": "OUI", "is_returning": "OUI", "duedate": "2024-06-14T15:49:32+00:00", "coordonnees_geo": {"lon": 2.2496396, "lat": 48.946504}, "nom_arrondissement_communes": "Argenteuil", "code_insee_commune": null}, {"stationcode": "22101", "name": "Gare Routi\u00e8re de Saint Cloud", "is_installed": "OUI", "capacity": 31, "numdocksavailable": 23, "numbikesavailable": 7, "mechanical": 5, "ebike": 2, "is_renting": "OUI", "is_returning": "OUI", "duedate": "2024-06-14T15:47:29+00:00", "coordonnees_geo": {"lon": 2.222245037555695, "lat": 48.84288183896324}, "nom_arrondissement_communes": "Saint-Cloud", "code_insee_commune": null}, {"stationcode": "13016", "name": "Primo Levi - Frigos", "is_installed": "OUI", "capacity": 34, "numdocksavailable": 9, "numbikesavailable": 25, "mechanical": 21, "ebike": 4, "is_renting": "OUI", "is_returning": "OUI", "duedate": "2024-06-14T15:47:37+00:00", "coordonnees_geo": {"lon": 2.37965351592796, "lat": 48.83094844846017}, "nom_arrondissement_communes": "Paris", "code_insee_commune": null}, {"stationcode": "13043", "name": "Dunois - Clisson", "is_installed": "OUI", "capacity": 51, "numdocksavailable": 35, "numbikesavailable": 15, "mechanical": 6, "ebike": 9, "is_renting": "OUI", "is_returning": "OUI", "duedate": "2024-06-14T15:45:30+00:00", "coordonnees_geo": {"lon": 2.3674523, "lat": 48.832294}, "nom_arrondissement_communes": "Paris", "code_insee_commune": null}, {"stationcode": "8051", "name": "Batignolles - Rome", "is_installed": "OUI", "capacity": 15, "numdocksavailable": 11, "numbikesavailable": 3, "mechanical": 1, "ebike": 2, "is_renting": "OUI", "is_returning": "OUI", "duedate": "2024-06-14T15:48:58+00:00", "coordonnees_geo": {"lon": 2.3202589899301524, "lat": 48.881823370566806}, "nom_arrondissement_communes": "Paris", "code_insee_commune": null}, {"stationcode": "16032", "name": "Eglise d'Auteuil", "is_installed": "OUI", "capacity": 21, "numdocksavailable": 15, "numbikesavailable": 6, "mechanical": 3, "ebike": 3, "is_renting": "OUI", "is_returning": "OUI", "duedate": "2024-06-14T15:49:37+00:00", "coordonnees_geo": {"lon": 2.26848387135299, "lat": 48.84749841771691}, "nom_arrondissement_communes": "Paris", "code_insee_commune": null}, {"stationcode": "17122", "name": "Bridaine - Lamand\u00e9", "is_installed": "OUI", "capacity": 29, "numdocksavailable": 26, "numbikesavailable": 3, "mechanical": 0, "ebike": 3, "is_renting": "OUI", "is_returning": "OUI", "duedate": "2024-06-14T15:43:06+00:00", "coordonnees_geo": {"lon": 2.3206239, "lat": 48.8862074}, "nom_arrondissement_communes": "Paris", "code_insee_commune": null}, {"stationcode": "9023", "name": "Laffitte - Italiens", "is_installed": "OUI", "capacity": 33, "numdocksavailable": 30, "numbikesavailable": 3, "mechanical": 0, "ebike": 3, "is_renting": "OUI", "is_returning": "OUI", "duedate": "2024-06-14T15:50:15+00:00", "coordonnees_geo": {"lon": 2.3372015478451, "lat": 48.871815737396}, "nom_arrondissement_communes": "Paris", "code_insee_commune": null}, {"stationcode": "16123", "name": "Mahatma Gandhi", "is_installed": "OUI", "capacity": 26, "numdocksavailable": 14, "numbikesavailable": 9, "mechanical": 5, "ebike": 4, "is_renting": "OUI", "is_returning": "OUI", "duedate": "2024-06-14T15:48:41+00:00", "coordonnees_geo": {"lon": 2.264205, "lat": 48.876356}, "nom_arrondissement_communes": "Paris", "code_insee_commune": null}, {"stationcode": "19040", "name": "Belleville - T\u00e9l\u00e9graphe", "is_installed": "OUI", "capacity": 41, "numdocksavailable": 37, "numbikesavailable": 3, "mechanical": 0, "ebike": 3, "is_renting": "OUI", "is_returning": "OUI", "duedate": "2024-06-14T15:48:24+00:00", "coordonnees_geo": {"lon": 2.3995549, "lat": 48.8756045}, "nom_arrondissement_communes": "Paris", "code_insee_commune": null}, {"stationcode": "17047", "name": "Courcelles - Pierre Demours", "is_installed": "OUI", "capacity": 26, "numdocksavailable": 23, "numbikesavailable": 3, "mechanical": 2, "ebike": 1, "is_renting": "OUI", "is_returning": "OUI", "duedate": "2024-06-14T15:47:50+00:00", "coordonnees_geo": {"lon": 2.29858466343129, "lat": 48.883769733273496}, "nom_arrondissement_communes": "Paris", "code_insee_commune": null}, {"stationcode": "41204", "name": "R\u00e9publique - Danton", "is_installed": "OUI", "capacity": 20, "numdocksavailable": 16, "numbikesavailable": 3, "mechanical": 0, "ebike": 3, "is_renting": "OUI", "is_returning": "OUI", "duedate": "2024-06-14T15:50:05+00:00", "coordonnees_geo": {"lon": 2.462034523487091, "lat": 48.85249172181667}, "nom_arrondissement_communes": "Fontenay-sous-Bois", "code_insee_commune": null}, {"stationcode": "17121", "name": "Square des Epinettes", "is_installed": "OUI", "capacity": 20, "numdocksavailable": 15, "numbikesavailable": 5, "mechanical": 4, "ebike": 1, "is_renting": "OUI", "is_returning": "OUI", "duedate": "2024-06-14T15:49:19+00:00", "coordonnees_geo": {"lon": 2.325953990221024, "lat": 48.89383909781389}, "nom_arrondissement_communes": "Paris", "code_insee_commune": null}, {"stationcode": "18113", "name": "Lepic - Arm\u00e9e d'Orient", "is_installed": "OUI", "capacity": 24, "numdocksavailable": 23, "numbikesavailable": 1, "mechanical": 0, "ebike": 1, "is_renting": "OUI", "is_returning": "OUI", "duedate": "2024-06-14T15:48:15+00:00", "coordonnees_geo": {"lon": 2.334307730197907, "lat": 48.88753640381415}, "nom_arrondissement_communes": "Paris", "code_insee_commune": null}, {"stationcode": "18029", "name": "Emile Blemont - Poteau", "is_installed": "OUI", "capacity": 39, "numdocksavailable": 33, "numbikesavailable": 6, "mechanical": 5, "ebike": 1, "is_renting": "OUI", "is_returning": "OUI", "duedate": "2024-06-14T15:49:45+00:00", "coordonnees_geo": {"lon": 2.3415122, "lat": 48.8943782}, "nom_arrondissement_communes": "Paris", "code_insee_commune": null}, {"stationcode": "20118", "name": "Orteaux - Mouraud", "is_installed": "OUI", "capacity": 24, "numdocksavailable": 22, "numbikesavailable": 2, "mechanical": 2, "ebike": 0, "is_renting": "OUI", "is_returning": "OUI", "duedate": "2024-06-14T15:40:57+00:00", "coordonnees_geo": {"lon": 2.408762907764669, "lat": 48.85558642847872}, "nom_arrondissement_communes": "Paris", "code_insee_commune": null}, {"stationcode": "16021", "name": "Fran\u00e7ois Ponsard - La Muette", "is_installed": "OUI", "capacity": 23, "numdocksavailable": 19, "numbikesavailable": 4, "mechanical": 1, "ebike": 3, "is_renting": "OUI", "is_returning": "OUI", "duedate": "2024-06-14T15:49:38+00:00", "coordonnees_geo": {"lon": 2.2744515, "lat": 48.8583666}, "nom_arrondissement_communes": "Paris", "code_insee_commune": null}, {"stationcode": "9031", "name": "Provence - Chauss\u00e9e d'Antin", "is_installed": "OUI", "capacity": 25, "numdocksavailable": 20, "numbikesavailable": 4, "mechanical": 4, "ebike": 0, "is_renting": "OUI", "is_returning": "OUI", "duedate": "2024-06-14T15:45:40+00:00", "coordonnees_geo": {"lon": 2.332976511564311, "lat": 48.87428447542072}, "nom_arrondissement_communes": "Paris", "code_insee_commune": null}, {"stationcode": "9117", "name": "Bellefond - Maubeuge", "is_installed": "OUI", "capacity": 31, "numdocksavailable": 25, "numbikesavailable": 6, "mechanical": 1, "ebike": 5, "is_renting": "OUI", "is_returning": "OUI", "duedate": "2024-06-14T15:48:42+00:00", "coordonnees_geo": {"lon": 2.3452642187476, "lat": 48.878255397645}, "nom_arrondissement_communes": "Paris", "code_insee_commune": null}, {"stationcode": "15031", "name": "Th\u00e9\u00e2tre - Lourmel", "is_installed": "OUI", "capacity": 53, "numdocksavailable": 3, "numbikesavailable": 49, "mechanical": 41, "ebike": 8, "is_renting": "OUI", "is_returning": "OUI", "duedate": "2024-06-14T15:48:10+00:00", "coordonnees_geo": {"lon": 2.2898658737540245, "lat": 48.8482070397636}, "nom_arrondissement_communes": "Paris", "code_insee_commune": null}, {"stationcode": "21014", "name": "Hameau Fleuri - March\u00e9", "is_installed": "OUI", "capacity": 22, "numdocksavailable": 11, "numbikesavailable": 11, "mechanical": 10, "ebike": 1, "is_renting": "OUI", "is_returning": "OUI", "duedate": "2024-06-14T15:48:18+00:00", "coordonnees_geo": {"lon": 2.2412404417991643, "lat": 48.831448892608314}, "nom_arrondissement_communes": "Boulogne-Billancourt", "code_insee_commune": null}, {"stationcode": "11006", "name": "Ledru-Rollin - Place du P\u00e8re Chaillet", "is_installed": "OUI", "capacity": 37, "numdocksavailable": 1, "numbikesavailable": 35, "mechanical": 30, "ebike": 5, "is_renting": "OUI", "is_returning": "OUI", "duedate": "2024-06-14T15:46:42+00:00", "coordonnees_geo": {"lon": 2.379020587761426, "lat": 48.856433706943704}, "nom_arrondissement_communes": "Paris", "code_insee_commune": null}, {"stationcode": "47005", "name": "Ecole V\u00e9t\u00e9rinaire", "is_installed": "OUI", "capacity": 36, "numdocksavailable": 11, "numbikesavailable": 24, "mechanical": 21, "ebike": 3, "is_renting": "OUI", "is_returning": "OUI", "duedate": "2024-06-14T15:50:04+00:00", "coordonnees_geo": {"lon": 2.4224362157778994, "lat": 48.81488859822486}, "nom_arrondissement_communes": "Maisons-Alfort", "code_insee_commune": null}, {"stationcode": "15070", "name": "Balard - Montagne de la Fage", "is_installed": "OUI", "capacity": 36, "numdocksavailable": 10, "numbikesavailable": 26, "mechanical": 25, "ebike": 1, "is_renting": "OUI", "is_returning": "OUI", "duedate": "2024-06-14T15:47:58+00:00", "coordonnees_geo": {"lon": 2.2782871127128606, "lat": 48.83850740333351}, "nom_arrondissement_communes": "Paris", "code_insee_commune": null}, {"stationcode": "14112", "name": "M\u00e9chain - Faubourg Saint-Jacques", "is_installed": "OUI", "capacity": 16, "numdocksavailable": 14, "numbikesavailable": 1, "mechanical": 1, "ebike": 0, "is_renting": "OUI", "is_returning": "OUI", "duedate": "2024-06-14T15:43:29+00:00", "coordonnees_geo": {"lon": 2.33798034198275, "lat": 48.83586772099485}, "nom_arrondissement_communes": "Paris", "code_insee_commune": null}, {"stationcode": "18033", "name": "Belliard - Damr\u00e9mont", "is_installed": "OUI", "capacity": 34, "numdocksavailable": 32, "numbikesavailable": 2, "mechanical": 1, "ebike": 1, "is_renting": "OUI", "is_returning": "OUI", "duedate": "2024-06-14T15:49:23+00:00", "coordonnees_geo": {"lon": 2.338023450388167, "lat": 48.89669238777841}, "nom_arrondissement_communes": "Paris", "code_insee_commune": null}, {"stationcode": "11010", "name": "Boulets - Faubourg Saint-Antoine", "is_installed": "OUI", "capacity": 43, "numdocksavailable": 25, "numbikesavailable": 15, "mechanical": 11, "ebike": 4, "is_renting": "OUI", "is_returning": "OUI", "duedate": "2024-06-14T15:44:40+00:00", "coordonnees_geo": {"lon": 2.3917546141943, "lat": 48.849259262115}, "nom_arrondissement_communes": "Paris", "code_insee_commune": null}, {"stationcode": "15002", "name": "Maine - Antoine Bourdelle", "is_installed": "OUI", "capacity": 17, "numdocksavailable": 5, "numbikesavailable": 11, "mechanical": 7, "ebike": 4, "is_renting": "OUI", "is_returning": "OUI", "duedate": "2024-06-14T15:49:02+00:00", "coordonnees_geo": {"lon": 2.320263946784738, "lat": 48.84308531746595}, "nom_arrondissement_communes": "Paris", "code_insee_commune": null}, {"stationcode": "20016", "name": "Pyr\u00e9n\u00e9es - Mara\u00eechers", "is_installed": "OUI", "capacity": 19, "numdocksavailable": 18, "numbikesavailable": 1, "mechanical": 0, "ebike": 1, "is_renting": "OUI", "is_returning": "OUI", "duedate": "2024-06-14T15:49:27+00:00", "coordonnees_geo": {"lon": 2.4043509364128113, "lat": 48.85714001395299}, "nom_arrondissement_communes": "Paris", "code_insee_commune": null}, {"stationcode": "16043", "name": "Place de Passy", "is_installed": "OUI", "capacity": 15, "numdocksavailable": 15, "numbikesavailable": 0, "mechanical": 0, "ebike": 0, "is_renting": "OUI", "is_returning": "OUI", "duedate": "2024-06-14T15:48:17+00:00", "coordonnees_geo": {"lon": 2.277500546942199, "lat": 48.85780291711202}, "nom_arrondissement_communes": "Paris", "code_insee_commune": null}, {"stationcode": "6107", "name": "Place Alphonse Deville", "is_installed": "OUI", "capacity": 23, "numdocksavailable": 4, "numbikesavailable": 18, "mechanical": 17, "ebike": 1, "is_renting": "OUI", "is_returning": "OUI", "duedate": "2024-06-14T15:50:03+00:00", "coordonnees_geo": {"lon": 2.3275961726904, "lat": 48.850188262662}, "nom_arrondissement_communes": "Paris", "code_insee_commune": null}, {"stationcode": "18017", "name": "Caulaincourt - Place Constantin Pecqueur", "is_installed": "OUI", "capacity": 44, "numdocksavailable": 39, "numbikesavailable": 4, "mechanical": 0, "ebike": 4, "is_renting": "OUI", "is_returning": "OUI", "duedate": "2024-06-14T15:49:20+00:00", "coordonnees_geo": {"lon": 2.33817871442611, "lat": 48.8896779050281}, "nom_arrondissement_communes": "Paris", "code_insee_commune": null}, {"stationcode": "9017", "name": "Lallier - Trudaine", "is_installed": "OUI", "capacity": 29, "numdocksavailable": 26, "numbikesavailable": 3, "mechanical": 1, "ebike": 2, "is_renting": "OUI", "is_returning": "OUI", "duedate": "2024-06-14T15:49:58+00:00", "coordonnees_geo": {"lon": 2.3408224806189537, "lat": 48.88109246617963}, "nom_arrondissement_communes": "Paris", "code_insee_commune": null}, {"stationcode": "7008", "name": "Villersexel - Saint-Germain", "is_installed": "OUI", "capacity": 16, "numdocksavailable": 13, "numbikesavailable": 2, "mechanical": 0, "ebike": 2, "is_renting": "OUI", "is_returning": "OUI", "duedate": "2024-06-14T15:49:43+00:00", "coordonnees_geo": {"lon": 2.3237934708595, "lat": 48.858297001218}, "nom_arrondissement_communes": "Paris", "code_insee_commune": null}, {"stationcode": "16112", "name": "Chernoviz - Raynouard", "is_installed": "OUI", "capacity": 37, "numdocksavailable": 35, "numbikesavailable": 2, "mechanical": 0, "ebike": 2, "is_renting": "OUI", "is_returning": "OUI", "duedate": "2024-06-14T15:47:41+00:00", "coordonnees_geo": {"lon": 2.282173218142987, "lat": 48.8569864146289}, "nom_arrondissement_communes": "Paris", "code_insee_commune": null}, {"stationcode": "17022", "name": "Pereire - Place de Wagram", "is_installed": "OUI", "capacity": 46, "numdocksavailable": 43, "numbikesavailable": 3, "mechanical": 2, "ebike": 1, "is_renting": "OUI", "is_returning": "OUI", "duedate": "2024-06-14T15:43:09+00:00", "coordonnees_geo": {"lon": 2.304111124531457, "lat": 48.887070607581215}, "nom_arrondissement_communes": "Paris", "code_insee_commune": null}, {"stationcode": "7020", "name": "Champ de Mars - Cler", "is_installed": "OUI", "capacity": 40, "numdocksavailable": 16, "numbikesavailable": 22, "mechanical": 21, "ebike": 1, "is_renting": "OUI", "is_returning": "OUI", "duedate": "2024-06-14T15:47:48+00:00", "coordonnees_geo": {"lon": 2.306646779179573, "lat": 48.856691550115315}, "nom_arrondissement_communes": "Paris", "code_insee_commune": null}, {"stationcode": "13103", "name": "H\u00f4pital Piti\u00e9 Salp\u00eatri\u00e8re", "is_installed": "OUI", "capacity": 50, "numdocksavailable": 44, "numbikesavailable": 5, "mechanical": 3, "ebike": 2, "is_renting": "OUI", "is_returning": "OUI", "duedate": "2024-06-14T15:44:54+00:00", "coordonnees_geo": {"lon": 2.3604946, "lat": 48.8377016}, "nom_arrondissement_communes": "Paris", "code_insee_commune": null}, {"stationcode": "15107", "name": "Palais des Sports", "is_installed": "OUI", "capacity": 22, "numdocksavailable": 5, "numbikesavailable": 17, "mechanical": 17, "ebike": 0, "is_renting": "OUI", "is_returning": "OUI", "duedate": "2024-06-14T15:49:29+00:00", "coordonnees_geo": {"lon": 2.2858720645308, "lat": 48.833468517426}, "nom_arrondissement_communes": "Paris", "code_insee_commune": null}, {"stationcode": "9101", "name": "Cadet - La Fayette", "is_installed": "OUI", "capacity": 19, "numdocksavailable": 16, "numbikesavailable": 1, "mechanical": 1, "ebike": 0, "is_renting": "OUI", "is_returning": "OUI", "duedate": "2024-06-14T15:49:03+00:00", "coordonnees_geo": {"lon": 2.3435704037547, "lat": 48.875601632672}, "nom_arrondissement_communes": "Paris", "code_insee_commune": null}, {"stationcode": "1117", "name": "Pont Neuf - Rivoli", "is_installed": "OUI", "capacity": 27, "numdocksavailable": 3, "numbikesavailable": 21, "mechanical": 18, "ebike": 3, "is_renting": "OUI", "is_returning": "OUI", "duedate": "2024-06-14T15:49:22+00:00", "coordonnees_geo": {"lon": 2.344057559967, "lat": 48.860089892617}, "nom_arrondissement_communes": "Paris", "code_insee_commune": null}, {"stationcode": "11043", "name": "Place Pasdeloup", "is_installed": "OUI", "capacity": 21, "numdocksavailable": 9, "numbikesavailable": 11, "mechanical": 11, "ebike": 0, "is_renting": "OUI", "is_returning": "OUI", "duedate": "2024-06-14T15:47:53+00:00", "coordonnees_geo": {"lon": 2.3670325062844, "lat": 48.862654215631}, "nom_arrondissement_communes": "Paris", "code_insee_commune": null}, {"stationcode": "12161", "name": "Diderot - Reuilly", "is_installed": "OUI", "capacity": 44, "numdocksavailable": 5, "numbikesavailable": 34, "mechanical": 24, "ebike": 10, "is_renting": "OUI", "is_returning": "OUI", "duedate": "2024-06-14T15:50:04+00:00", "coordonnees_geo": {"lon": 2.3861273378134, "lat": 48.847208456061}, "nom_arrondissement_communes": "Paris", "code_insee_commune": null}, {"stationcode": "20137", "name": "Borr\u00e9go - Gambetta", "is_installed": "OUI", "capacity": 25, "numdocksavailable": 24, "numbikesavailable": 1, "mechanical": 0, "ebike": 1, "is_renting": "OUI", "is_returning": "OUI", "duedate": "2024-06-14T15:48:59+00:00", "coordonnees_geo": {"lon": 2.4014145880937576, "lat": 48.87330497045532}, "nom_arrondissement_communes": "Paris", "code_insee_commune": null}, {"stationcode": "31704", "name": "Jeanne Hornet - Girardot", "is_installed": "OUI", "capacity": 29, "numdocksavailable": 25, "numbikesavailable": 4, "mechanical": 0, "ebike": 4, "is_renting": "OUI", "is_returning": "OUI", "duedate": "2024-06-14T15:49:07+00:00", "coordonnees_geo": {"lon": 2.427820265293122, "lat": 48.873802681432146}, "nom_arrondissement_communes": "Bagnolet", "code_insee_commune": null}, {"stationcode": "19023", "name": "Manin - Simon Bolivar", "is_installed": "OUI", "capacity": 26, "numdocksavailable": 22, "numbikesavailable": 4, "mechanical": 0, "ebike": 4, "is_renting": "OUI", "is_returning": "OUI", "duedate": "2024-06-14T15:49:01+00:00", "coordonnees_geo": {"lon": 2.379407362599104, "lat": 48.87649965412676}, "nom_arrondissement_communes": "Paris", "code_insee_commune": null}, {"stationcode": "15059", "name": "Parc Andr\u00e9 Citro\u00ebn", "is_installed": "OUI", "capacity": 65, "numdocksavailable": 12, "numbikesavailable": 53, "mechanical": 49, "ebike": 4, "is_renting": "OUI", "is_returning": "OUI", "duedate": "2024-06-14T15:46:44+00:00", "coordonnees_geo": {"lon": 2.2780618071556096, "lat": 48.840639944296655}, "nom_arrondissement_communes": "Paris", "code_insee_commune": null}, {"stationcode": "23403", "name": "Chateau", "is_installed": "OUI", "capacity": 22, "numdocksavailable": 6, "numbikesavailable": 16, "mechanical": 13, "ebike": 3, "is_renting": "OUI", "is_returning": "OUI", "duedate": "2024-06-14T15:47:55+00:00", "coordonnees_geo": {"lon": 2.3135878035462, "lat": 48.774661399959}, "nom_arrondissement_communes": "Bourg-la-Reine", "code_insee_commune": null}, {"stationcode": "31023", "name": "Place Fran\u00e7ois Mitterand", "is_installed": "OUI", "capacity": 34, "numdocksavailable": 30, "numbikesavailable": 3, "mechanical": 0, "ebike": 3, "is_renting": "OUI", "is_returning": "OUI", "duedate": "2024-06-14T15:48:26+00:00", "coordonnees_geo": {"lon": 2.442958317697048, "lat": 48.86492782016328}, "nom_arrondissement_communes": "Montreuil", "code_insee_commune": null}, {"stationcode": "9118", "name": "Faubourg Poissonniere - Delta", "is_installed": "OUI", "capacity": 36, "numdocksavailable": 33, "numbikesavailable": 1, "mechanical": 0, "ebike": 1, "is_renting": "OUI", "is_returning": "OUI", "duedate": "2024-06-14T15:49:13+00:00", "coordonnees_geo": {"lon": 2.3497482016682625, "lat": 48.882555807626765}, "nom_arrondissement_communes": "Paris", "code_insee_commune": null}]