[{"stationcode": "7015", "name": "Varenne", "is_installed": "OUI", "capacity": 47, "numdocksavailable": 27, "numbikesavailable": 17, "mechanical": 11, "ebike": 6, "is_renting": "OUI", "is_returning": "OUI", "duedate": "2024-06-14T15:49:38+00:00", "coordonnees_geo": {"lon": 2.3152771219611, "lat": 48.857202661803}, "nom_arrondissement_communes": "Paris", "code_insee_commune": null}, {"stationcode": "35018", "name": "Ancien Canal - H\u00e9l\u00e8ne Brion", "is_installed": "OUI", "capacity": 23, "numdocksavailable": 19, "numbikesavailable": 4, "mechanical": 1, "ebike": 3, "is_renting": "OUI", "is_returning": "OUI", "duedate": "2024-06-14T15:46:06+00:00", "coordonnees_geo": {"lon": 2.4188338592648506, "lat": 48.89484799296163}, "nom_arrondissement_communes": "Pantin", "code_insee_commune": null}, {"stationcode": "19005", "name": "Flandre - Riquet", "is_installed": "OUI", "capacity": 21, "numdocksavailable": 14, "numbikesavailable": 5, "mechanical": 2, "ebike": 3, "is_renting": "OUI", "is_returning": "OUI", "duedate": "2024-06-14T15:47:09+00:00", "coordonnees_geo": {"lon": 2.3737595955229, "lat": 48.888013281448}, "nom_arrondissement_communes": "Paris", "code_insee_commune": null}, {"stationcode": "41606", "name": "Pasteur - Gambetta", "is_installed": "OUI", "capacity": 19, "numdocksavailable": 5, "numbikesavailable": 12, "mechanical": 10, "ebike": 2, "is_renting": "OUI", "is_returning": "OUI", "duedate": "2024-06-14T15:50:04+00:00", "coordonnees_geo": {"lon": 2.4236011505126953, "lat": 48.84572797384512}, "nom_arrondissement_communes": "Saint-Mand\u00e9", "code_insee_commune": null}, {"stationcode": "33018", "name": "Edouard Poisson - Victor Hugo", "is_installed": "OUI", "capacity": 30, "numdocksavailable": 4, "numbikesavailable": 22, "mechanical": 13, "ebike": 9, "is_renting": "OUI", "is_returning": "OUI", "duedate": "2024-06-14T15:49:51+00:00", "coordonnees_geo": {"lon": 2.379864752692811, "lat": 48.91118557052621}, "nom_arrondissement_communes": "Aubervilliers", "code_insee_commune": null}, {"stationcode": "21305", "name": "Place Jacques Madaule", "is_installed": "OUI", "capacity": 25, "numdocksavailable": 13, "numbikesavailable": 10, "mechanical": 8, "ebike": 2, "is_renting": "OUI", "is_returning": "OUI", "duedate": "2024-06-14T15:50:15+00:00", "coordonnees_geo": {"lon": 2.2606918215752, "lat": 48.823933787309}, "nom_arrondissement_communes": "Issy-les-Moulineaux", "code_insee_commune": null}, {"stationcode": "14021", "name": "Place de la Porte de Ch\u00e2tillon", "is_installed": "OUI", "capacity": 59, "numdocksavailable": 52, "numbikesavailable": 7, "mechanical": 4, "ebike": 3, "is_renting": "OUI", "is_returning": "OUI", "duedate": "2024-06-14T15:49:46+00:00", "coordonnees_geo": {"lon": 2.3186306, "lat": 48.8242469}, "nom_arrondissement_communes": "Paris", "code_insee_commune": null}, {"stationcode": "8033", "name": "Commandant Rivi\u00e8re", "is_installed": "OUI", "capacity": 42, "numdocksavailable": 22, "numbikesavailable": 18, "mechanical": 16, "ebike": 2, "is_renting": "OUI", "is_returning": "OUI", "duedate": "2024-06-14T15:50:18+00:00", "coordonnees_geo": {"lon": 2.309796, "lat": 48.872933}, "nom_arrondissement_communes": "Paris", "code_insee_commune": null}, {"stationcode": "16121", "name": "Jardin d'Acclimatation", "is_installed": "OUI", "capacity": 33, "numdocksavailable": 32, "numbikesavailable": 1, "mechanical": 1, "ebike": 0, "is_renting": "OUI", "is_returning": "OUI", "duedate": "2024-06-14T15:45:46+00:00", "coordonnees_geo": {"lon": 2.270772233605385, "lat": 48.878772242510465}, "nom_arrondissement_communes": "Paris", "code_insee_commune": null}, {"stationcode": "33003", "name": "Bordier - F\u00e9lix Faure", "is_installed": "OUI", "capacity": 48, "numdocksavailable": 27, "numbikesavailable": 20, "mechanical": 11, "ebike": 9, "is_renting": "OUI", "is_returning": "OUI", "duedate": "2024-06-14T15:49:14+00:00", "coordonnees_geo": {"lon": 2.3830059170722966, "lat": 48.90390751882016}, "nom_arrondissement_communes": "Aubervilliers", "code_insee_commune": null}, {"stationcode": "33009", "name": "F\u00e9lix Faure - Sadi Carnot", "is_installed": "OUI", "capacity": 33, "numdocksavailable": 24, "numbikesavailable": 7, "mechanical": 5, "ebike": 2, "is_renting": "OUI", "is_returning": "OUI", "duedate": "2024-06-14T15:48:52+00:00", "coordonnees_geo": {"lon": 2.378623187541962, "lat": 48.90812110228388}, "nom_arrondissement_communes": "Aubervilliers", "code_insee_commune": null}, {"stationcode": "25005", "name": "18 juin 1940 - Buzenval", "is_installed": "OUI", "capacity": 25, "numdocksavailable": 21, "numbikesavailable": 4, "mechanical": 3, "ebike": 1, "is_renting": "OUI", "is_returning": "OUI", "duedate": "2024-06-14T15:48:05+00:00", "coordonnees_geo": {"lon": 2.185428, "lat": 48.868807}, "nom_arrondissement_communes": "Rueil-Malmaison", "code_insee_commune": null}, {"stationcode": "22505", "name": "Mairie de La Garenne Colombes", "is_installed": "OUI", "capacity": 22, "numdocksavailable": 18, "numbikesavailable": 3, "mechanical": 1, "ebike": 2, "is_renting": "OUI", "is_returning": "OUI", "duedate": "2024-06-14T15:50:14+00:00", "coordonnees_geo": {"lon": 2.24679596722126, "lat": 48.90663823468682}, "nom_arrondissement_communes": "La Garenne-Colombes", "code_insee_commune": null}, {"stationcode": "13045", "name": "Jean Colly - Tolbiac", "is_installed": "OUI", "capacity": 36, "numdocksavailable": 17, "numbikesavailable": 17, "mechanical": 11, "ebike": 6, "is_renting": "OUI", "is_returning": "OUI", "duedate": "2024-06-14T15:49:14+00:00", "coordonnees_geo": {"lon": 2.3705490678548813, "lat": 48.827817291597846}, "nom_arrondissement_communes": "Paris", "code_insee_commune": null}, {"stationcode": "19115", "name": "Porte de la Villette", "is_installed": "OUI", "capacity": 27, "numdocksavailable": 13, "numbikesavailable": 13, "mechanical": 8, "ebike": 5, "is_renting": "OUI", "is_returning": "OUI", "duedate": "2024-06-14T15:49:14+00:00", "coordonnees_geo": {"lon": 2.386150136590004, "lat": 48.89835196548483}, "nom_arrondissement_communes": "Paris", "code_insee_commune": null}, {"stationcode": "15033", "name": "Place Violet", "is_installed": "OUI", "capacity": 30, "numdocksavailable": 10, "numbikesavailable": 19, "mechanical": 19, "ebike": 0, "is_renting": "OUI", "is_returning": "OUI", "duedate": "2024-06-14T15:50:15+00:00", "coordonnees_geo": {"lon": 2.2905756533145905, "lat": 48.84487893836502}, "nom_arrondissement_communes": "Paris", "code_insee_commune": null}, {"stationcode": "25008", "name": "Place du 8 Mai 1945", "is_installed": "OUI", "capacity": 18, "numdocksavailable": 16, "numbikesavailable": 1, "mechanical": 0, "ebike": 1, "is_renting": "OUI", "is_returning": "OUI", "duedate": "2024-06-14T15:41:41+00:00", "coordonnees_geo": {"lon": 2.2025031970585, "lat": 48.871552174017}, "nom_arrondissement_communes": "Rueil-Malmaison", "code_insee_commune": null}, {"stationcode": "24002", "name": "Gare de Courbevoie", "is_installed": "OUI", "capacity": 35, "numdocksavailable": 26, "numbikesavailable": 6, "mechanical": 4, "ebike": 2, "is_renting": "OUI", "is_returning": "OUI", "duedate": "2024-06-14T15:50:11+00:00", "coordonnees_geo": {"lon": 2.2506506, "lat": 48.8993867}, "nom_arrondissement_communes": "Courbevoie", "code_insee_commune": null}, {"stationcode": "17045", "name": "Place des Ternes.", "is_installed": "OUI", "capacity": 46, "numdocksavailable": 41, "numbikesavailable": 2, "mechanical": 0, "ebike": 2, "is_renting": "OUI", "is_returning": "OUI", "duedate": "2024-06-14T16:48:14+00:00", "coordonnees_geo": {"lon": 2.297727763652802, "lat": 48.878438631226516}, "nom_arrondissement_communes": "Paris", "code_insee_commune": null}, {"stationcode": "43402", "name": "Place de Verdun", "is_installed": "OUI", "capacity": 40, "numdocksavailable": 4, "numbikesavailable": 35, "mechanical": 33, "ebike": 2, "is_renting": "OUI", "is_returning": "OUI", "duedate": "2024-06-14T16:50:14+00:00", "coordonnees_geo": {"lon": 2.473775, "lat": 48.8202823}, "nom_arrondissement_communes": "Joinville-le-Pont", "code_insee_commune": null}, {"stationcode": "12013", "name": "Montgallet - Reuilly", "is_installed": "OUI", "capacity": 16, "numdocksavailable": 3, "numbikesavailable": 12, "mechanical": 7, "ebike": 5, "is_renting": "OUI", "is_returning": "OUI", "duedate": "2024-06-14T16:48:38+00:00", "coordonnees_geo": {"lon": 2.3896481, "lat": 48.844291}, "nom_arrondissement_communes": "Paris", "code_insee_commune": null}, {"stationcode": "14021", "name": "Place de la Porte de Ch\u00e2tillon", "is_installed": "OUI", "capacity": 59, "numdocksavailable": 53, "numbikesavailable": 6, "mechanical": 4, "ebike": 2, "is_renting": "OUI", "is_returning": "OUI", "duedate": "2024-06-14T16:48:33+00:00", "coordonnees_geo": {"lon": 2.3186306, "lat": 48.8242469}, "nom_arrondissement_communes": "Paris", "code_insee_commune": null}, {"stationcode": "6013", "name": "Jacques Callot - Mazarine", "is_installed": "OUI", "capacity": 28, "numdocksavailable": 18, "numbikesavailable": 8, "mechanical": 5, "ebike": 3, "is_renting": "OUI", "is_returning": "OUI", "duedate": "2024-06-14T16:49:56+00:00", "coordonnees_geo": {"lon": 2.337574325501919, "lat": 48.85528017533187}, "nom_arrondissement_communes": "Paris", "code_insee_commune": null}, {"stationcode": "8033", "name": "Commandant Rivi\u00e8re", "is_installed": "OUI", "capacity": 42, "numdocksavailable": 36, "numbikesavailable": 4, "mechanical": 1, "ebike": 3, "is_renting": "OUI", "is_returning": "OUI", "duedate": "2024-06-14T16:50:08+00:00", "coordonnees_geo": {"lon": 2.309796, "lat": 48.872933}, "nom_arrondissement_communes": "Paris", "code_insee_commune": null}, {"stationcode": "16121", "name": "Jardin d'Acclimatation", "is_installed": "OUI", "capacity": 33, "numdocksavailable": 30, "numbikesavailable": 3, "mechanical": 1, "ebike": 2, "is_renting": "OUI", "is_returning": "OUI", "duedate": "2024-06-14T16:50:19+00:00", "coordonnees_geo": {"lon": 2.270772233605385, "lat": 48.878772242510465}, "nom_arrondissement_communes": "Paris", "code_insee_commune": null}, {"stationcode": "23001", "name": "Paul Vaillant Couturier - Chaptal", "is_installed": "OUI", "capacity": 39, "numdocksavailable": 28, "numbikesavailable": 9, "mechanical": 3, "ebike": 6, "is_renting": "OUI", "is_returning": "OUI", "duedate": "2024-06-14T16:48:10+00:00", "coordonnees_geo": {"lon": 2.2775253653526, "lat": 48.893479576183}, "nom_arrondissement_communes": "Levallois-Perret", "code_insee_commune": null}, {"stationcode": "41102", "name": "Gare de Laplace", "is_installed": "OUI", "capacity": 43, "numdocksavailable": 42, "numbikesavailable": 1, "mechanical": 0, "ebike": 1, "is_renting": "OUI", "is_returning": "OUI", "duedate": "2024-06-14T16:43:58+00:00", "coordonnees_geo": {"lon": 2.3349460959434514, "lat": 48.80893199114179}, "nom_arrondissement_communes": "Arcueil", "code_insee_commune": null}, {"stationcode": "18141", "name": "Clignancourt - Sofia", "is_installed": "OUI", "capacity": 19, "numdocksavailable": 15, "numbikesavailable": 4, "mechanical": 1, "ebike": 3, "is_renting": "OUI", "is_returning": "OUI", "duedate": "2024-06-14T16:49:21+00:00", "coordonnees_geo": {"lon": 2.34719488842051, "lat": 48.88511992309783}, "nom_arrondissement_communes": "Paris", "code_insee_commune": null}, {"stationcode": "33003", "name": "Bordier - F\u00e9lix Faure", "is_installed": "OUI", "capacity": 48, "numdocksavailable": 29, "numbikesavailable": 18, "mechanical": 13, "ebike": 5, "is_renting": "OUI", "is_returning": "OUI", "duedate": "2024-06-14T16:49:32+00:00", "coordonnees_geo": {"lon": 2.3830059170722966, "lat": 48.90390751882016}, "nom_arrondissement_communes": "Aubervilliers", "code_insee_commune": null}, {"stationcode": "33009", "name": "F\u00e9lix Faure - Sadi Carnot", "is_installed": "OUI", "capacity": 33, "numdocksavailable": 24, "numbikesavailable": 7, "mechanical": 2, "ebike": 5, "is_renting": "OUI", "is_returning": "OUI", "duedate": "2024-06-14T16:45:36+00:00", "coordonnees_geo": {"lon": 2.378623187541962, "lat": 48.90812110228388}, "nom_arrondissement_communes": "Aubervilliers", "code_insee_commune": null}, {"stationcode": "13045", "name": "Jean Colly - Tolbiac", "is_installed": "OUI", "capacity": 36, "numdocksavailable": 27, "numbikesavailable": 7, "mechanical": 4, "ebike": 3, "is_renting": "OUI", "is_returning": "OUI", "duedate": "2024-06-14T16:48:07+00:00", "coordonnees_geo": {"lon": 2.3705490678548813, "lat": 48.827817291597846}, "nom_arrondissement_communes": "Paris", "code_insee_commune": null}, {"stationcode": "19115", "name": "Porte de la Villette", "is_installed": "OUI", "capacity": 27, "numdocksavailable": 14, "numbikesavailable": 12, "mechanical": 9, "ebike": 3, "is_renting": "OUI", "is_returning": "OUI", "duedate": "2024-06-14T16:48:18+00:00", "coordonnees_geo": {"lon": 2.386150136590004, "lat": 48.89835196548483}, "nom_arrondissement_communes": "Paris", "code_insee_commune": null}, {"stationcode": "14034", "name": "Ouest - Ch\u00e2teau", "is_installed": "OUI", "capacity": 23, "numdocksavailable": 17, "numbikesavailable": 5, "mechanical": 2, "ebike": 3, "is_renting": "OUI", "is_returning": "OUI", "duedate": "2024-06-14T16:50:11+00:00", "coordonnees_geo": {"lon": 2.319392143923804, "lat": 48.83617286014242}, "nom_arrondissement_communes": "Paris", "code_insee_commune": null}, {"stationcode": "12034", "name": "Pirogues de Bercy - Libourne", "is_installed": "OUI", "capacity": 49, "numdocksavailable": 15, "numbikesavailable": 33, "mechanical": 29, "ebike": 4, "is_renting": "OUI", "is_returning": "OUI", "duedate": "2024-06-14T16:46:06+00:00", "coordonnees_geo": {"lon": 2.38637, "lat": 48.832308}, "nom_arrondissement_communes": "Paris", "code_insee_commune": null}, {"stationcode": "15033", "name": "Place Violet", "is_installed": "OUI", "capacity": 30, "numdocksavailable": 11, "numbikesavailable": 19, "mechanical": 15, "ebike": 4, "is_renting": "OUI", "is_returning": "OUI", "duedate": "2024-06-14T16:49:46+00:00", "coordonnees_geo": {"lon": 2.2905756533145905, "lat": 48.84487893836502}, "nom_arrondissement_communes": "Paris", "code_insee_commune": null}, {"stationcode": "24002", "name": "Gare de Courbevoie", "is_installed": "OUI", "capacity": 35, "numdocksavailable": 26, "numbikesavailable": 6, "mechanical": 3, "ebike": 3, "is_renting": "OUI", "is_returning": "OUI", "duedate": "2024-06-14T16:50:20+00:00", "coordonnees_geo": {"lon": 2.2506506, "lat": 48.8993867}, "nom_arrondissement_communes": "Courbevoie", "code_insee_commune": null}, {"stationcode": "12201", "name": "Dugommier", "is_installed": "OUI", "capacity": 53, "numdocksavailable": 2, "numbikesavailable": 48, "mechanical": 35, "ebike": 13, "is_renting": "OUI", "is_returning": "OUI", "duedate": "2024-06-14T16:49:37+00:00", "coordonnees_geo": {"lon": 2.3896577954292, "lat": 48.838811048815}, "nom_arrondissement_communes": "Paris", "code_insee_commune": null}, {"stationcode": "16034", "name": "Porte d'Auteuil", "is_installed": "OUI", "capacity": 33, "numdocksavailable": 21, "numbikesavailable": 10, "mechanical": 6, "ebike": 4, "is_renting": "OUI", "is_returning": "OUI", "duedate": "2024-06-14T16:49:55+00:00", "coordonnees_geo": {"lon": 2.2608396783471107, "lat": 48.8479394142243}, "nom_arrondissement_communes": "Paris", "code_insee_commune": null}, {"stationcode": "19203", "name": "Pailleron - Bouret", "is_installed": "NON", "capacity": 0, "numdocksavailable": 0, "numbikesavailable": 0, "mechanical": 0, "ebike": 0, "is_renting": "NON", "is_returning": "NON", "duedate": "2024-03-28T11:31:00+00:00", "coordonnees_geo": {"lon": 2.3763902374411, "lat": 48.880516995482}, "nom_arrondissement_communes": "Paris", "code_insee_commune": null}, {"stationcode": "11031_relais", "name": "Jacquard - Ternaux", "is_installed": "OUI", "capacity": 0, "numdocksavailable": 0, "numbikesavailable": 0, "mechanical": 0, "ebike": 0, "is_renting": "NON", "is_returning": "NON", "duedate": "2023-12-06T09:59:55+00:00", "coordonnees_geo": {"lon": 2.3730935, "lat": 48.8643671}, "nom_arrondissement_communes": "Paris", "code_insee_commune": null}, {"stationcode": "20119", "name": "Square des Saint-Simoniens", "is_installed": "OUI", "capacity": 25, "numdocksavailable": 25, "numbikesavailable": 0, "mechanical": 0, "ebike": 0, "is_renting": "OUI", "is_returning": "OUI", "duedate": "2024-06-14T16:50:00+00:00", "coordonnees_geo": {"lon": 2.3967273, "lat": 48.8701796}, "nom_arrondissement_communes": "Paris", "code_insee_commune": null}, {"stationcode": "20036", "name": "M\u00e9nilmontant - Pelleport", "is_installed": "OUI", "capacity": 19, "numdocksavailable": 18, "numbikesavailable": 0, "mechanical": 0, "ebike": 0, "is_renting": "OUI", "is_returning": "OUI", "duedate": "2024-06-14T16:48:46+00:00", "coordonnees_geo": {"lon": 2.398959602331646, "lat": 48.87068263384462}, "nom_arrondissement_communes": "Paris", "code_insee_commune": null}, {"stationcode": "31705", "name": "Champeaux - Gallieni", "is_installed": "OUI", "capacity": 50, "numdocksavailable": 47, "numbikesavailable": 3, "mechanical": 0, "ebike": 3, "is_renting": "OUI", "is_returning": "OUI", "duedate": "2024-06-14T16:47:34+00:00", "coordonnees_geo": {"lon": 2.4161778017878532, "lat": 48.864459134684644}, "nom_arrondissement_communes": "Bagnolet", "code_insee_commune": null}, {"stationcode": "27002", "name": "Parc Pierre Lagrav\u00e8re", "is_installed": "OUI", "capacity": 30, "numdocksavailable": 12, "numbikesavailable": 16, "mechanical": 12, "ebike": 4, "is_renting": "OUI", "is_returning": "OUI", "duedate": "2024-06-14T16:48:47+00:00", "coordonnees_geo": {"lon": 2.239069678491417, "lat": 48.92650488131725}, "nom_arrondissement_communes": "Colombes", "code_insee_commune": null}, {"stationcode": "17007", "name": "Navier - Epinettes", "is_installed": "OUI", "capacity": 36, "numdocksavailable": 29, "numbikesavailable": 7, "mechanical": 6, "ebike": 1, "is_renting": "OUI", "is_returning": "OUI", "duedate": "2024-06-14T16:50:09+00:00", "coordonnees_geo": {"lon": 2.3226776719093327, "lat": 48.89587780769155}, "nom_arrondissement_communes": "Paris", "code_insee_commune": null}, {"stationcode": "31012", "name": "Place Carnot", "is_installed": "OUI", "capacity": 25, "numdocksavailable": 19, "numbikesavailable": 6, "mechanical": 4, "ebike": 2, "is_renting": "OUI", "is_returning": "OUI", "duedate": "2024-06-14T16:50:25+00:00", "coordonnees_geo": {"lon": 2.441531717777252, "lat": 48.85593932186797}, "nom_arrondissement_communes": "Montreuil", "code_insee_commune": null}, {"stationcode": "16129", "name": "Ceinture du Lac Inferieure - Saint-Cloud", "is_installed": "OUI", "capacity": 42, "numdocksavailable": 29, "numbikesavailable": 9, "mechanical": 4, "ebike": 5, "is_renting": "OUI", "is_returning": "OUI", "duedate": "2024-06-14T16:47:52+00:00", "coordonnees_geo": {"lon": 2.2617871686816216, "lat": 48.86218070933143}, "nom_arrondissement_communes": "Paris", "code_insee_commune": null}, {"stationcode": "35019", "name": "Anatole France - Jean Lolive", "is_installed": "OUI", "capacity": 28, "numdocksavailable": 12, "numbikesavailable": 12, "mechanical": 5, "ebike": 7, "is_renting": "OUI", "is_returning": "OUI", "duedate": "2024-06-14T16:50:15+00:00", "coordonnees_geo": {"lon": 2.4253764, "lat": 48.8949922}, "nom_arrondissement_communes": "Pantin", "code_insee_commune": null}, {"stationcode": "20113", "name": "Piat - Parc de Belleville", "is_installed": "OUI", "capacity": 21, "numdocksavailable": 14, "numbikesavailable": 6, "mechanical": 0, "ebike": 6, "is_renting": "OUI", "is_returning": "OUI", "duedate": "2024-06-14T16:48:23+00:00", "coordonnees_geo": {"lon": 2.384981390278095, "lat": 48.87195626635528}, "nom_arrondissement_communes": "Paris", "code_insee_commune": null}, {"stationcode": "6030", "name": "Assas - Vaugirard", "is_installed": "OUI", "capacity": 35, "numdocksavailable": 23, "numbikesavailable": 11, "mechanical": 6, "ebike": 5, "is_renting": "OUI", "is_returning": "OUI", "duedate": "2024-06-14T16:49:43+00:00", "coordonnees_geo": {"lon": 2.3292413726449, "lat": 48.848274111398}, "nom_arrondissement_communes": "Paris", "code_insee_commune": null}, {"stationcode": "8012", "name": "Batignolles - Place de Clichy", "is_installed": "OUI", "capacity": 47, "numdocksavailable": 41, "numbikesavailable": 5, "mechanical": 2, "ebike": 3, "is_renting": "OUI", "is_returning": "OUI", "duedate": "2024-06-14T16:50:16+00:00", "coordonnees_geo": {"lon": 2.326493114233, "lat": 48.883474535757}, "nom_arrondissement_communes": "Paris", "code_insee_commune": null}, {"stationcode": "15017", "name": "Place Falgui\u00e8re", "is_installed": "OUI", "capacity": 23, "numdocksavailable": 17, "numbikesavailable": 6, "mechanical": 2, "ebike": 4, "is_renting": "OUI", "is_returning": "OUI", "duedate": "2024-06-14T16:49:23+00:00", "coordonnees_geo": {"lon": 2.3104464635252953, "lat": 48.83629973941847}, "nom_arrondissement_communes": "Paris", "code_insee_commune": null}, {"stationcode": "15029", "name": "Emeriau - Place de Brazzaville", "is_installed": "OUI", "capacity": 51, "numdocksavailable": 12, "numbikesavailable": 39, "mechanical": 38, "ebike": 1, "is_renting": "OUI", "is_returning": "OUI", "duedate": "2024-06-14T16:50:22+00:00", "coordonnees_geo": {"lon": 2.2871585190296173, "lat": 48.850785261674964}, "nom_arrondissement_communes": "Paris", "code_insee_commune": null}, {"stationcode": "5116", "name": "Place Valhubert", "is_installed": "OUI", "capacity": 51, "numdocksavailable": 3, "numbikesavailable": 48, "mechanical": 44, "ebike": 4, "is_renting": "OUI", "is_returning": "OUI", "duedate": "2024-06-14T16:49:36+00:00", "coordonnees_geo": {"lon": 2.3640366643667, "lat": 48.844182577315}, "nom_arrondissement_communes": "Paris", "code_insee_commune": null}, {"stationcode": "10005", "name": "Petites Ecuries - Faubourg Poissonni\u00e8re", "is_installed": "OUI", "capacity": 17, "numdocksavailable": 12, "numbikesavailable": 4, "mechanical": 2, "ebike": 2, "is_renting": "OUI", "is_returning": "OUI", "duedate": "2024-06-14T16:50:24+00:00", "coordonnees_geo": {"lon": 2.348388757504776, "lat": 48.87397217237368}, "nom_arrondissement_communes": "Paris", "code_insee_commune": null}, {"stationcode": "26001", "name": "Gare d'Asni\u00e8res sur Seine", "is_installed": "OUI", "capacity": 24, "numdocksavailable": 7, "numbikesavailable": 16, "mechanical": 10, "ebike": 6, "is_renting": "OUI", "is_returning": "OUI", "duedate": "2024-06-14T16:49:38+00:00", "coordonnees_geo": {"lon": 2.2835066914558415, "lat": 48.90636459217474}, "nom_arrondissement_communes": "Asni\u00e8res-sur-Seine", "code_insee_commune": null}, {"stationcode": "18020", "name": "Francoeur - Marcadet", "is_installed": "OUI", "capacity": 20, "numdocksavailable": 17, "numbikesavailable": 3, "mechanical": 1, "ebike": 2, "is_renting": "OUI", "is_returning": "OUI", "duedate": "2024-06-14T16:50:06+00:00", "coordonnees_geo": {"lon": 2.340014585442034, "lat": 48.89104123261663}, "nom_arrondissement_communes": "Paris", "code_insee_commune": null}, {"stationcode": "43006", "name": "Vignerons - Minimes", "is_installed": "OUI", "capacity": 29, "numdocksavailable": 27, "numbikesavailable": 2, "mechanical": 2, "ebike": 0, "is_renting": "OUI", "is_returning": "OUI", "duedate": "2024-06-14T16:47:14+00:00", "coordonnees_geo": {"lon": 2.430793, "lat": 48.841486}, "nom_arrondissement_communes": "Vincennes", "code_insee_commune": null}, {"stationcode": "8102", "name": "Lamennais - Washington", "is_installed": "OUI", "capacity": 26, "numdocksavailable": 24, "numbikesavailable": 0, "mechanical": 0, "ebike": 0, "is_renting": "OUI", "is_returning": "OUI", "duedate": "2024-06-14T16:45:52+00:00", "coordonnees_geo": {"lon": 2.303444892168045, "lat": 48.87352990026496}, "nom_arrondissement_communes": "Paris", "code_insee_commune": null}, {"stationcode": "14018", "name": "Porte d'Orl\u00e9ans", "is_installed": "OUI", "capacity": 48, "numdocksavailable": 41, "numbikesavailable": 6, "mechanical": 2, "ebike": 4, "is_renting": "OUI", "is_returning": "OUI", "duedate": "2024-06-14T16:45:46+00:00", "coordonnees_geo": {"lon": 2.3249313, "lat": 48.8227639}, "nom_arrondissement_communes": "Paris", "code_insee_commune": null}, {"stationcode": "31702", "name": "Pierre et Marie Curie - Julien Grimau", "is_installed": "OUI", "capacity": 18, "numdocksavailable": 15, "numbikesavailable": 3, "mechanical": 1, "ebike": 2, "is_renting": "OUI", "is_returning": "OUI", "duedate": "2024-06-14T16:48:38+00:00", "coordonnees_geo": {"lon": 2.424097023904324, "lat": 48.870714014863225}, "nom_arrondissement_communes": "Bagnolet", "code_insee_commune": null}, {"stationcode": "7004", "name": "Raspail - Varenne", "is_installed": "OUI", "capacity": 18, "numdocksavailable": 9, "numbikesavailable": 9, "mechanical": 5, "ebike": 4, "is_renting": "OUI", "is_returning": "OUI", "duedate": "2024-06-14T16:49:25+00:00", "coordonnees_geo": {"lon": 2.3263905197382, "lat": 48.853147816545}, "nom_arrondissement_communes": "Paris", "code_insee_commune": null}, {"stationcode": "42503", "name": "Vladimir Ilitch L\u00e9nine - Andr\u00e9e Chedid", "is_installed": "OUI", "capacity": 31, "numdocksavailable": 20, "numbikesavailable": 11, "mechanical": 2, "ebike": 9, "is_renting": "OUI", "is_returning": "OUI", "duedate": "2024-06-14T16:49:42+00:00", "coordonnees_geo": {"lon": 2.3319716067039, "lat": 48.813240124373}, "nom_arrondissement_communes": "Gentilly", "code_insee_commune": null}, {"stationcode": "7006", "name": "Quai Voltaire", "is_installed": "OUI", "capacity": 32, "numdocksavailable": 24, "numbikesavailable": 3, "mechanical": 2, "ebike": 1, "is_renting": "OUI", "is_returning": "OUI", "duedate": "2024-06-14T16:49:33+00:00", "coordonnees_geo": {"lon": 2.3314182047146, "lat": 48.858942986179}, "nom_arrondissement_communes": "Paris", "code_insee_commune": null}, {"stationcode": "20040", "name": "Parc de Belleville - Julien Lacroix", "is_installed": "OUI", "capacity": 26, "numdocksavailable": 23, "numbikesavailable": 3, "mechanical": 2, "ebike": 1, "is_renting": "OUI", "is_returning": "OUI", "duedate": "2024-06-14T16:48:41+00:00", "coordonnees_geo": {"lon": 2.3842214, "lat": 48.8703459}, "nom_arrondissement_communes": "Paris", "code_insee_commune": null}, {"stationcode": "17017", "name": "Gare de Pont-Cardinet", "is_installed": "OUI", "capacity": 34, "numdocksavailable": 29, "numbikesavailable": 2, "mechanical": 1, "ebike": 1, "is_renting": "OUI", "is_returning": "OUI", "duedate": "2024-06-14T16:49:54+00:00", "coordonnees_geo": {"lon": 2.314494143994255, "lat": 48.88713901475306}, "nom_arrondissement_communes": "Paris", "code_insee_commune": null}, {"stationcode": "10023", "name": "Gare de l'Est - Verdun", "is_installed": "OUI", "capacity": 14, "numdocksavailable": 9, "numbikesavailable": 3, "mechanical": 0, "ebike": 3, "is_renting": "OUI", "is_returning": "OUI", "duedate": "2024-06-14T16:50:10+00:00", "coordonnees_geo": {"lon": 2.3609149083206, "lat": 48.876156054271}, "nom_arrondissement_communes": "Paris", "code_insee_commune": null}, {"stationcode": "21105", "name": "Morice - G\u00e9n\u00e9ral Leclerc", "is_installed": "OUI", "capacity": 25, "numdocksavailable": 9, "numbikesavailable": 15, "mechanical": 11, "ebike": 4, "is_renting": "OUI", "is_returning": "OUI", "duedate": "2024-06-14T16:49:13+00:00", "coordonnees_geo": {"lon": 2.3128929734230046, "lat": 48.90245471981591}, "nom_arrondissement_communes": "Clichy", "code_insee_commune": null}, {"stationcode": "34002", "name": "Capitaine Glarner - Gabriel P\u00e9ri", "is_installed": "OUI", "capacity": 27, "numdocksavailable": 17, "numbikesavailable": 6, "mechanical": 4, "ebike": 2, "is_renting": "OUI", "is_returning": "OUI", "duedate": "2024-06-14T16:42:26+00:00", "coordonnees_geo": {"lon": 2.3304807533425724, "lat": 48.902449900418745}, "nom_arrondissement_communes": "Saint-Ouen-sur-Seine", "code_insee_commune": null}, {"stationcode": "23002", "name": "Pont de Levallois-b\u00e9con", "is_installed": "OUI", "capacity": 50, "numdocksavailable": 47, "numbikesavailable": 3, "mechanical": 1, "ebike": 2, "is_renting": "OUI", "is_returning": "OUI", "duedate": "2024-06-14T16:43:56+00:00", "coordonnees_geo": {"lon": 2.2791311, "lat": 48.8984179}, "nom_arrondissement_communes": "Levallois-Perret", "code_insee_commune": null}, {"stationcode": "13102", "name": "Piti\u00e9-Salp\u00eatri\u00e8re", "is_installed": "OUI", "capacity": 51, "numdocksavailable": 42, "numbikesavailable": 9, "mechanical": 9, "ebike": 0, "is_renting": "OUI", "is_returning": "OUI", "duedate": "2024-06-14T16:49:57+00:00", "coordonnees_geo": {"lon": 2.365213818848133, "lat": 48.83748810318667}, "nom_arrondissement_communes": "Paris", "code_insee_commune": null}, {"stationcode": "14130", "name": "Jonquoy - Didot", "is_installed": "OUI", "capacity": 30, "numdocksavailable": 26, "numbikesavailable": 4, "mechanical": 0, "ebike": 4, "is_renting": "OUI", "is_returning": "OUI", "duedate": "2024-06-14T16:50:11+00:00", "coordonnees_geo": {"lon": 2.31648076325655, "lat": 48.82890454823947}, "nom_arrondissement_communes": "Paris", "code_insee_commune": null}, {"stationcode": "41207", "name": "Place du G\u00e9n\u00e9ral de Gaulle", "is_installed": "OUI", "capacity": 28, "numdocksavailable": 19, "numbikesavailable": 9, "mechanical": 3, "ebike": 6, "is_renting": "OUI", "is_returning": "OUI", "duedate": "2024-06-14T16:48:32+00:00", "coordonnees_geo": {"lon": 2.4877332, "lat": 48.8525288}, "nom_arrondissement_communes": "Fontenay-sous-Bois", "code_insee_commune": null}, {"stationcode": "21308", "name": "Bara - Henri Farman", "is_installed": "OUI", "capacity": 58, "numdocksavailable": 37, "numbikesavailable": 21, "mechanical": 16, "ebike": 5, "is_renting": "OUI", "is_returning": "OUI", "duedate": "2024-06-14T16:50:24+00:00", "coordonnees_geo": {"lon": 2.2677567601203923, "lat": 48.833218027457846}, "nom_arrondissement_communes": "Issy-les-Moulineaux", "code_insee_commune": null}, {"stationcode": "20109", "name": "Haxo - Surmelin", "is_installed": "OUI", "capacity": 21, "numdocksavailable": 20, "numbikesavailable": 0, "mechanical": 0, "ebike": 0, "is_renting": "OUI", "is_returning": "OUI", "duedate": "2024-06-14T16:49:51+00:00", "coordonnees_geo": {"lon": 2.40539657537972, "lat": 48.8694370761222}, "nom_arrondissement_communes": "Paris", "code_insee_commune": null}, {"stationcode": "6103", "name": "M\u00e9zi\u00e8res - Rennes", "is_installed": "OUI", "capacity": 55, "numdocksavailable": 51, "numbikesavailable": 3, "mechanical": 0, "ebike": 3, "is_renting": "OUI", "is_returning": "OUI", "duedate": "2024-06-14T16:48:46+00:00", "coordonnees_geo": {"lon": 2.3303819820284843, "lat": 48.85023459321703}, "nom_arrondissement_communes": "Paris", "code_insee_commune": null}, {"stationcode": "15038", "name": "Place Adolphe Cherioux - Vaugirard", "is_installed": "OUI", "capacity": 63, "numdocksavailable": 46, "numbikesavailable": 17, "mechanical": 13, "ebike": 4, "is_renting": "OUI", "is_returning": "OUI", "duedate": "2024-06-14T16:49:11+00:00", "coordonnees_geo": {"lon": 2.3010657727718353, "lat": 48.83959442800459}, "nom_arrondissement_communes": "Paris", "code_insee_commune": null}, {"stationcode": "20021", "name": "Indre - Prairies", "is_installed": "OUI", "capacity": 38, "numdocksavailable": 37, "numbikesavailable": 1, "mechanical": 0, "ebike": 1, "is_renting": "OUI", "is_returning": "OUI", "duedate": "2024-06-14T16:44:01+00:00", "coordonnees_geo": {"lon": 2.403290458023548, "lat": 48.86254398506782}, "nom_arrondissement_communes": "Paris", "code_insee_commune": null}, {"stationcode": "19109", "name": "Tanger - Place du Maroc", "is_installed": "OUI", "capacity": 19, "numdocksavailable": 18, "numbikesavailable": 0, "mechanical": 0, "ebike": 0, "is_renting": "OUI", "is_returning": "OUI", "duedate": "2024-06-14T16:48:05+00:00", "coordonnees_geo": {"lon": 2.3689296841621403, "lat": 48.8862524447104}, "nom_arrondissement_communes": "Paris", "code_insee_commune": null}, {"stationcode": "31019", "name": "Vincennes - Douy-Delcupe", "is_installed": "OUI", "capacity": 38, "numdocksavailable": 38, "numbikesavailable": 0, "mechanical": 0, "ebike": 0, "is_renting": "OUI", "is_returning": "OUI", "duedate": "2024-06-14T16:49:21+00:00", "coordonnees_geo": {"lon": 2.436049282550812, "lat": 48.85493692155721}, "nom_arrondissement_communes": "Montreuil", "code_insee_commune": null}, {"stationcode": "17124", "name": "Porte de Saint-Ouen - Henri Huchard", "is_installed": "OUI", "capacity": 26, "numdocksavailable": 23, "numbikesavailable": 3, "mechanical": 3, "ebike": 0, "is_renting": "OUI", "is_returning": "OUI", "duedate": "2024-06-14T16:50:23+00:00", "coordonnees_geo": {"lon": 2.3295360803604126, "lat": 48.898708366365064}, "nom_arrondissement_communes": "Paris", "code_insee_commune": null}, {"stationcode": "31016", "name": "Lucie Aubrac - Franklin", "is_installed": "OUI", "capacity": 36, "numdocksavailable": 34, "numbikesavailable": 2, "mechanical": 1, "ebike": 1, "is_renting": "OUI", "is_returning": "OUI", "duedate": "2024-06-14T16:47:47+00:00", "coordonnees_geo": {"lon": 2.4435862898826604, "lat": 48.86223916006812}, "nom_arrondissement_communes": "Montreuil", "code_insee_commune": null}, {"stationcode": "22101", "name": "Gare Routi\u00e8re de Saint Cloud", "is_installed": "OUI", "capacity": 31, "numdocksavailable": 23, "numbikesavailable": 7, "mechanical": 4, "ebike": 3, "is_renting": "OUI", "is_returning": "OUI", "duedate": "2024-06-14T16:50:08+00:00", "coordonnees_geo": {"lon": 2.222245037555695, "lat": 48.84288183896324}, "nom_arrondissement_communes": "Saint-Cloud", "code_insee_commune": null}, {"stationcode": "13016", "name": "Primo Levi - Frigos", "is_installed": "OUI", "capacity": 34, "numdocksavailable": 7, "numbikesavailable": 27, "mechanical": 20, "ebike": 7, "is_renting": "OUI", "is_returning": "OUI", "duedate": "2024-06-14T16:49:06+00:00", "coordonnees_geo": {"lon": 2.37965351592796, "lat": 48.83094844846017}, "nom_arrondissement_communes": "Paris", "code_insee_commune": null}, {"stationcode": "8051", "name": "Batignolles - Rome", "is_installed": "OUI", "capacity": 15, "numdocksavailable": 12, "numbikesavailable": 2, "mechanical": 0, "ebike": 2, "is_renting": "OUI", "is_returning": "OUI", "duedate": "2024-06-14T16:50:22+00:00", "coordonnees_geo": {"lon": 2.3202589899301524, "lat": 48.881823370566806}, "nom_arrondissement_communes": "Paris", "code_insee_commune": null}, {"stationcode": "44102", "name": "Verdun - Adrien Damalix", "is_installed": "OUI", "capacity": 26, "numdocksavailable": 22, "numbikesavailable": 3, "mechanical": 2, "ebike": 1, "is_renting": "OUI", "is_returning": "OUI", "duedate": "2024-06-14T16:48:51+00:00", "coordonnees_geo": {"lon": 2.4215328320860863, "lat": 48.8222334178559}, "nom_arrondissement_communes": "Saint-Maurice", "code_insee_commune": null}, {"stationcode": "16032", "name": "Eglise d'Auteuil", "is_installed": "OUI", "capacity": 21, "numdocksavailable": 17, "numbikesavailable": 3, "mechanical": 3, "ebike": 0, "is_renting": "OUI", "is_returning": "OUI", "duedate": "2024-06-14T16:46:35+00:00", "coordonnees_geo": {"lon": 2.26848387135299, "lat": 48.84749841771691}, "nom_arrondissement_communes": "Paris", "code_insee_commune": null}, {"stationcode": "22001", "name": "Ch\u00e2teau - Bineau", "is_installed": "OUI", "capacity": 23, "numdocksavailable": 15, "numbikesavailable": 7, "mechanical": 0, "ebike": 7, "is_renting": "OUI", "is_returning": "OUI", "duedate": "2024-06-14T16:50:11+00:00", "coordonnees_geo": {"lon": 2.270106375217438, "lat": 48.890404028589806}, "nom_arrondissement_communes": "Neuilly-sur-Seine", "code_insee_commune": null}, {"stationcode": "18025", "name": "Mairie du 18\u00e8me", "is_installed": "OUI", "capacity": 40, "numdocksavailable": 30, "numbikesavailable": 9, "mechanical": 6, "ebike": 3, "is_renting": "OUI", "is_returning": "OUI", "duedate": "2024-06-14T16:50:03+00:00", "coordonnees_geo": {"lon": 2.3445510864257812, "lat": 48.892939296937605}, "nom_arrondissement_communes": "Paris", "code_insee_commune": null}, {"stationcode": "17122", "name": "Bridaine - Lamand\u00e9", "is_installed": "OUI", "capacity": 29, "numdocksavailable": 25, "numbikesavailable": 4, "mechanical": 0, "ebike": 4, "is_renting": "OUI", "is_returning": "OUI", "duedate": "2024-06-14T16:46:29+00:00", "coordonnees_geo": {"lon": 2.3206239, "lat": 48.8862074}, "nom_arrondissement_communes": "Paris", "code_insee_commune": null}, {"stationcode": "9023", "name": "Laffitte - Italiens", "is_installed": "OUI", "capacity": 33, "numdocksavailable": 30, "numbikesavailable": 3, "mechanical": 2, "ebike": 1, "is_renting": "OUI", "is_returning": "OUI", "duedate": "2024-06-14T16:43:27+00:00", "coordonnees_geo": {"lon": 2.3372015478451, "lat": 48.871815737396}, "nom_arrondissement_communes": "Paris", "code_insee_commune": null}, {"stationcode": "14122", "name": "Colonel Monteil - Brune", "is_installed": "OUI", "capacity": 19, "numdocksavailable": 17, "numbikesavailable": 1, "mechanical": 0, "ebike": 1, "is_renting": "OUI", "is_returning": "OUI", "duedate": "2024-06-14T16:46:14+00:00", "coordonnees_geo": {"lon": 2.3092747998272, "lat": 48.82650293311}, "nom_arrondissement_communes": "Paris", "code_insee_commune": null}, {"stationcode": "16123", "name": "Mahatma Gandhi", "is_installed": "OUI", "capacity": 26, "numdocksavailable": 15, "numbikesavailable": 8, "mechanical": 6, "ebike": 2, "is_renting": "OUI", "is_returning": "OUI", "duedate": "2024-06-14T16:43:03+00:00", "coordonnees_geo": {"lon": 2.264205, "lat": 48.876356}, "nom_arrondissement_communes": "Paris", "code_insee_commune": null}, {"stationcode": "31007", "name": "Paris - D\u00e9sir\u00e9 Pr\u00e9aux", "is_installed": "OUI", "capacity": 49, "numdocksavailable": 30, "numbikesavailable": 17, "mechanical": 7, "ebike": 10, "is_renting": "OUI", "is_returning": "OUI", "duedate": "2024-06-14T16:49:44+00:00", "coordonnees_geo": {"lon": 2.4323049187660217, "lat": 48.85742876694898}, "nom_arrondissement_communes": "Montreuil", "code_insee_commune": null}, {"stationcode": "15108", "name": "Lourmel - Marie Skobtsov", "is_installed": "OUI", "capacity": 22, "numdocksavailable": 0, "numbikesavailable": 22, "mechanical": 19, "ebike": 3, "is_renting": "OUI", "is_returning": "OUI", "duedate": "2024-06-14T16:50:04+00:00", "coordonnees_geo": {"lon": 2.287283, "lat": 48.844974}, "nom_arrondissement_communes": "Paris", "code_insee_commune": null}, {"stationcode": "17047", "name": "Courcelles - Pierre Demours", "is_installed": "OUI", "capacity": 26, "numdocksavailable": 25, "numbikesavailable": 1, "mechanical": 0, "ebike": 1, "is_renting": "OUI", "is_returning": "OUI", "duedate": "2024-06-14T16:46:59+00:00", "coordonnees_geo": {"lon": 2.29858466343129, "lat": 48.883769733273496}, "nom_arrondissement_communes": "Paris", "code_insee_commune": null}, {"stationcode": "41204", "name": "R\u00e9publique - Danton", "is_installed": "OUI", "capacity": 20, "numdocksavailable": 17, "numbikesavailable": 2, "mechanical": 0, "ebike": 2, "is_renting": "OUI", "is_returning": "OUI", "duedate": "2024-06-14T16:50:09+00:00", "coordonnees_geo": {"lon": 2.462034523487091, "lat": 48.85249172181667}, "nom_arrondissement_communes": "Fontenay-sous-Bois", "code_insee_commune": null}, {"stationcode": "17046", "name": "Mac-Mahon - Brey", "is_installed": "OUI", "capacity": 25, "numdocksavailable": 23, "numbikesavailable": 2, "mechanical": 1, "ebike": 1, "is_renting": "OUI", "is_returning": "OUI", "duedate": "2024-06-14T16:50:09+00:00", "coordonnees_geo": {"lon": 2.294512536052928, "lat": 48.877532084130166}, "nom_arrondissement_communes": "Paris", "code_insee_commune": null}, {"stationcode": "18113", "name": "Lepic - Arm\u00e9e d'Orient", "is_installed": "OUI", "capacity": 24, "numdocksavailable": 21, "numbikesavailable": 3, "mechanical": 0, "ebike": 3, "is_renting": "OUI", "is_returning": "OUI", "duedate": "2024-06-14T16:48:22+00:00", "coordonnees_geo": {"lon": 2.334307730197907, "lat": 48.88753640381415}, "nom_arrondissement_communes": "Paris", "code_insee_commune": null}, {"stationcode": "19009", "name": "Cit\u00e9 des Sciences et de l'Industrie", "is_installed": "OUI", "capacity": 30, "numdocksavailable": 23, "numbikesavailable": 6, "mechanical": 4, "ebike": 2, "is_renting": "OUI", "is_returning": "OUI", "duedate": "2024-06-14T16:49:01+00:00", "coordonnees_geo": {"lon": 2.384599149227142, "lat": 48.89659571178903}, "nom_arrondissement_communes": "Paris", "code_insee_commune": null}]