[{"stationcode": "13017", "name": "Nationale - Vincent Auriol", "is_installed": "OUI", "capacity": 33, "numdocksavailable": 22, "numbikesavailable": 10, "mechanical": 3, "ebike": 7, "is_renting": "OUI", "is_returning": "OUI", "duedate": "2024-06-13T13:53:19+00:00", "coordonnees_geo": {"lon": 2.362354410392119, "lat": 48.83252708397293}, "nom_arrondissement_communes": "Paris", "code_insee_commune": null}, {"stationcode": "15111", "name": "Olivier de Serres - Leriche", "is_installed": "OUI", "capacity": 25, "numdocksavailable": 24, "numbikesavailable": 1, "mechanical": 0, "ebike": 1, "is_renting": "OUI", "is_returning": "OUI", "duedate": "2024-06-13T13:51:03+00:00", "coordonnees_geo": {"lon": 2.2957482933998112, "lat": 48.83460221715206}, "nom_arrondissement_communes": "Paris", "code_insee_commune": null}, {"stationcode": "2021", "name": "Cl\u00e9ry - Montmartre", "is_installed": "OUI", "capacity": 44, "numdocksavailable": 7, "numbikesavailable": 37, "mechanical": 23, "ebike": 14, "is_renting": "OUI", "is_returning": "OUI", "duedate": "2024-06-13T13:52:28+00:00", "coordonnees_geo": {"lon": 2.3445211, "lat": 48.867458}, "nom_arrondissement_communes": "Paris", "code_insee_commune": null}, {"stationcode": "24006", "name": "Adolphe Lalyre - Armand Silvestre", "is_installed": "OUI", "capacity": 40, "numdocksavailable": 36, "numbikesavailable": 2, "mechanical": 1, "ebike": 1, "is_renting": "OUI", "is_returning": "OUI", "duedate": "2024-06-13T13:51:27+00:00", "coordonnees_geo": {"lon": 2.273416221141815, "lat": 48.90406266961591}, "nom_arrondissement_communes": "Courbevoie", "code_insee_commune": null}, {"stationcode": "3009", "name": "Temple - Haudriettes", "is_installed": "OUI", "capacity": 19, "numdocksavailable": 4, "numbikesavailable": 15, "mechanical": 14, "ebike": 1, "is_renting": "OUI", "is_returning": "OUI", "duedate": "2024-06-13T13:52:28+00:00", "coordonnees_geo": {"lon": 2.3566960206458, "lat": 48.861636880212}, "nom_arrondissement_communes": "Paris", "code_insee_commune": null}, {"stationcode": "26005", "name": "H\u00f4tel de Ville d'Asni\u00e8res sur Seine", "is_installed": "OUI", "capacity": 30, "numdocksavailable": 10, "numbikesavailable": 19, "mechanical": 15, "ebike": 4, "is_renting": "OUI", "is_returning": "OUI", "duedate": "2024-06-13T13:51:35+00:00", "coordonnees_geo": {"lon": 2.288238108158112, "lat": 48.90999330025577}, "nom_arrondissement_communes": "Asni\u00e8res-sur-Seine", "code_insee_commune": null}, {"stationcode": "2005", "name": "Montmartre - Etienne Marcel", "is_installed": "OUI", "capacity": 16, "numdocksavailable": 0, "numbikesavailable": 16, "mechanical": 10, "ebike": 6, "is_renting": "OUI", "is_returning": "OUI", "duedate": "2024-06-13T13:50:22+00:00", "coordonnees_geo": {"lon": 2.3450684401448, "lat": 48.86502194581}, "nom_arrondissement_communes": "Paris", "code_insee_commune": null}, {"stationcode": "23702", "name": "H\u00f4tel de Ville de Chaville", "is_installed": "OUI", "capacity": 20, "numdocksavailable": 19, "numbikesavailable": 1, "mechanical": 0, "ebike": 1, "is_renting": "OUI", "is_returning": "OUI", "duedate": "2024-06-13T13:44:36+00:00", "coordonnees_geo": {"lon": 2.188134044408798, "lat": 48.80887149094033}, "nom_arrondissement_communes": "Chaville", "code_insee_commune": null}, {"stationcode": "13125", "name": "Gare d'Austerlitz - Pont Charles de Gaulle", "is_installed": "OUI", "capacity": 55, "numdocksavailable": 1, "numbikesavailable": 54, "mechanical": 29, "ebike": 25, "is_renting": "OUI", "is_returning": "OUI", "duedate": "2024-06-13T13:53:11+00:00", "coordonnees_geo": {"lon": 2.3670300096273422, "lat": 48.842319830109304}, "nom_arrondissement_communes": "Paris", "code_insee_commune": null}, {"stationcode": "14023", "name": "Adolphe Pinard - Victor Hugo", "is_installed": "OUI", "capacity": 52, "numdocksavailable": 50, "numbikesavailable": 1, "mechanical": 1, "ebike": 0, "is_renting": "OUI", "is_returning": "OUI", "duedate": "2024-06-13T13:46:51+00:00", "coordonnees_geo": {"lon": 2.3077843710780144, "lat": 48.8236825874564}, "nom_arrondissement_communes": "Malakoff", "code_insee_commune": null}, {"stationcode": "22502", "name": "Kl\u00e9ber - National", "is_installed": "OUI", "capacity": 20, "numdocksavailable": 6, "numbikesavailable": 14, "mechanical": 7, "ebike": 7, "is_renting": "OUI", "is_returning": "OUI", "duedate": "2024-06-13T13:53:10+00:00", "coordonnees_geo": {"lon": 2.2393910586833954, "lat": 48.906333898712234}, "nom_arrondissement_communes": "La Garenne-Colombes", "code_insee_commune": null}, {"stationcode": "4015", "name": "Mairie du 4\u00e8me", "is_installed": "OUI", "capacity": 44, "numdocksavailable": 4, "numbikesavailable": 40, "mechanical": 26, "ebike": 14, "is_renting": "OUI", "is_returning": "OUI", "duedate": "2024-06-13T13:53:12+00:00", "coordonnees_geo": {"lon": 2.3563823103905, "lat": 48.855949910497}, "nom_arrondissement_communes": "Paris", "code_insee_commune": null}, {"stationcode": "22504", "name": "Ch\u00e2teau - R\u00e9publique", "is_installed": "OUI", "capacity": 20, "numdocksavailable": 16, "numbikesavailable": 4, "mechanical": 1, "ebike": 3, "is_renting": "OUI", "is_returning": "OUI", "duedate": "2024-06-13T13:46:59+00:00", "coordonnees_geo": {"lon": 2.253629, "lat": 48.905928}, "nom_arrondissement_communes": "La Garenne-Colombes", "code_insee_commune": null}, {"stationcode": "19111", "name": "Cesaria Evora - Rosa Parks", "is_installed": "OUI", "capacity": 40, "numdocksavailable": 32, "numbikesavailable": 6, "mechanical": 3, "ebike": 3, "is_renting": "OUI", "is_returning": "OUI", "duedate": "2024-06-13T13:50:56+00:00", "coordonnees_geo": {"lon": 2.3745173960924144, "lat": 48.89717672825043}, "nom_arrondissement_communes": "Paris", "code_insee_commune": null}, {"stationcode": "9111", "name": "Victoire - Laffitte", "is_installed": "OUI", "capacity": 20, "numdocksavailable": 5, "numbikesavailable": 15, "mechanical": 14, "ebike": 1, "is_renting": "OUI", "is_returning": "OUI", "duedate": "2024-06-13T13:52:41+00:00", "coordonnees_geo": {"lon": 2.338118505144376, "lat": 48.87514373494672}, "nom_arrondissement_communes": "Paris", "code_insee_commune": null}, {"stationcode": "48005", "name": "Eug\u00e8ne Varlin - Place de la Paix", "is_installed": "OUI", "capacity": 23, "numdocksavailable": 20, "numbikesavailable": 2, "mechanical": 0, "ebike": 2, "is_renting": "OUI", "is_returning": "OUI", "duedate": "2024-06-13T13:52:55+00:00", "coordonnees_geo": {"lon": 2.363093, "lat": 48.792862}, "nom_arrondissement_communes": "Villejuif", "code_insee_commune": null}, {"stationcode": "14133", "name": "Froidevaux - Boulard", "is_installed": "OUI", "capacity": 35, "numdocksavailable": 33, "numbikesavailable": 2, "mechanical": 1, "ebike": 1, "is_renting": "OUI", "is_returning": "OUI", "duedate": "2024-06-13T13:47:27+00:00", "coordonnees_geo": {"lon": 2.3294411972165, "lat": 48.835147319625}, "nom_arrondissement_communes": "Paris", "code_insee_commune": null}, {"stationcode": "42704", "name": "Mairie du Kremlin-Bic\u00eatre", "is_installed": "OUI", "capacity": 25, "numdocksavailable": 25, "numbikesavailable": 0, "mechanical": 0, "ebike": 0, "is_renting": "OUI", "is_returning": "OUI", "duedate": "2024-06-13T13:47:01+00:00", "coordonnees_geo": {"lon": 2.3570189997553825, "lat": 48.81191981537702}, "nom_arrondissement_communes": "Le Kremlin-Bic\u00eatre", "code_insee_commune": null}, {"stationcode": "21706", "name": "Jean Bleuzen - Square du 11 Novembre", "is_installed": "OUI", "capacity": 49, "numdocksavailable": 45, "numbikesavailable": 1, "mechanical": 1, "ebike": 0, "is_renting": "OUI", "is_returning": "OUI", "duedate": "2024-06-13T13:48:11+00:00", "coordonnees_geo": {"lon": 2.2965213, "lat": 48.8232579}, "nom_arrondissement_communes": "Vanves", "code_insee_commune": null}, {"stationcode": "10041", "name": "Gare du Nord - La Chapelle", "is_installed": "OUI", "capacity": 18, "numdocksavailable": 15, "numbikesavailable": 1, "mechanical": 0, "ebike": 1, "is_renting": "OUI", "is_returning": "OUI", "duedate": "2024-06-13T13:52:11+00:00", "coordonnees_geo": {"lon": 2.3561057075858, "lat": 48.884178287286}, "nom_arrondissement_communes": "Paris", "code_insee_commune": null}, {"stationcode": "42026", "name": "Barb\u00e8s - Monique Maunoury", "is_installed": "OUI", "capacity": 40, "numdocksavailable": 31, "numbikesavailable": 8, "mechanical": 6, "ebike": 2, "is_renting": "OUI", "is_returning": "OUI", "duedate": "2024-06-13T13:50:27+00:00", "coordonnees_geo": {"lon": 2.3687169334905405, "lat": 48.81552718820216}, "nom_arrondissement_communes": "Ivry-sur-Seine", "code_insee_commune": null}, {"stationcode": "12163", "name": "Hippodrome Paris-Vincennes", "is_installed": "OUI", "capacity": 42, "numdocksavailable": 41, "numbikesavailable": 1, "mechanical": 0, "ebike": 1, "is_renting": "OUI", "is_returning": "OUI", "duedate": "2024-06-13T13:51:30+00:00", "coordonnees_geo": {"lon": 2.446271181106568, "lat": 48.82048387758518}, "nom_arrondissement_communes": "Paris", "code_insee_commune": null}, {"stationcode": "3002", "name": "Saint-Gilles - Turenne", "is_installed": "OUI", "capacity": 18, "numdocksavailable": 2, "numbikesavailable": 16, "mechanical": 11, "ebike": 5, "is_renting": "OUI", "is_returning": "OUI", "duedate": "2024-06-13T13:52:07+00:00", "coordonnees_geo": {"lon": 2.3647149920992, "lat": 48.858158956779}, "nom_arrondissement_communes": "Paris", "code_insee_commune": null}, {"stationcode": "4101", "name": "Bastille - Beaumarchais", "is_installed": "OUI", "capacity": 23, "numdocksavailable": 6, "numbikesavailable": 14, "mechanical": 12, "ebike": 2, "is_renting": "OUI", "is_returning": "OUI", "duedate": "2024-06-13T13:50:44+00:00", "coordonnees_geo": {"lon": 2.3685702681541, "lat": 48.853833463852}, "nom_arrondissement_communes": "Paris", "code_insee_commune": null}, {"stationcode": "21509", "name": "Gardenat Lapostol - Franklin Roosevelt", "is_installed": "OUI", "capacity": 24, "numdocksavailable": 21, "numbikesavailable": 3, "mechanical": 1, "ebike": 2, "is_renting": "OUI", "is_returning": "OUI", "duedate": "2024-06-13T13:52:15+00:00", "coordonnees_geo": {"lon": 2.222505, "lat": 48.871839}, "nom_arrondissement_communes": "Suresnes", "code_insee_commune": null}, {"stationcode": "19130", "name": "Place Paul Delouvrier", "is_installed": "OUI", "capacity": 26, "numdocksavailable": 22, "numbikesavailable": 3, "mechanical": 2, "ebike": 1, "is_renting": "OUI", "is_returning": "OUI", "duedate": "2024-06-13T13:45:42+00:00", "coordonnees_geo": {"lon": 2.3851288855075836, "lat": 48.89197621431365}, "nom_arrondissement_communes": "Paris", "code_insee_commune": null}, {"stationcode": "4018", "name": "Saint-Bon - Rivoli", "is_installed": "OUI", "capacity": 19, "numdocksavailable": 0, "numbikesavailable": 19, "mechanical": 12, "ebike": 7, "is_renting": "OUI", "is_returning": "OUI", "duedate": "2024-06-13T13:53:14+00:00", "coordonnees_geo": {"lon": 2.3502172809763, "lat": 48.857999643315}, "nom_arrondissement_communes": "Paris", "code_insee_commune": null}, {"stationcode": "16044", "name": "Porte de Saint Cloud - Parc des Princes", "is_installed": "OUI", "capacity": 32, "numdocksavailable": 14, "numbikesavailable": 18, "mechanical": 16, "ebike": 2, "is_renting": "OUI", "is_returning": "OUI", "duedate": "2024-06-13T13:53:21+00:00", "coordonnees_geo": {"lon": 2.2525164484978, "lat": 48.838662757066}, "nom_arrondissement_communes": "Paris", "code_insee_commune": null}, {"stationcode": "33020", "name": "Waldeck Rochet - Germaine Tillon", "is_installed": "OUI", "capacity": 31, "numdocksavailable": 8, "numbikesavailable": 23, "mechanical": 5, "ebike": 18, "is_renting": "OUI", "is_returning": "OUI", "duedate": "2024-06-13T13:52:11+00:00", "coordonnees_geo": {"lon": 2.3676301538944244, "lat": 48.91105960199651}, "nom_arrondissement_communes": "Aubervilliers", "code_insee_commune": null}, {"stationcode": "32019", "name": "Place du 8 mai 1945.", "is_installed": "OUI", "capacity": 30, "numdocksavailable": 19, "numbikesavailable": 11, "mechanical": 11, "ebike": 0, "is_renting": "OUI", "is_returning": "OUI", "duedate": "2024-06-13T13:48:51+00:00", "coordonnees_geo": {"lon": 2.3566243797541, "lat": 48.938882272105}, "nom_arrondissement_communes": "Saint-Denis", "code_insee_commune": null}, {"stationcode": "22506", "name": "Gare des Vall\u00e9es", "is_installed": "OUI", "capacity": 20, "numdocksavailable": 12, "numbikesavailable": 7, "mechanical": 0, "ebike": 7, "is_renting": "OUI", "is_returning": "OUI", "duedate": "2024-06-13T13:53:16+00:00", "coordonnees_geo": {"lon": 2.257726, "lat": 48.913179}, "nom_arrondissement_communes": "La Garenne-Colombes", "code_insee_commune": null}, {"stationcode": "1026", "name": "Place du Lieutenant Henri Karcher", "is_installed": "OUI", "capacity": 30, "numdocksavailable": 0, "numbikesavailable": 29, "mechanical": 19, "ebike": 10, "is_renting": "OUI", "is_returning": "OUI", "duedate": "2024-06-13T13:50:53+00:00", "coordonnees_geo": {"lon": 2.3400671035051346, "lat": 48.863490871724466}, "nom_arrondissement_communes": "Paris", "code_insee_commune": null}, {"stationcode": "18015", "name": "Custine - Ramey", "is_installed": "OUI", "capacity": 41, "numdocksavailable": 33, "numbikesavailable": 6, "mechanical": 0, "ebike": 6, "is_renting": "OUI", "is_returning": "OUI", "duedate": "2024-06-13T13:53:35+00:00", "coordonnees_geo": {"lon": 2.3469526693225, "lat": 48.888735896947}, "nom_arrondissement_communes": "Paris", "code_insee_commune": null}, {"stationcode": "1116", "name": "Ventadour - Op\u00e9ra", "is_installed": "OUI", "capacity": 27, "numdocksavailable": 2, "numbikesavailable": 25, "mechanical": 20, "ebike": 5, "is_renting": "OUI", "is_returning": "OUI", "duedate": "2024-06-13T13:52:32+00:00", "coordonnees_geo": {"lon": 2.3343884482519, "lat": 48.866810653323}, "nom_arrondissement_communes": "Paris", "code_insee_commune": null}, {"stationcode": "12164", "name": "Stade Pershing", "is_installed": "OUI", "capacity": 26, "numdocksavailable": 21, "numbikesavailable": 5, "mechanical": 4, "ebike": 1, "is_renting": "OUI", "is_returning": "OUI", "duedate": "2024-06-13T13:44:06+00:00", "coordonnees_geo": {"lon": 2.4583535268903, "lat": 48.829107826857}, "nom_arrondissement_communes": "Paris", "code_insee_commune": null}, {"stationcode": "32024", "name": "Port - Confluence", "is_installed": "OUI", "capacity": 26, "numdocksavailable": 18, "numbikesavailable": 8, "mechanical": 5, "ebike": 3, "is_renting": "OUI", "is_returning": "OUI", "duedate": "2024-06-13T13:49:56+00:00", "coordonnees_geo": {"lon": 2.3436167797955, "lat": 48.936093926526}, "nom_arrondissement_communes": "Saint-Denis", "code_insee_commune": null}, {"stationcode": "1017", "name": "Saint-Honor\u00e9 - 29 juillet", "is_installed": "OUI", "capacity": 20, "numdocksavailable": 4, "numbikesavailable": 15, "mechanical": 11, "ebike": 4, "is_renting": "OUI", "is_returning": "OUI", "duedate": "2024-06-13T13:48:38+00:00", "coordonnees_geo": {"lon": 2.330567417577153, "lat": 48.86557114282421}, "nom_arrondissement_communes": "Paris", "code_insee_commune": null}, {"stationcode": "6201", "name": "Saint P\u00e8res - Saint Germain", "is_installed": "OUI", "capacity": 22, "numdocksavailable": 15, "numbikesavailable": 7, "mechanical": 5, "ebike": 2, "is_renting": "OUI", "is_returning": "OUI", "duedate": "2024-06-13T13:52:36+00:00", "coordonnees_geo": {"lon": 2.3300181032703, "lat": 48.853729675265}, "nom_arrondissement_communes": "Paris", "code_insee_commune": null}, {"stationcode": "6026", "name": "Saint-Placide - Cherche Midi", "is_installed": "OUI", "capacity": 66, "numdocksavailable": 45, "numbikesavailable": 18, "mechanical": 5, "ebike": 13, "is_renting": "OUI", "is_returning": "OUI", "duedate": "2024-06-13T13:47:31+00:00", "coordonnees_geo": {"lon": 2.325317971408367, "lat": 48.8490535919234}, "nom_arrondissement_communes": "Paris", "code_insee_commune": null}, {"stationcode": "48008", "name": "Guy M\u00f4quet - Parvis Georges Marchais", "is_installed": "OUI", "capacity": 30, "numdocksavailable": 30, "numbikesavailable": 0, "mechanical": 0, "ebike": 0, "is_renting": "OUI", "is_returning": "OUI", "duedate": "2024-06-13T13:46:33+00:00", "coordonnees_geo": {"lon": 2.35943466424942, "lat": 48.79518840095975}, "nom_arrondissement_communes": "Villejuif", "code_insee_commune": null}, {"stationcode": "14201", "name": "Decr\u00e8s - Al\u00e9sia", "is_installed": "OUI", "capacity": 30, "numdocksavailable": 28, "numbikesavailable": 1, "mechanical": 1, "ebike": 0, "is_renting": "OUI", "is_returning": "OUI", "duedate": "2024-06-13T13:47:27+00:00", "coordonnees_geo": {"lon": 2.3139070151575, "lat": 48.832200060759}, "nom_arrondissement_communes": "Paris", "code_insee_commune": null}, {"stationcode": "8004", "name": "Malesherbes - Place de la Madeleine", "is_installed": "OUI", "capacity": 67, "numdocksavailable": 8, "numbikesavailable": 59, "mechanical": 32, "ebike": 27, "is_renting": "OUI", "is_returning": "OUI", "duedate": "2024-06-13T13:53:15+00:00", "coordonnees_geo": {"lon": 2.323243509808, "lat": 48.870406028483}, "nom_arrondissement_communes": "Paris", "code_insee_commune": null}, {"stationcode": "17021", "name": "Jouffroy d'Abbans - Villiers", "is_installed": "OUI", "capacity": 34, "numdocksavailable": 30, "numbikesavailable": 3, "mechanical": 0, "ebike": 3, "is_renting": "OUI", "is_returning": "OUI", "duedate": "2024-06-13T13:51:14+00:00", "coordonnees_geo": {"lon": 2.3056533560157, "lat": 48.884215547037}, "nom_arrondissement_communes": "Paris", "code_insee_commune": null}, {"stationcode": "31020", "name": "R\u00e9sistance - Parmentier", "is_installed": "OUI", "capacity": 35, "numdocksavailable": 35, "numbikesavailable": 0, "mechanical": 0, "ebike": 0, "is_renting": "OUI", "is_returning": "OUI", "duedate": "2024-06-13T13:51:44+00:00", "coordonnees_geo": {"lon": 2.436705082654953, "lat": 48.85965138131299}, "nom_arrondissement_communes": "Montreuil", "code_insee_commune": null}, {"stationcode": "28005", "name": "Jean Jaur\u00e8s - Paul Lafargue", "is_installed": "OUI", "capacity": 28, "numdocksavailable": 12, "numbikesavailable": 15, "mechanical": 13, "ebike": 2, "is_renting": "OUI", "is_returning": "OUI", "duedate": "2024-06-13T13:52:44+00:00", "coordonnees_geo": {"lon": 2.2484488785267, "lat": 48.884933177666}, "nom_arrondissement_communes": "Puteaux", "code_insee_commune": null}, {"stationcode": "12113", "name": "Cardinal Lavigerie", "is_installed": "OUI", "capacity": 46, "numdocksavailable": 31, "numbikesavailable": 14, "mechanical": 11, "ebike": 3, "is_renting": "OUI", "is_returning": "OUI", "duedate": "2024-06-13T13:53:10+00:00", "coordonnees_geo": {"lon": 2.402636749399156, "lat": 48.832934193699835}, "nom_arrondissement_communes": "Paris", "code_insee_commune": null}, {"stationcode": "2109", "name": "R\u00e9aumur - Montmartre", "is_installed": "OUI", "capacity": 19, "numdocksavailable": 4, "numbikesavailable": 15, "mechanical": 10, "ebike": 5, "is_renting": "OUI", "is_returning": "OUI", "duedate": "2024-06-13T13:52:58+00:00", "coordonnees_geo": {"lon": 2.3438260338876, "lat": 48.868230999759}, "nom_arrondissement_communes": "Paris", "code_insee_commune": null}, {"stationcode": "21119", "name": "Belfort - Victor Hugo", "is_installed": "OUI", "capacity": 24, "numdocksavailable": 17, "numbikesavailable": 5, "mechanical": 4, "ebike": 1, "is_renting": "OUI", "is_returning": "OUI", "duedate": "2024-06-13T13:49:12+00:00", "coordonnees_geo": {"lon": 2.3172724, "lat": 48.9018492}, "nom_arrondissement_communes": "Clichy", "code_insee_commune": null}, {"stationcode": "23042", "name": "Andr\u00e9 Theuriet - Blagis", "is_installed": "OUI", "capacity": 30, "numdocksavailable": 7, "numbikesavailable": 22, "mechanical": 19, "ebike": 3, "is_renting": "OUI", "is_returning": "OUI", "duedate": "2024-06-13T13:50:10+00:00", "coordonnees_geo": {"lon": 2.3130525648593903, "lat": 48.77977325745441}, "nom_arrondissement_communes": "Bourg-la-Reine", "code_insee_commune": null}, {"stationcode": "2102", "name": "Saint-Marc - Feydeau", "is_installed": "OUI", "capacity": 37, "numdocksavailable": 8, "numbikesavailable": 29, "mechanical": 22, "ebike": 7, "is_renting": "OUI", "is_returning": "OUI", "duedate": "2024-06-13T13:52:57+00:00", "coordonnees_geo": {"lon": 2.3419791832566, "lat": 48.870310661422}, "nom_arrondissement_communes": "Paris", "code_insee_commune": null}, {"stationcode": "32020", "name": "Jules Guesdes - Carnot", "is_installed": "OUI", "capacity": 16, "numdocksavailable": 14, "numbikesavailable": 2, "mechanical": 1, "ebike": 1, "is_renting": "OUI", "is_returning": "OUI", "duedate": "2024-06-13T13:49:08+00:00", "coordonnees_geo": {"lon": 2.3508992046117783, "lat": 48.93828169931872}, "nom_arrondissement_communes": "Saint-Denis", "code_insee_commune": null}, {"stationcode": "27006", "name": "Victor Hugo - Gare", "is_installed": "OUI", "capacity": 22, "numdocksavailable": 10, "numbikesavailable": 11, "mechanical": 8, "ebike": 3, "is_renting": "OUI", "is_returning": "OUI", "duedate": "2024-06-13T13:53:25+00:00", "coordonnees_geo": {"lon": 2.2600970417261, "lat": 48.923133952658}, "nom_arrondissement_communes": "Colombes", "code_insee_commune": null}, {"stationcode": "1008", "name": "Les Halles - Saint-Eustache", "is_installed": "OUI", "capacity": 32, "numdocksavailable": 13, "numbikesavailable": 17, "mechanical": 11, "ebike": 6, "is_renting": "OUI", "is_returning": "OUI", "duedate": "2024-06-13T13:53:40+00:00", "coordonnees_geo": {"lon": 2.342623919248581, "lat": 48.86362695901683}, "nom_arrondissement_communes": "Paris", "code_insee_commune": null}, {"stationcode": "2006", "name": "Place des Victoires", "is_installed": "OUI", "capacity": 24, "numdocksavailable": 0, "numbikesavailable": 24, "mechanical": 17, "ebike": 7, "is_renting": "OUI", "is_returning": "OUI", "duedate": "2024-06-13T13:50:59+00:00", "coordonnees_geo": {"lon": 2.3420333, "lat": 48.8660354}, "nom_arrondissement_communes": "Paris", "code_insee_commune": null}, {"stationcode": "13202", "name": "Place Farhat Hached", "is_installed": "OUI", "capacity": 28, "numdocksavailable": 9, "numbikesavailable": 19, "mechanical": 13, "ebike": 6, "is_renting": "OUI", "is_returning": "OUI", "duedate": "2024-06-13T13:53:38+00:00", "coordonnees_geo": {"lon": 2.3819742271533, "lat": 48.825806194537}, "nom_arrondissement_communes": "Paris", "code_insee_commune": null}, {"stationcode": "12202", "name": "Charenton - Wattignies", "is_installed": "OUI", "capacity": 40, "numdocksavailable": 33, "numbikesavailable": 6, "mechanical": 2, "ebike": 4, "is_renting": "OUI", "is_returning": "OUI", "duedate": "2024-06-13T13:51:35+00:00", "coordonnees_geo": {"lon": 2.3916775206425, "lat": 48.836919119234}, "nom_arrondissement_communes": "Paris", "code_insee_commune": null}, {"stationcode": "12016", "name": "Saint-Mande - Picpus", "is_installed": "OUI", "capacity": 35, "numdocksavailable": 32, "numbikesavailable": 3, "mechanical": 0, "ebike": 3, "is_renting": "OUI", "is_returning": "OUI", "duedate": "2024-06-13T13:50:53+00:00", "coordonnees_geo": {"lon": 2.4015686296482, "lat": 48.845127728278}, "nom_arrondissement_communes": "Paris", "code_insee_commune": null}, {"stationcode": "23301", "name": "Les Blagis", "is_installed": "OUI", "capacity": 27, "numdocksavailable": 10, "numbikesavailable": 16, "mechanical": 13, "ebike": 3, "is_renting": "OUI", "is_returning": "OUI", "duedate": "2024-06-13T13:51:55+00:00", "coordonnees_geo": {"lon": 2.302526, "lat": 48.785205}, "nom_arrondissement_communes": "Sceaux", "code_insee_commune": null}, {"stationcode": "42210", "name": "Victor Hugo - Paul Eluard", "is_installed": "OUI", "capacity": 32, "numdocksavailable": 13, "numbikesavailable": 16, "mechanical": 14, "ebike": 2, "is_renting": "OUI", "is_returning": "OUI", "duedate": "2024-06-13T13:51:51+00:00", "coordonnees_geo": {"lon": 2.4114319673051, "lat": 48.819602554907}, "nom_arrondissement_communes": "Charenton-le-Pont", "code_insee_commune": null}, {"stationcode": "22603", "name": "Place de la Division Leclerc", "is_installed": "OUI", "capacity": 35, "numdocksavailable": 35, "numbikesavailable": 0, "mechanical": 0, "ebike": 0, "is_renting": "OUI", "is_returning": "OUI", "duedate": "2024-06-13T15:44:09+00:00", "coordonnees_geo": {"lon": 2.2731140430551027, "lat": 48.793824988636516}, "nom_arrondissement_communes": "Fontenay-aux-Roses", "code_insee_commune": null}, {"stationcode": "12113", "name": "Cardinal Lavigerie", "is_installed": "OUI", "capacity": 46, "numdocksavailable": 23, "numbikesavailable": 21, "mechanical": 14, "ebike": 7, "is_renting": "OUI", "is_returning": "OUI", "duedate": "2024-06-13T15:52:12+00:00", "coordonnees_geo": {"lon": 2.402636749399156, "lat": 48.832934193699835}, "nom_arrondissement_communes": "Paris", "code_insee_commune": null}, {"stationcode": "2109", "name": "R\u00e9aumur - Montmartre", "is_installed": "OUI", "capacity": 19, "numdocksavailable": 9, "numbikesavailable": 10, "mechanical": 7, "ebike": 3, "is_renting": "OUI", "is_returning": "OUI", "duedate": "2024-06-13T15:53:19+00:00", "coordonnees_geo": {"lon": 2.3438260338876, "lat": 48.868230999759}, "nom_arrondissement_communes": "Paris", "code_insee_commune": null}, {"stationcode": "21119", "name": "Belfort - Victor Hugo", "is_installed": "OUI", "capacity": 24, "numdocksavailable": 18, "numbikesavailable": 4, "mechanical": 4, "ebike": 0, "is_renting": "OUI", "is_returning": "OUI", "duedate": "2024-06-13T15:52:01+00:00", "coordonnees_geo": {"lon": 2.3172724, "lat": 48.9018492}, "nom_arrondissement_communes": "Clichy", "code_insee_commune": null}, {"stationcode": "16010", "name": "Belles Feuilles - Place de Mexico", "is_installed": "OUI", "capacity": 23, "numdocksavailable": 20, "numbikesavailable": 3, "mechanical": 1, "ebike": 2, "is_renting": "OUI", "is_returning": "OUI", "duedate": "2024-06-13T15:53:43+00:00", "coordonnees_geo": {"lon": 2.2829206287861, "lat": 48.865804746474}, "nom_arrondissement_communes": "Paris", "code_insee_commune": null}, {"stationcode": "2102", "name": "Saint-Marc - Feydeau", "is_installed": "OUI", "capacity": 37, "numdocksavailable": 15, "numbikesavailable": 22, "mechanical": 20, "ebike": 2, "is_renting": "OUI", "is_returning": "OUI", "duedate": "2024-06-13T15:53:14+00:00", "coordonnees_geo": {"lon": 2.3419791832566, "lat": 48.870310661422}, "nom_arrondissement_communes": "Paris", "code_insee_commune": null}, {"stationcode": "42019", "name": "Lampes", "is_installed": "OUI", "capacity": 43, "numdocksavailable": 12, "numbikesavailable": 30, "mechanical": 27, "ebike": 3, "is_renting": "OUI", "is_returning": "OUI", "duedate": "2024-06-13T15:52:40+00:00", "coordonnees_geo": {"lon": 2.4017931148409843, "lat": 48.81152481985875}, "nom_arrondissement_communes": "Ivry-sur-Seine", "code_insee_commune": null}, {"stationcode": "2020", "name": "Danielle Casanova - Op\u00e9ra", "is_installed": "OUI", "capacity": 20, "numdocksavailable": 6, "numbikesavailable": 13, "mechanical": 9, "ebike": 4, "is_renting": "OUI", "is_returning": "OUI", "duedate": "2024-06-13T15:52:21+00:00", "coordonnees_geo": {"lon": 2.3333894088864, "lat": 48.867643242297}, "nom_arrondissement_communes": "Paris", "code_insee_commune": null}, {"stationcode": "32022", "name": "Henri Barbusse - Marcel Cachin", "is_installed": "OUI", "capacity": 37, "numdocksavailable": 31, "numbikesavailable": 5, "mechanical": 2, "ebike": 3, "is_renting": "OUI", "is_returning": "OUI", "duedate": "2024-06-13T15:53:18+00:00", "coordonnees_geo": {"lon": 2.3720374971659, "lat": 48.93742089281}, "nom_arrondissement_communes": "Saint-Denis", "code_insee_commune": null}, {"stationcode": "2006", "name": "Place des Victoires", "is_installed": "OUI", "capacity": 24, "numdocksavailable": 8, "numbikesavailable": 16, "mechanical": 15, "ebike": 1, "is_renting": "OUI", "is_returning": "OUI", "duedate": "2024-06-13T15:51:16+00:00", "coordonnees_geo": {"lon": 2.3420333, "lat": 48.8660354}, "nom_arrondissement_communes": "Paris", "code_insee_commune": null}, {"stationcode": "1024", "name": "Coquilli\u00e8re - Louvre", "is_installed": "OUI", "capacity": 21, "numdocksavailable": 1, "numbikesavailable": 18, "mechanical": 14, "ebike": 4, "is_renting": "OUI", "is_returning": "OUI", "duedate": "2024-06-13T15:52:47+00:00", "coordonnees_geo": {"lon": 2.3425736278295517, "lat": 48.86379590966231}, "nom_arrondissement_communes": "Paris", "code_insee_commune": null}, {"stationcode": "8004", "name": "Malesherbes - Place de la Madeleine", "is_installed": "OUI", "capacity": 67, "numdocksavailable": 25, "numbikesavailable": 42, "mechanical": 35, "ebike": 7, "is_renting": "OUI", "is_returning": "OUI", "duedate": "2024-06-13T15:53:26+00:00", "coordonnees_geo": {"lon": 2.323243509808, "lat": 48.870406028483}, "nom_arrondissement_communes": "Paris", "code_insee_commune": null}, {"stationcode": "13202", "name": "Place Farhat Hached", "is_installed": "OUI", "capacity": 28, "numdocksavailable": 23, "numbikesavailable": 5, "mechanical": 3, "ebike": 2, "is_renting": "OUI", "is_returning": "OUI", "duedate": "2024-06-13T15:51:29+00:00", "coordonnees_geo": {"lon": 2.3819742271533, "lat": 48.825806194537}, "nom_arrondissement_communes": "Paris", "code_insee_commune": null}, {"stationcode": "6029", "name": "Vaugirard - Monsieur le Prince", "is_installed": "OUI", "capacity": 26, "numdocksavailable": 24, "numbikesavailable": 1, "mechanical": 1, "ebike": 0, "is_renting": "OUI", "is_returning": "OUI", "duedate": "2024-06-13T15:49:25+00:00", "coordonnees_geo": {"lon": 2.3411329463124, "lat": 48.848951441614}, "nom_arrondissement_communes": "Paris", "code_insee_commune": null}, {"stationcode": "20010", "name": "Sorbier - Gasnier-Guy", "is_installed": "OUI", "capacity": 34, "numdocksavailable": 26, "numbikesavailable": 7, "mechanical": 1, "ebike": 6, "is_renting": "OUI", "is_returning": "OUI", "duedate": "2024-06-13T15:53:27+00:00", "coordonnees_geo": {"lon": 2.39365965127945, "lat": 48.86521763101122}, "nom_arrondissement_communes": "Paris", "code_insee_commune": null}, {"stationcode": "34013", "name": "Blanqui - Docteur Bauer", "is_installed": "OUI", "capacity": 28, "numdocksavailable": 3, "numbikesavailable": 22, "mechanical": 16, "ebike": 6, "is_renting": "OUI", "is_returning": "OUI", "duedate": "2024-06-13T15:52:59+00:00", "coordonnees_geo": {"lon": 2.3407192814591, "lat": 48.907735489085}, "nom_arrondissement_communes": "Saint-Ouen-sur-Seine", "code_insee_commune": null}, {"stationcode": "23104", "name": "Quai de S\u00e8vres - Manufacture Nationale", "is_installed": "OUI", "capacity": 28, "numdocksavailable": 8, "numbikesavailable": 18, "mechanical": 8, "ebike": 10, "is_renting": "OUI", "is_returning": "OUI", "duedate": "2024-06-13T15:50:14+00:00", "coordonnees_geo": {"lon": 2.22499, "lat": 48.828688}, "nom_arrondissement_communes": "S\u00e8vres", "code_insee_commune": null}, {"stationcode": "21011", "name": "Silly - Louis Bl\u00e9riot", "is_installed": "OUI", "capacity": 23, "numdocksavailable": 20, "numbikesavailable": 3, "mechanical": 1, "ebike": 2, "is_renting": "OUI", "is_returning": "OUI", "duedate": "2024-06-13T15:51:02+00:00", "coordonnees_geo": {"lon": 2.2340199351310734, "lat": 48.83219045374266}, "nom_arrondissement_communes": "Boulogne-Billancourt", "code_insee_commune": null}, {"stationcode": "20140", "name": "Paganini - Davout", "is_installed": "OUI", "capacity": 22, "numdocksavailable": 19, "numbikesavailable": 3, "mechanical": 2, "ebike": 1, "is_renting": "OUI", "is_returning": "OUI", "duedate": "2024-06-13T15:49:50+00:00", "coordonnees_geo": {"lon": 2.412021, "lat": 48.85135}, "nom_arrondissement_communes": "Paris", "code_insee_commune": null}, {"stationcode": "23303", "name": "Gare de Robinson", "is_installed": "OUI", "capacity": 30, "numdocksavailable": 17, "numbikesavailable": 13, "mechanical": 10, "ebike": 3, "is_renting": "OUI", "is_returning": "OUI", "duedate": "2024-06-13T15:52:47+00:00", "coordonnees_geo": {"lon": 2.281828634440899, "lat": 48.7799259211605}, "nom_arrondissement_communes": "Sceaux", "code_insee_commune": null}, {"stationcode": "42022", "name": "Gare RER - Maurice Grandcoing", "is_installed": "OUI", "capacity": 37, "numdocksavailable": 16, "numbikesavailable": 21, "mechanical": 18, "ebike": 3, "is_renting": "OUI", "is_returning": "OUI", "duedate": "2024-06-13T15:53:29+00:00", "coordonnees_geo": {"lon": 2.392429, "lat": 48.813881}, "nom_arrondissement_communes": "Ivry-sur-Seine", "code_insee_commune": null}, {"stationcode": "13049", "name": "Vincent Auriol - Louise Weiss", "is_installed": "OUI", "capacity": 22, "numdocksavailable": 9, "numbikesavailable": 12, "mechanical": 11, "ebike": 1, "is_renting": "OUI", "is_returning": "OUI", "duedate": "2024-06-13T15:46:48+00:00", "coordonnees_geo": {"lon": 2.3703888058662, "lat": 48.834001935501}, "nom_arrondissement_communes": "Paris", "code_insee_commune": null}, {"stationcode": "32605", "name": "Mairie", "is_installed": "OUI", "capacity": 20, "numdocksavailable": 18, "numbikesavailable": 1, "mechanical": 0, "ebike": 1, "is_renting": "OUI", "is_returning": "OUI", "duedate": "2024-06-13T15:53:26+00:00", "coordonnees_geo": {"lon": 2.4163350908311, "lat": 48.87914304162}, "nom_arrondissement_communes": "Les Lilas", "code_insee_commune": null}, {"stationcode": "17202", "name": "Mariotte - Batignolles", "is_installed": "OUI", "capacity": 20, "numdocksavailable": 16, "numbikesavailable": 4, "mechanical": 1, "ebike": 3, "is_renting": "OUI", "is_returning": "OUI", "duedate": "2024-06-13T15:53:23+00:00", "coordonnees_geo": {"lon": 2.321469503475, "lat": 48.884571659595}, "nom_arrondissement_communes": "Paris", "code_insee_commune": null}, {"stationcode": "8202", "name": "Londres - Europe", "is_installed": "OUI", "capacity": 27, "numdocksavailable": 25, "numbikesavailable": 1, "mechanical": 0, "ebike": 1, "is_renting": "OUI", "is_returning": "OUI", "duedate": "2024-06-13T15:51:52+00:00", "coordonnees_geo": {"lon": 2.3248164693922, "lat": 48.878618556803}, "nom_arrondissement_communes": "Paris", "code_insee_commune": null}, {"stationcode": "18010", "name": "Riquet - Marx Dormoy", "is_installed": "OUI", "capacity": 26, "numdocksavailable": 26, "numbikesavailable": 0, "mechanical": 0, "ebike": 0, "is_renting": "NON", "is_returning": "NON", "duedate": "2023-08-08T15:42:30+00:00", "coordonnees_geo": {"lon": 2.3601756244898, "lat": 48.89021003702}, "nom_arrondissement_communes": "Paris", "code_insee_commune": null}, {"stationcode": "42030", "name": "St\u00e9phanie Bouvard - Gambetta", "is_installed": "OUI", "capacity": 30, "numdocksavailable": 17, "numbikesavailable": 12, "mechanical": 7, "ebike": 5, "is_renting": "OUI", "is_returning": "OUI", "duedate": "2024-06-13T15:53:07+00:00", "coordonnees_geo": {"lon": 2.4024386957288, "lat": 48.814548138856}, "nom_arrondissement_communes": "Ivry-sur-Seine", "code_insee_commune": null}, {"stationcode": "20142", "name": "M\u00fbriers - P\u00e8re Lachaise", "is_installed": "OUI", "capacity": 20, "numdocksavailable": 20, "numbikesavailable": 0, "mechanical": 0, "ebike": 0, "is_renting": "OUI", "is_returning": "OUI", "duedate": "2024-06-13T15:53:28+00:00", "coordonnees_geo": {"lon": 2.39164982067019, "lat": 48.864130509668044}, "nom_arrondissement_communes": "Paris", "code_insee_commune": null}, {"stationcode": "48001", "name": "Chastenet de G\u00e9ry - Marcel Paul", "is_installed": "OUI", "capacity": 25, "numdocksavailable": 22, "numbikesavailable": 3, "mechanical": 1, "ebike": 2, "is_renting": "OUI", "is_returning": "OUI", "duedate": "2024-06-13T15:53:00+00:00", "coordonnees_geo": {"lon": 2.3567359, "lat": 48.800123}, "nom_arrondissement_communes": "Villejuif", "code_insee_commune": null}, {"stationcode": "51008", "name": "Martyrs de Ch\u00e2teaubriant - Jean Grandel", "is_installed": "OUI", "capacity": 38, "numdocksavailable": 22, "numbikesavailable": 16, "mechanical": 8, "ebike": 8, "is_renting": "OUI", "is_returning": "OUI", "duedate": "2024-06-13T15:53:38+00:00", "coordonnees_geo": {"lon": 2.211214, "lat": 48.951432}, "nom_arrondissement_communes": "Argenteuil", "code_insee_commune": null}, {"stationcode": "24101", "name": "Place Charles de Gaulle", "is_installed": "OUI", "capacity": 24, "numdocksavailable": 22, "numbikesavailable": 2, "mechanical": 0, "ebike": 2, "is_renting": "OUI", "is_returning": "OUI", "duedate": "2024-06-13T15:52:25+00:00", "coordonnees_geo": {"lon": 2.1894485725692, "lat": 48.826073335699}, "nom_arrondissement_communes": "Ville-d'Avray", "code_insee_commune": null}, {"stationcode": "34011", "name": "Clef des Champs - Albert Dhalenne", "is_installed": "OUI", "capacity": 28, "numdocksavailable": 19, "numbikesavailable": 5, "mechanical": 4, "ebike": 1, "is_renting": "OUI", "is_returning": "OUI", "duedate": "2024-06-13T15:50:55+00:00", "coordonnees_geo": {"lon": 2.330665, "lat": 48.914938}, "nom_arrondissement_communes": "Saint-Ouen-sur-Seine", "code_insee_commune": null}, {"stationcode": "21329", "name": "Gare - Aristide Briand", "is_installed": "OUI", "capacity": 29, "numdocksavailable": 10, "numbikesavailable": 19, "mechanical": 16, "ebike": 3, "is_renting": "OUI", "is_returning": "OUI", "duedate": "2024-06-13T15:53:18+00:00", "coordonnees_geo": {"lon": 2.2555950104387, "lat": 48.821410564722}, "nom_arrondissement_communes": "Issy-les-Moulineaux", "code_insee_commune": null}, {"stationcode": "15203", "name": "Porte de Versailles", "is_installed": "OUI", "capacity": 28, "numdocksavailable": 13, "numbikesavailable": 13, "mechanical": 13, "ebike": 0, "is_renting": "OUI", "is_returning": "OUI", "duedate": "2024-06-13T15:49:38+00:00", "coordonnees_geo": {"lon": 2.2875617349045, "lat": 48.832324016657}, "nom_arrondissement_communes": "Paris", "code_insee_commune": null}, {"stationcode": "8040", "name": "Pierre Charron - Champs-Elys\u00e9es", "is_installed": "OUI", "capacity": 32, "numdocksavailable": 4, "numbikesavailable": 24, "mechanical": 12, "ebike": 12, "is_renting": "OUI", "is_returning": "OUI", "duedate": "2024-06-13T15:48:26+00:00", "coordonnees_geo": {"lon": 2.3043501377106, "lat": 48.870103359864}, "nom_arrondissement_communes": "Paris", "code_insee_commune": null}, {"stationcode": "25007", "name": "Bons Raisins - Voltaire", "is_installed": "OUI", "capacity": 24, "numdocksavailable": 22, "numbikesavailable": 1, "mechanical": 0, "ebike": 1, "is_renting": "OUI", "is_returning": "OUI", "duedate": "2024-06-13T15:53:21+00:00", "coordonnees_geo": {"lon": 2.1947155570850896, "lat": 48.87282451461399}, "nom_arrondissement_communes": "Rueil-Malmaison", "code_insee_commune": null}, {"stationcode": "12123", "name": "Ch\u00e2teau de Vincennes", "is_installed": "OUI", "capacity": 52, "numdocksavailable": 43, "numbikesavailable": 8, "mechanical": 6, "ebike": 2, "is_renting": "OUI", "is_returning": "OUI", "duedate": "2024-06-13T15:53:40+00:00", "coordonnees_geo": {"lon": 2.439209537709179, "lat": 48.84423193255657}, "nom_arrondissement_communes": "Paris", "code_insee_commune": null}, {"stationcode": "19006", "name": "Mathis - Flandre", "is_installed": "OUI", "capacity": 55, "numdocksavailable": 49, "numbikesavailable": 6, "mechanical": 4, "ebike": 2, "is_renting": "OUI", "is_returning": "OUI", "duedate": "2024-06-13T15:53:41+00:00", "coordonnees_geo": {"lon": 2.3762554675340652, "lat": 48.8906429898976}, "nom_arrondissement_communes": "Paris", "code_insee_commune": null}, {"stationcode": "13024", "name": "Bobillot - Tolbiac", "is_installed": "OUI", "capacity": 33, "numdocksavailable": 22, "numbikesavailable": 11, "mechanical": 5, "ebike": 6, "is_renting": "OUI", "is_returning": "OUI", "duedate": "2024-06-13T15:52:09+00:00", "coordonnees_geo": {"lon": 2.350204177200794, "lat": 48.8255961335041}, "nom_arrondissement_communes": "Paris", "code_insee_commune": null}, {"stationcode": "24004", "name": "Paix - Verdun", "is_installed": "OUI", "capacity": 35, "numdocksavailable": 25, "numbikesavailable": 9, "mechanical": 0, "ebike": 9, "is_renting": "OUI", "is_returning": "OUI", "duedate": "2024-06-13T15:53:20+00:00", "coordonnees_geo": {"lon": 2.261173, "lat": 48.900504}, "nom_arrondissement_communes": "Courbevoie", "code_insee_commune": null}, {"stationcode": "13015", "name": "Chevaleret - Louise Weiss", "is_installed": "OUI", "capacity": 35, "numdocksavailable": 11, "numbikesavailable": 23, "mechanical": 22, "ebike": 1, "is_renting": "OUI", "is_returning": "OUI", "duedate": "2024-06-13T15:53:39+00:00", "coordonnees_geo": {"lon": 2.371211388119954, "lat": 48.83258651335057}, "nom_arrondissement_communes": "Paris", "code_insee_commune": null}]