[{"stationcode": "14026", "name": "Plantes - Moulin Vert", "is_installed": "OUI", "capacity": 45, "numdocksavailable": 42, "numbikesavailable": 1, "mechanical": 0, "ebike": 1, "is_renting": "OUI", "is_returning": "OUI", "duedate": "2024-06-15T15:52:11+00:00", "coordonnees_geo": {"lon": 2.3232302069664006, "lat": 48.83005755305626}, "nom_arrondissement_communes": "Paris", "code_insee_commune": null}, {"stationcode": "42505", "name": "Charles Fr\u00e9rot - Albert Guilpin", "is_installed": "OUI", "capacity": 30, "numdocksavailable": 1, "numbikesavailable": 28, "mechanical": 27, "ebike": 1, "is_renting": "OUI", "is_returning": "OUI", "duedate": "2024-06-15T15:52:46+00:00", "coordonnees_geo": {"lon": 2.3505029082298283, "lat": 48.8155839183714}, "nom_arrondissement_communes": "Gentilly", "code_insee_commune": null}, {"stationcode": "8117", "name": "Place de la Madeleine - Royale", "is_installed": "OUI", "capacity": 43, "numdocksavailable": 9, "numbikesavailable": 34, "mechanical": 23, "ebike": 11, "is_renting": "OUI", "is_returning": "OUI", "duedate": "2024-06-15T15:52:58+00:00", "coordonnees_geo": {"lon": 2.324421107769, "lat": 48.869228052648}, "nom_arrondissement_communes": "Paris", "code_insee_commune": null}, {"stationcode": "10032", "name": "Claude Vellefaux - H\u00f4pital Saint-Louis", "is_installed": "OUI", "capacity": 32, "numdocksavailable": 0, "numbikesavailable": 30, "mechanical": 11, "ebike": 19, "is_renting": "OUI", "is_returning": "OUI", "duedate": "2024-06-15T15:52:10+00:00", "coordonnees_geo": {"lon": 2.3700717069851, "lat": 48.872859139003}, "nom_arrondissement_communes": "Paris", "code_insee_commune": null}, {"stationcode": "16042", "name": "Murat - Porte de Saint-Cloud", "is_installed": "OUI", "capacity": 38, "numdocksavailable": 6, "numbikesavailable": 31, "mechanical": 31, "ebike": 0, "is_renting": "OUI", "is_returning": "OUI", "duedate": "2024-06-15T15:52:56+00:00", "coordonnees_geo": {"lon": 2.2577651962637906, "lat": 48.83750862621299}, "nom_arrondissement_communes": "Paris", "code_insee_commune": null}, {"stationcode": "15001", "name": "Gare Montparnasse - Arriv\u00e9e", "is_installed": "OUI", "capacity": 43, "numdocksavailable": 0, "numbikesavailable": 41, "mechanical": 31, "ebike": 10, "is_renting": "OUI", "is_returning": "OUI", "duedate": "2024-06-15T15:52:08+00:00", "coordonnees_geo": {"lon": 2.3225811123848, "lat": 48.843827994315}, "nom_arrondissement_communes": "Paris", "code_insee_commune": null}, {"stationcode": "15008", "name": "S\u00e8vres - Lecourbe", "is_installed": "OUI", "capacity": 62, "numdocksavailable": 46, "numbikesavailable": 13, "mechanical": 7, "ebike": 6, "is_renting": "OUI", "is_returning": "OUI", "duedate": "2024-06-15T15:52:53+00:00", "coordonnees_geo": {"lon": 2.3110086, "lat": 48.8447677}, "nom_arrondissement_communes": "Paris", "code_insee_commune": null}, {"stationcode": "19110", "name": "Square Claude Bernard", "is_installed": "OUI", "capacity": 30, "numdocksavailable": 21, "numbikesavailable": 8, "mechanical": 1, "ebike": 7, "is_renting": "OUI", "is_returning": "OUI", "duedate": "2024-06-15T15:52:52+00:00", "coordonnees_geo": {"lon": 2.375325746834278, "lat": 48.89876016219984}, "nom_arrondissement_communes": "Paris", "code_insee_commune": null}, {"stationcode": "11112", "name": "Jules Vall\u00e8s - Charonne", "is_installed": "OUI", "capacity": 23, "numdocksavailable": 15, "numbikesavailable": 6, "mechanical": 4, "ebike": 2, "is_renting": "OUI", "is_returning": "OUI", "duedate": "2024-06-15T15:52:43+00:00", "coordonnees_geo": {"lon": 2.384767457842827, "lat": 48.85428437993525}, "nom_arrondissement_communes": "Paris", "code_insee_commune": null}, {"stationcode": "17009", "name": "Paul Bodin - Clichy", "is_installed": "OUI", "capacity": 0, "numdocksavailable": 0, "numbikesavailable": 0, "mechanical": 0, "ebike": 0, "is_renting": "NON", "is_returning": "NON", "duedate": "2024-06-15T15:52:06+00:00", "coordonnees_geo": {"lon": 2.317142598331, "lat": 48.892396146189}, "nom_arrondissement_communes": "Paris", "code_insee_commune": null}, {"stationcode": "18202", "name": "Diane Arbus", "is_installed": "OUI", "capacity": 38, "numdocksavailable": 34, "numbikesavailable": 4, "mechanical": 3, "ebike": 1, "is_renting": "OUI", "is_returning": "OUI", "duedate": "2024-06-15T15:52:41+00:00", "coordonnees_geo": {"lon": 2.3524022474885, "lat": 48.898800717199}, "nom_arrondissement_communes": "Paris", "code_insee_commune": null}, {"stationcode": "6010", "name": "Chevreuse - Montparnasse", "is_installed": "OUI", "capacity": 15, "numdocksavailable": 9, "numbikesavailable": 6, "mechanical": 1, "ebike": 5, "is_renting": "OUI", "is_returning": "OUI", "duedate": "2024-06-15T15:52:56+00:00", "coordonnees_geo": {"lon": 2.3315522167367, "lat": 48.841739161231}, "nom_arrondissement_communes": "Paris", "code_insee_commune": null}, {"stationcode": "5015", "name": "Ep\u00e9e de Bois - Mouffetard", "is_installed": "OUI", "capacity": 63, "numdocksavailable": 34, "numbikesavailable": 28, "mechanical": 12, "ebike": 16, "is_renting": "OUI", "is_returning": "OUI", "duedate": "2024-06-15T15:52:36+00:00", "coordonnees_geo": {"lon": 2.350066713988781, "lat": 48.841508690388835}, "nom_arrondissement_communes": "Paris", "code_insee_commune": null}, {"stationcode": "16037", "name": "Molitor - Michel-Ange", "is_installed": "OUI", "capacity": 51, "numdocksavailable": 49, "numbikesavailable": 1, "mechanical": 0, "ebike": 1, "is_renting": "OUI", "is_returning": "OUI", "duedate": "2024-06-15T15:52:52+00:00", "coordonnees_geo": {"lon": 2.26211277356597, "lat": 48.845182081538034}, "nom_arrondissement_communes": "Paris", "code_insee_commune": null}, {"stationcode": "47003", "name": "Charentonneau - Maisons Alfort", "is_installed": "OUI", "capacity": 20, "numdocksavailable": 5, "numbikesavailable": 15, "mechanical": 13, "ebike": 2, "is_renting": "OUI", "is_returning": "OUI", "duedate": "2024-06-15T15:52:21+00:00", "coordonnees_geo": {"lon": 2.443288456496946, "lat": 48.809932980484355}, "nom_arrondissement_communes": "Maisons-Alfort", "code_insee_commune": null}, {"stationcode": "7012", "name": "Cit\u00e9 Vaneau", "is_installed": "OUI", "capacity": 26, "numdocksavailable": 23, "numbikesavailable": 3, "mechanical": 3, "ebike": 0, "is_renting": "OUI", "is_returning": "OUI", "duedate": "2024-06-15T15:52:16+00:00", "coordonnees_geo": {"lon": 2.319614924490452, "lat": 48.8542210666207}, "nom_arrondissement_communes": "Paris", "code_insee_commune": null}, {"stationcode": "12019", "name": "Gare de Reuilly - Picpus", "is_installed": "OUI", "capacity": 28, "numdocksavailable": 24, "numbikesavailable": 3, "mechanical": 0, "ebike": 3, "is_renting": "OUI", "is_returning": "OUI", "duedate": "2024-06-15T15:52:52+00:00", "coordonnees_geo": {"lon": 2.3972943797707558, "lat": 48.84267354116789}, "nom_arrondissement_communes": "Paris", "code_insee_commune": null}, {"stationcode": "20104", "name": "Louis Lumi\u00e8re.", "is_installed": "OUI", "capacity": 22, "numdocksavailable": 16, "numbikesavailable": 5, "mechanical": 1, "ebike": 4, "is_renting": "OUI", "is_returning": "OUI", "duedate": "2024-06-15T15:52:28+00:00", "coordonnees_geo": {"lon": 2.41112578185621, "lat": 48.86216198070008}, "nom_arrondissement_communes": "Paris", "code_insee_commune": null}, {"stationcode": "14135", "name": "Jourdan - Cit\u00e9 Universitaire", "is_installed": "OUI", "capacity": 39, "numdocksavailable": 21, "numbikesavailable": 16, "mechanical": 12, "ebike": 4, "is_renting": "OUI", "is_returning": "OUI", "duedate": "2024-06-15T15:52:49+00:00", "coordonnees_geo": {"lon": 2.3397007964124366, "lat": 48.819897343156676}, "nom_arrondissement_communes": "Paris", "code_insee_commune": null}, {"stationcode": "21309", "name": "Mairie d'Issy", "is_installed": "OUI", "capacity": 41, "numdocksavailable": 11, "numbikesavailable": 30, "mechanical": 27, "ebike": 3, "is_renting": "OUI", "is_returning": "OUI", "duedate": "2024-06-15T15:51:47+00:00", "coordonnees_geo": {"lon": 2.27231115102768, "lat": 48.8237677924683}, "nom_arrondissement_communes": "Issy-les-Moulineaux", "code_insee_commune": null}, {"stationcode": "20024", "name": "Gambetta - P\u00e8re Lachaise", "is_installed": "OUI", "capacity": 29, "numdocksavailable": 23, "numbikesavailable": 6, "mechanical": 1, "ebike": 5, "is_renting": "OUI", "is_returning": "OUI", "duedate": "2024-06-15T15:52:48+00:00", "coordonnees_geo": {"lon": 2.398228667282044, "lat": 48.864295696165875}, "nom_arrondissement_communes": "Paris", "code_insee_commune": null}, {"stationcode": "18140", "name": "Porte de Clignancourt - Ney", "is_installed": "OUI", "capacity": 40, "numdocksavailable": 34, "numbikesavailable": 5, "mechanical": 3, "ebike": 2, "is_renting": "OUI", "is_returning": "OUI", "duedate": "2024-06-15T15:50:25+00:00", "coordonnees_geo": {"lon": 2.344321422278881, "lat": 48.899641123987095}, "nom_arrondissement_communes": "Paris", "code_insee_commune": null}, {"stationcode": "4108", "name": "Quai de B\u00e9thune - Pont de la Tournelle", "is_installed": "OUI", "capacity": 25, "numdocksavailable": 2, "numbikesavailable": 22, "mechanical": 20, "ebike": 2, "is_renting": "OUI", "is_returning": "OUI", "duedate": "2024-06-15T15:52:32+00:00", "coordonnees_geo": {"lon": 2.356307208538055, "lat": 48.85097433194032}, "nom_arrondissement_communes": "Paris", "code_insee_commune": null}, {"stationcode": "19002", "name": "Centquatre", "is_installed": "OUI", "capacity": 42, "numdocksavailable": 34, "numbikesavailable": 6, "mechanical": 0, "ebike": 6, "is_renting": "OUI", "is_returning": "OUI", "duedate": "2024-06-15T15:49:36+00:00", "coordonnees_geo": {"lon": 2.3707854375243187, "lat": 48.88933353845543}, "nom_arrondissement_communes": "Paris", "code_insee_commune": null}, {"stationcode": "17019", "name": "Phalsbourg - Villiers", "is_installed": "OUI", "capacity": 20, "numdocksavailable": 16, "numbikesavailable": 3, "mechanical": 1, "ebike": 2, "is_renting": "OUI", "is_returning": "OUI", "duedate": "2024-06-15T15:49:44+00:00", "coordonnees_geo": {"lon": 2.3090453445911407, "lat": 48.88242307900951}, "nom_arrondissement_communes": "Paris", "code_insee_commune": null}, {"stationcode": "19010", "name": "Emile Reynaud - Porte de la Villette", "is_installed": "OUI", "capacity": 22, "numdocksavailable": 13, "numbikesavailable": 9, "mechanical": 2, "ebike": 7, "is_renting": "OUI", "is_returning": "OUI", "duedate": "2024-06-15T15:49:00+00:00", "coordonnees_geo": {"lon": 2.3887022584676743, "lat": 48.90098953630053}, "nom_arrondissement_communes": "Paris", "code_insee_commune": null}, {"stationcode": "20006", "name": "Pyr\u00e9n\u00e9es - Plaine", "is_installed": "OUI", "capacity": 12, "numdocksavailable": 10, "numbikesavailable": 1, "mechanical": 1, "ebike": 0, "is_renting": "OUI", "is_returning": "OUI", "duedate": "2024-06-15T15:52:57+00:00", "coordonnees_geo": {"lon": 2.4062821269035, "lat": 48.85026702458}, "nom_arrondissement_communes": "Paris", "code_insee_commune": null}, {"stationcode": "21026", "name": "S\u00e8vres - G\u00e9n\u00e9ral Leclerc", "is_installed": "OUI", "capacity": 30, "numdocksavailable": 14, "numbikesavailable": 16, "mechanical": 7, "ebike": 9, "is_renting": "OUI", "is_returning": "OUI", "duedate": "2024-06-15T15:50:15+00:00", "coordonnees_geo": {"lon": 2.231426239013672, "lat": 48.83012155905476}, "nom_arrondissement_communes": "Boulogne-Billancourt", "code_insee_commune": null}, {"stationcode": "7021", "name": "Bosquet - Saint-Dominique", "is_installed": "OUI", "capacity": 28, "numdocksavailable": 13, "numbikesavailable": 14, "mechanical": 13, "ebike": 1, "is_renting": "OUI", "is_returning": "OUI", "duedate": "2024-06-15T15:52:28+00:00", "coordonnees_geo": {"lon": 2.303716580234576, "lat": 48.85865170952645}, "nom_arrondissement_communes": "Paris", "code_insee_commune": null}, {"stationcode": "2015", "name": "Louis le Grand - Italiens", "is_installed": "OUI", "capacity": 33, "numdocksavailable": 13, "numbikesavailable": 20, "mechanical": 10, "ebike": 10, "is_renting": "OUI", "is_returning": "OUI", "duedate": "2024-06-15T15:52:38+00:00", "coordonnees_geo": {"lon": 2.3340544619393, "lat": 48.870508937204}, "nom_arrondissement_communes": "Paris", "code_insee_commune": null}, {"stationcode": "9037", "name": "Parme - Clichy", "is_installed": "OUI", "capacity": 24, "numdocksavailable": 24, "numbikesavailable": 0, "mechanical": 0, "ebike": 0, "is_renting": "NON", "is_returning": "NON", "duedate": "2023-10-01T22:05:20+00:00", "coordonnees_geo": {"lon": 2.3281970934506, "lat": 48.881266424227}, "nom_arrondissement_communes": "Paris", "code_insee_commune": null}, {"stationcode": "22401", "name": "Charles de Gaulle - Plateau de Vanves", "is_installed": "OUI", "capacity": 33, "numdocksavailable": 31, "numbikesavailable": 2, "mechanical": 1, "ebike": 1, "is_renting": "OUI", "is_returning": "OUI", "duedate": "2024-06-15T15:46:09+00:00", "coordonnees_geo": {"lon": 2.298571803412886, "lat": 48.82233088973263}, "nom_arrondissement_communes": "Malakoff", "code_insee_commune": null}, {"stationcode": "19129", "name": "Solitaires - Place des F\u00eates", "is_installed": "OUI", "capacity": 29, "numdocksavailable": 26, "numbikesavailable": 3, "mechanical": 2, "ebike": 1, "is_renting": "OUI", "is_returning": "OUI", "duedate": "2024-06-15T15:51:51+00:00", "coordonnees_geo": {"lon": 2.391769, "lat": 48.876601}, "nom_arrondissement_communes": "Paris", "code_insee_commune": null}, {"stationcode": "8028", "name": "Ars\u00e8ne Houssaye - Champs-Elys\u00e9es", "is_installed": "OUI", "capacity": 29, "numdocksavailable": 16, "numbikesavailable": 13, "mechanical": 7, "ebike": 6, "is_renting": "OUI", "is_returning": "OUI", "duedate": "2024-06-15T15:51:19+00:00", "coordonnees_geo": {"lon": 2.2977904602885, "lat": 48.873409276267}, "nom_arrondissement_communes": "Paris", "code_insee_commune": null}, {"stationcode": "10011", "name": "Bourse du Travail", "is_installed": "OUI", "capacity": 17, "numdocksavailable": 1, "numbikesavailable": 15, "mechanical": 6, "ebike": 9, "is_renting": "OUI", "is_returning": "OUI", "duedate": "2024-06-15T15:52:04+00:00", "coordonnees_geo": {"lon": 2.3623438552022, "lat": 48.868976638826}, "nom_arrondissement_communes": "Paris", "code_insee_commune": null}, {"stationcode": "3001", "name": "Beaumarchais - Saint-Gilles", "is_installed": "OUI", "capacity": 51, "numdocksavailable": 51, "numbikesavailable": 0, "mechanical": 0, "ebike": 0, "is_renting": "NON", "is_returning": "NON", "duedate": "2024-06-15T15:51:38+00:00", "coordonnees_geo": {"lon": 2.3679352, "lat": 48.8580378}, "nom_arrondissement_communes": "Paris", "code_insee_commune": null}, {"stationcode": "1102", "name": "Fran\u00e7aise - Etienne Marcel", "is_installed": "OUI", "capacity": 37, "numdocksavailable": 2, "numbikesavailable": 34, "mechanical": 28, "ebike": 6, "is_renting": "OUI", "is_returning": "OUI", "duedate": "2024-06-15T15:52:56+00:00", "coordonnees_geo": {"lon": 2.347587011754513, "lat": 48.864053304653766}, "nom_arrondissement_communes": "Paris", "code_insee_commune": null}, {"stationcode": "21110", "name": "Parc Roger Salengro", "is_installed": "OUI", "capacity": 35, "numdocksavailable": 15, "numbikesavailable": 20, "mechanical": 19, "ebike": 1, "is_renting": "OUI", "is_returning": "OUI", "duedate": "2024-06-15T15:52:25+00:00", "coordonnees_geo": {"lon": 2.31055945158, "lat": 48.905303858642}, "nom_arrondissement_communes": "Clichy", "code_insee_commune": null}, {"stationcode": "13017", "name": "Nationale - Vincent Auriol", "is_installed": "OUI", "capacity": 33, "numdocksavailable": 26, "numbikesavailable": 7, "mechanical": 4, "ebike": 3, "is_renting": "OUI", "is_returning": "OUI", "duedate": "2024-06-15T15:52:05+00:00", "coordonnees_geo": {"lon": 2.362354410392119, "lat": 48.83252708397293}, "nom_arrondissement_communes": "Paris", "code_insee_commune": null}, {"stationcode": "24006", "name": "Adolphe Lalyre - Armand Silvestre", "is_installed": "OUI", "capacity": 40, "numdocksavailable": 38, "numbikesavailable": 2, "mechanical": 1, "ebike": 1, "is_renting": "OUI", "is_returning": "OUI", "duedate": "2024-06-15T15:46:37+00:00", "coordonnees_geo": {"lon": 2.273416221141815, "lat": 48.90406266961591}, "nom_arrondissement_communes": "Courbevoie", "code_insee_commune": null}, {"stationcode": "4014", "name": "Blancs-Manteaux - Archives", "is_installed": "OUI", "capacity": 29, "numdocksavailable": 6, "numbikesavailable": 20, "mechanical": 15, "ebike": 5, "is_renting": "OUI", "is_returning": "OUI", "duedate": "2024-06-15T15:51:47+00:00", "coordonnees_geo": {"lon": 2.3559471219778, "lat": 48.85941800703}, "nom_arrondissement_communes": "Paris", "code_insee_commune": null}, {"stationcode": "3012", "name": "Square Emile - Chautemps", "is_installed": "OUI", "capacity": 25, "numdocksavailable": 1, "numbikesavailable": 22, "mechanical": 12, "ebike": 10, "is_renting": "OUI", "is_returning": "OUI", "duedate": "2024-06-15T15:52:31+00:00", "coordonnees_geo": {"lon": 2.3536357283592, "lat": 48.867433724231}, "nom_arrondissement_communes": "Paris", "code_insee_commune": null}, {"stationcode": "13125", "name": "Gare d'Austerlitz - Pont Charles de Gaulle", "is_installed": "OUI", "capacity": 55, "numdocksavailable": 2, "numbikesavailable": 52, "mechanical": 36, "ebike": 16, "is_renting": "OUI", "is_returning": "OUI", "duedate": "2024-06-15T15:52:34+00:00", "coordonnees_geo": {"lon": 2.3670300096273422, "lat": 48.842319830109304}, "nom_arrondissement_communes": "Paris", "code_insee_commune": null}, {"stationcode": "14022", "name": "Didot - Mariniers", "is_installed": "OUI", "capacity": 35, "numdocksavailable": 30, "numbikesavailable": 5, "mechanical": 2, "ebike": 3, "is_renting": "OUI", "is_returning": "OUI", "duedate": "2024-06-15T15:48:01+00:00", "coordonnees_geo": {"lon": 2.313136198271666, "lat": 48.82650543613106}, "nom_arrondissement_communes": "Paris", "code_insee_commune": null}, {"stationcode": "2002", "name": "Etienne Marcel - Montorgueil", "is_installed": "OUI", "capacity": 28, "numdocksavailable": 1, "numbikesavailable": 26, "mechanical": 23, "ebike": 3, "is_renting": "OUI", "is_returning": "OUI", "duedate": "2024-06-15T15:52:09+00:00", "coordonnees_geo": {"lon": 2.3461959511041637, "lat": 48.86450567259199}, "nom_arrondissement_communes": "Paris", "code_insee_commune": null}, {"stationcode": "31001", "name": "Lagny - Auguste Blanqui", "is_installed": "OUI", "capacity": 27, "numdocksavailable": 26, "numbikesavailable": 0, "mechanical": 0, "ebike": 0, "is_renting": "OUI", "is_returning": "OUI", "duedate": "2024-06-15T15:52:54+00:00", "coordonnees_geo": {"lon": 2.4218603968620305, "lat": 48.84922568052601}, "nom_arrondissement_communes": "Montreuil", "code_insee_commune": null}, {"stationcode": "21507", "name": "Gardenat-Lapostol - Velettes", "is_installed": "OUI", "capacity": 20, "numdocksavailable": 20, "numbikesavailable": 0, "mechanical": 0, "ebike": 0, "is_renting": "OUI", "is_returning": "OUI", "duedate": "2024-06-15T15:48:00+00:00", "coordonnees_geo": {"lon": 2.224185, "lat": 48.87387}, "nom_arrondissement_communes": "Suresnes", "code_insee_commune": null}, {"stationcode": "22306", "name": "Place du 17 Octobre", "is_installed": "OUI", "capacity": 20, "numdocksavailable": 3, "numbikesavailable": 15, "mechanical": 14, "ebike": 1, "is_renting": "OUI", "is_returning": "OUI", "duedate": "2024-06-15T15:50:31+00:00", "coordonnees_geo": {"lon": 2.2978286134199792, "lat": 48.91962690034779}, "nom_arrondissement_communes": "Gennevilliers", "code_insee_commune": null}, {"stationcode": "3005", "name": "Sainte-Elisabeth - Turbigo", "is_installed": "OUI", "capacity": 33, "numdocksavailable": 33, "numbikesavailable": 0, "mechanical": 0, "ebike": 0, "is_renting": "NON", "is_returning": "NON", "duedate": "2024-06-02T06:46:29+00:00", "coordonnees_geo": {"lon": 2.3596492409706, "lat": 48.86610337431}, "nom_arrondissement_communes": "Paris", "code_insee_commune": null}, {"stationcode": "3003", "name": "Fille du Calvaire - Turenne", "is_installed": "OUI", "capacity": 29, "numdocksavailable": 2, "numbikesavailable": 24, "mechanical": 15, "ebike": 9, "is_renting": "OUI", "is_returning": "OUI", "duedate": "2024-06-15T15:52:45+00:00", "coordonnees_geo": {"lon": 2.3649600148200993, "lat": 48.86210505412563}, "nom_arrondissement_communes": "Paris", "code_insee_commune": null}, {"stationcode": "9111", "name": "Victoire - Laffitte", "is_installed": "OUI", "capacity": 20, "numdocksavailable": 19, "numbikesavailable": 1, "mechanical": 1, "ebike": 0, "is_renting": "OUI", "is_returning": "OUI", "duedate": "2024-06-15T15:52:58+00:00", "coordonnees_geo": {"lon": 2.338118505144376, "lat": 48.87514373494672}, "nom_arrondissement_communes": "Paris", "code_insee_commune": null}, {"stationcode": "5122", "name": "Saint-Michel - Luxembourg", "is_installed": "OUI", "capacity": 29, "numdocksavailable": 26, "numbikesavailable": 3, "mechanical": 0, "ebike": 3, "is_renting": "OUI", "is_returning": "OUI", "duedate": "2024-06-15T15:52:51+00:00", "coordonnees_geo": {"lon": 2.3394941166043, "lat": 48.84501507626}, "nom_arrondissement_communes": "Paris", "code_insee_commune": null}, {"stationcode": "48005", "name": "Eug\u00e8ne Varlin - Place de la Paix", "is_installed": "OUI", "capacity": 23, "numdocksavailable": 23, "numbikesavailable": 0, "mechanical": 0, "ebike": 0, "is_renting": "OUI", "is_returning": "OUI", "duedate": "2024-06-15T15:50:51+00:00", "coordonnees_geo": {"lon": 2.363093, "lat": 48.792862}, "nom_arrondissement_communes": "Villejuif", "code_insee_commune": null}, {"stationcode": "41208", "name": "Alouettes - Mar\u00e9chal de Lattre de Tassigny", "is_installed": "OUI", "capacity": 22, "numdocksavailable": 20, "numbikesavailable": 2, "mechanical": 0, "ebike": 2, "is_renting": "OUI", "is_returning": "OUI", "duedate": "2024-06-15T15:51:42+00:00", "coordonnees_geo": {"lon": 2.4930700287222862, "lat": 48.85511009293948}, "nom_arrondissement_communes": "Fontenay-sous-Bois", "code_insee_commune": null}, {"stationcode": "21706", "name": "Jean Bleuzen - Square du 11 Novembre", "is_installed": "OUI", "capacity": 49, "numdocksavailable": 43, "numbikesavailable": 3, "mechanical": 3, "ebike": 0, "is_renting": "OUI", "is_returning": "OUI", "duedate": "2024-06-15T15:48:01+00:00", "coordonnees_geo": {"lon": 2.2965213, "lat": 48.8232579}, "nom_arrondissement_communes": "Vanves", "code_insee_commune": null}, {"stationcode": "4017", "name": "Place de l'H\u00f4tel de Ville", "is_installed": "OUI", "capacity": 14, "numdocksavailable": 7, "numbikesavailable": 6, "mechanical": 4, "ebike": 2, "is_renting": "OUI", "is_returning": "OUI", "duedate": "2024-06-15T15:52:47+00:00", "coordonnees_geo": {"lon": 2.351458, "lat": 48.8573314}, "nom_arrondissement_communes": "Paris", "code_insee_commune": null}, {"stationcode": "4009", "name": "Village Saint-Paul", "is_installed": "OUI", "capacity": 28, "numdocksavailable": 1, "numbikesavailable": 26, "mechanical": 25, "ebike": 1, "is_renting": "OUI", "is_returning": "OUI", "duedate": "2024-06-15T15:49:41+00:00", "coordonnees_geo": {"lon": 2.3607301712036137, "lat": 48.852639866624806}, "nom_arrondissement_communes": "Paris", "code_insee_commune": null}, {"stationcode": "42211", "name": "S\u00e9minaire de Conflans - Libert\u00e9", "is_installed": "OUI", "capacity": 26, "numdocksavailable": 23, "numbikesavailable": 2, "mechanical": 0, "ebike": 2, "is_renting": "OUI", "is_returning": "OUI", "duedate": "2024-06-15T15:48:42+00:00", "coordonnees_geo": {"lon": 2.404179, "lat": 48.823194}, "nom_arrondissement_communes": "Charenton-le-Pont", "code_insee_commune": null}, {"stationcode": "42026", "name": "Barb\u00e8s - Monique Maunoury", "is_installed": "OUI", "capacity": 40, "numdocksavailable": 36, "numbikesavailable": 3, "mechanical": 1, "ebike": 2, "is_renting": "OUI", "is_returning": "OUI", "duedate": "2024-06-15T15:52:00+00:00", "coordonnees_geo": {"lon": 2.3687169334905405, "lat": 48.81552718820216}, "nom_arrondissement_communes": "Ivry-sur-Seine", "code_insee_commune": null}, {"stationcode": "2012", "name": "Choiseul - Quatre Septembre", "is_installed": "OUI", "capacity": 44, "numdocksavailable": 31, "numbikesavailable": 12, "mechanical": 6, "ebike": 6, "is_renting": "OUI", "is_returning": "OUI", "duedate": "2024-06-15T15:49:36+00:00", "coordonnees_geo": {"lon": 2.3359975218772893, "lat": 48.8699355331869}, "nom_arrondissement_communes": "Paris", "code_insee_commune": null}, {"stationcode": "12163", "name": "Hippodrome Paris-Vincennes", "is_installed": "OUI", "capacity": 42, "numdocksavailable": 33, "numbikesavailable": 9, "mechanical": 4, "ebike": 5, "is_renting": "OUI", "is_returning": "OUI", "duedate": "2024-06-15T15:52:51+00:00", "coordonnees_geo": {"lon": 2.446271181106568, "lat": 48.82048387758518}, "nom_arrondissement_communes": "Paris", "code_insee_commune": null}, {"stationcode": "3002", "name": "Saint-Gilles - Turenne", "is_installed": "OUI", "capacity": 18, "numdocksavailable": 6, "numbikesavailable": 10, "mechanical": 8, "ebike": 2, "is_renting": "OUI", "is_returning": "OUI", "duedate": "2024-06-15T15:52:36+00:00", "coordonnees_geo": {"lon": 2.3647149920992, "lat": 48.858158956779}, "nom_arrondissement_communes": "Paris", "code_insee_commune": null}, {"stationcode": "21509", "name": "Gardenat Lapostol - Franklin Roosevelt", "is_installed": "OUI", "capacity": 24, "numdocksavailable": 22, "numbikesavailable": 2, "mechanical": 2, "ebike": 0, "is_renting": "OUI", "is_returning": "OUI", "duedate": "2024-06-15T15:49:02+00:00", "coordonnees_geo": {"lon": 2.222505, "lat": 48.871839}, "nom_arrondissement_communes": "Suresnes", "code_insee_commune": null}, {"stationcode": "13054", "name": "Pau Casals - Neuve Tolbiac", "is_installed": "OUI", "capacity": 53, "numdocksavailable": 6, "numbikesavailable": 46, "mechanical": 29, "ebike": 17, "is_renting": "OUI", "is_returning": "OUI", "duedate": "2024-06-15T15:52:46+00:00", "coordonnees_geo": {"lon": 2.3774395, "lat": 48.8311602}, "nom_arrondissement_communes": "Paris", "code_insee_commune": null}, {"stationcode": "1012", "name": "Jean-Jacques Rousseau - Deux Ecus", "is_installed": "OUI", "capacity": 22, "numdocksavailable": 0, "numbikesavailable": 21, "mechanical": 20, "ebike": 1, "is_renting": "OUI", "is_returning": "OUI", "duedate": "2024-06-15T15:52:34+00:00", "coordonnees_geo": {"lon": 2.3414635285735126, "lat": 48.86297805972131}, "nom_arrondissement_communes": "Paris", "code_insee_commune": null}, {"stationcode": "19130", "name": "Place Paul Delouvrier", "is_installed": "OUI", "capacity": 26, "numdocksavailable": 23, "numbikesavailable": 3, "mechanical": 1, "ebike": 2, "is_renting": "OUI", "is_returning": "OUI", "duedate": "2024-06-15T15:52:28+00:00", "coordonnees_geo": {"lon": 2.3851288855075836, "lat": 48.89197621431365}, "nom_arrondissement_communes": "Paris", "code_insee_commune": null}, {"stationcode": "4018", "name": "Saint-Bon - Rivoli", "is_installed": "OUI", "capacity": 19, "numdocksavailable": 0, "numbikesavailable": 18, "mechanical": 9, "ebike": 9, "is_renting": "OUI", "is_returning": "OUI", "duedate": "2024-06-15T15:51:09+00:00", "coordonnees_geo": {"lon": 2.3502172809763, "lat": 48.857999643315}, "nom_arrondissement_communes": "Paris", "code_insee_commune": null}, {"stationcode": "4007", "name": "Place de la Bastille - Bourdon", "is_installed": "OUI", "capacity": 35, "numdocksavailable": 19, "numbikesavailable": 16, "mechanical": 14, "ebike": 2, "is_renting": "OUI", "is_returning": "OUI", "duedate": "2024-06-15T15:52:49+00:00", "coordonnees_geo": {"lon": 2.3681089282036, "lat": 48.852364355271}, "nom_arrondissement_communes": "Paris", "code_insee_commune": null}, {"stationcode": "16044", "name": "Porte de Saint Cloud - Parc des Princes", "is_installed": "OUI", "capacity": 32, "numdocksavailable": 15, "numbikesavailable": 16, "mechanical": 14, "ebike": 2, "is_renting": "OUI", "is_returning": "OUI", "duedate": "2024-06-15T15:52:55+00:00", "coordonnees_geo": {"lon": 2.2525164484978, "lat": 48.838662757066}, "nom_arrondissement_communes": "Paris", "code_insee_commune": null}, {"stationcode": "44001", "name": "Quai Jules Guesde - Saint-Simon", "is_installed": "OUI", "capacity": 30, "numdocksavailable": 13, "numbikesavailable": 17, "mechanical": 11, "ebike": 6, "is_renting": "OUI", "is_returning": "OUI", "duedate": "2024-06-15T15:49:36+00:00", "coordonnees_geo": {"lon": 2.4089661620274, "lat": 48.80391487219}, "nom_arrondissement_communes": "Vitry-sur-Seine", "code_insee_commune": null}, {"stationcode": "33020", "name": "Waldeck Rochet - Germaine Tillon", "is_installed": "OUI", "capacity": 31, "numdocksavailable": 31, "numbikesavailable": 0, "mechanical": 0, "ebike": 0, "is_renting": "OUI", "is_returning": "OUI", "duedate": "2024-06-15T15:48:01+00:00", "coordonnees_geo": {"lon": 2.3676301538944244, "lat": 48.91105960199651}, "nom_arrondissement_communes": "Aubervilliers", "code_insee_commune": null}, {"stationcode": "22506", "name": "Gare des Vall\u00e9es", "is_installed": "OUI", "capacity": 20, "numdocksavailable": 9, "numbikesavailable": 11, "mechanical": 3, "ebike": 8, "is_renting": "OUI", "is_returning": "OUI", "duedate": "2024-06-15T15:52:24+00:00", "coordonnees_geo": {"lon": 2.257726, "lat": 48.913179}, "nom_arrondissement_communes": "La Garenne-Colombes", "code_insee_commune": null}, {"stationcode": "1025", "name": "Oratoire - Rivoli", "is_installed": "OUI", "capacity": 18, "numdocksavailable": 1, "numbikesavailable": 17, "mechanical": 13, "ebike": 4, "is_renting": "OUI", "is_returning": "OUI", "duedate": "2024-06-15T15:52:36+00:00", "coordonnees_geo": {"lon": 2.3400047421455, "lat": 48.861342760889}, "nom_arrondissement_communes": "Paris", "code_insee_commune": null}, {"stationcode": "2008", "name": "Mairie du 2\u00e8me", "is_installed": "OUI", "capacity": 28, "numdocksavailable": 21, "numbikesavailable": 6, "mechanical": 3, "ebike": 3, "is_renting": "OUI", "is_returning": "OUI", "duedate": "2024-06-15T15:52:33+00:00", "coordonnees_geo": {"lon": 2.3404625437747044, "lat": 48.8672190355135}, "nom_arrondissement_communes": "Paris", "code_insee_commune": null}, {"stationcode": "1026", "name": "Place du Lieutenant Henri Karcher", "is_installed": "OUI", "capacity": 30, "numdocksavailable": 0, "numbikesavailable": 29, "mechanical": 22, "ebike": 7, "is_renting": "OUI", "is_returning": "OUI", "duedate": "2024-06-15T15:51:42+00:00", "coordonnees_geo": {"lon": 2.3400671035051346, "lat": 48.863490871724466}, "nom_arrondissement_communes": "Paris", "code_insee_commune": null}, {"stationcode": "23101", "name": "Grande Rue - Europe", "is_installed": "OUI", "capacity": 25, "numdocksavailable": 19, "numbikesavailable": 5, "mechanical": 2, "ebike": 3, "is_renting": "OUI", "is_returning": "OUI", "duedate": "2024-06-15T15:52:54+00:00", "coordonnees_geo": {"lon": 2.205879874527455, "lat": 48.8218104687602}, "nom_arrondissement_communes": "S\u00e8vres", "code_insee_commune": null}, {"stationcode": "18015", "name": "Custine - Ramey", "is_installed": "OUI", "capacity": 41, "numdocksavailable": 35, "numbikesavailable": 4, "mechanical": 1, "ebike": 3, "is_renting": "OUI", "is_returning": "OUI", "duedate": "2024-06-15T15:52:06+00:00", "coordonnees_geo": {"lon": 2.3469526693225, "lat": 48.888735896947}, "nom_arrondissement_communes": "Paris", "code_insee_commune": null}, {"stationcode": "1018", "name": "Alger - Rivoli", "is_installed": "OUI", "capacity": 21, "numdocksavailable": 2, "numbikesavailable": 17, "mechanical": 10, "ebike": 7, "is_renting": "OUI", "is_returning": "OUI", "duedate": "2024-06-15T15:51:05+00:00", "coordonnees_geo": {"lon": 2.3294493936128, "lat": 48.864773553495}, "nom_arrondissement_communes": "Paris", "code_insee_commune": null}, {"stationcode": "17106", "name": "Berthier - Porte de Clichy", "is_installed": "OUI", "capacity": 24, "numdocksavailable": 0, "numbikesavailable": 23, "mechanical": 18, "ebike": 5, "is_renting": "OUI", "is_returning": "OUI", "duedate": "2024-06-15T15:52:39+00:00", "coordonnees_geo": {"lon": 2.3125872006816, "lat": 48.894222687781}, "nom_arrondissement_communes": "Paris", "code_insee_commune": null}, {"stationcode": "1116", "name": "Ventadour - Op\u00e9ra", "is_installed": "OUI", "capacity": 27, "numdocksavailable": 1, "numbikesavailable": 26, "mechanical": 22, "ebike": 4, "is_renting": "OUI", "is_returning": "OUI", "duedate": "2024-06-15T15:52:44+00:00", "coordonnees_geo": {"lon": 2.3343884482519, "lat": 48.866810653323}, "nom_arrondissement_communes": "Paris", "code_insee_commune": null}, {"stationcode": "12164", "name": "Stade Pershing", "is_installed": "OUI", "capacity": 26, "numdocksavailable": 25, "numbikesavailable": 1, "mechanical": 0, "ebike": 1, "is_renting": "OUI", "is_returning": "OUI", "duedate": "2024-06-15T15:46:29+00:00", "coordonnees_geo": {"lon": 2.4583535268903, "lat": 48.829107826857}, "nom_arrondissement_communes": "Paris", "code_insee_commune": null}, {"stationcode": "1017", "name": "Saint-Honor\u00e9 - 29 juillet", "is_installed": "OUI", "capacity": 20, "numdocksavailable": 8, "numbikesavailable": 12, "mechanical": 10, "ebike": 2, "is_renting": "OUI", "is_returning": "OUI", "duedate": "2024-06-15T15:50:49+00:00", "coordonnees_geo": {"lon": 2.330567417577153, "lat": 48.86557114282421}, "nom_arrondissement_communes": "Paris", "code_insee_commune": null}, {"stationcode": "6201", "name": "Saint P\u00e8res - Saint Germain", "is_installed": "OUI", "capacity": 22, "numdocksavailable": 1, "numbikesavailable": 21, "mechanical": 15, "ebike": 6, "is_renting": "OUI", "is_returning": "OUI", "duedate": "2024-06-15T15:52:03+00:00", "coordonnees_geo": {"lon": 2.3300181032703, "lat": 48.853729675265}, "nom_arrondissement_communes": "Paris", "code_insee_commune": null}, {"stationcode": "1023", "name": "Saint-Honor\u00e9 - Mus\u00e9e du Louvre", "is_installed": "OUI", "capacity": 22, "numdocksavailable": 3, "numbikesavailable": 18, "mechanical": 11, "ebike": 7, "is_renting": "OUI", "is_returning": "OUI", "duedate": "2024-06-15T15:52:35+00:00", "coordonnees_geo": {"lon": 2.3348781846405, "lat": 48.863443132848}, "nom_arrondissement_communes": "Paris", "code_insee_commune": null}, {"stationcode": "1023", "name": "Saint-Honor\u00e9 - Mus\u00e9e du Louvre", "is_installed": "OUI", "capacity": 22, "numdocksavailable": 3, "numbikesavailable": 18, "mechanical": 11, "ebike": 7, "is_renting": "OUI", "is_returning": "OUI", "duedate": "2024-06-15T15:52:35+00:00", "coordonnees_geo": {"lon": 2.3348781846405, "lat": 48.863443132848}, "nom_arrondissement_communes": "Paris", "code_insee_commune": null}, {"stationcode": "48008", "name": "Guy M\u00f4quet - Parvis Georges Marchais", "is_installed": "OUI", "capacity": 30, "numdocksavailable": 29, "numbikesavailable": 0, "mechanical": 0, "ebike": 0, "is_renting": "OUI", "is_returning": "OUI", "duedate": "2024-06-15T15:32:05+00:00", "coordonnees_geo": {"lon": 2.35943466424942, "lat": 48.79518840095975}, "nom_arrondissement_communes": "Villejuif", "code_insee_commune": null}, {"stationcode": "5003", "name": "Le Goff - Gay-Lussac", "is_installed": "OUI", "capacity": 35, "numdocksavailable": 24, "numbikesavailable": 10, "mechanical": 4, "ebike": 6, "is_renting": "OUI", "is_returning": "OUI", "duedate": "2024-06-15T15:52:55+00:00", "coordonnees_geo": {"lon": 2.3412207886576653, "lat": 48.8461024009786}, "nom_arrondissement_communes": "Paris", "code_insee_commune": null}, {"stationcode": "14201", "name": "Decr\u00e8s - Al\u00e9sia", "is_installed": "OUI", "capacity": 30, "numdocksavailable": 29, "numbikesavailable": 1, "mechanical": 1, "ebike": 0, "is_renting": "OUI", "is_returning": "OUI", "duedate": "2024-06-15T15:52:51+00:00", "coordonnees_geo": {"lon": 2.3139070151575, "lat": 48.832200060759}, "nom_arrondissement_communes": "Paris", "code_insee_commune": null}, {"stationcode": "14134", "name": "Ch\u00e2teau - Place de Catalogne", "is_installed": "OUI", "capacity": 0, "numdocksavailable": 0, "numbikesavailable": 0, "mechanical": 0, "ebike": 0, "is_renting": "NON", "is_returning": "NON", "duedate": "2024-01-30T22:37:44+00:00", "coordonnees_geo": {"lon": 2.3185293003917, "lat": 48.836805542262}, "nom_arrondissement_communes": "Paris", "code_insee_commune": null}, {"stationcode": "17021", "name": "Jouffroy d'Abbans - Villiers", "is_installed": "OUI", "capacity": 34, "numdocksavailable": 31, "numbikesavailable": 1, "mechanical": 0, "ebike": 1, "is_renting": "OUI", "is_returning": "OUI", "duedate": "2024-06-15T15:44:33+00:00", "coordonnees_geo": {"lon": 2.3056533560157, "lat": 48.884215547037}, "nom_arrondissement_communes": "Paris", "code_insee_commune": null}, {"stationcode": "31020", "name": "R\u00e9sistance - Parmentier", "is_installed": "OUI", "capacity": 35, "numdocksavailable": 29, "numbikesavailable": 6, "mechanical": 1, "ebike": 5, "is_renting": "OUI", "is_returning": "OUI", "duedate": "2024-06-15T15:49:35+00:00", "coordonnees_geo": {"lon": 2.436705082654953, "lat": 48.85965138131299}, "nom_arrondissement_communes": "Montreuil", "code_insee_commune": null}, {"stationcode": "28005", "name": "Jean Jaur\u00e8s - Paul Lafargue", "is_installed": "OUI", "capacity": 28, "numdocksavailable": 22, "numbikesavailable": 6, "mechanical": 4, "ebike": 2, "is_renting": "OUI", "is_returning": "OUI", "duedate": "2024-06-15T15:47:09+00:00", "coordonnees_geo": {"lon": 2.2484488785267, "lat": 48.884933177666}, "nom_arrondissement_communes": "Puteaux", "code_insee_commune": null}, {"stationcode": "18112", "name": "Arthur Ranc - H\u00f4pital Bichat", "is_installed": "OUI", "capacity": 26, "numdocksavailable": 24, "numbikesavailable": 2, "mechanical": 1, "ebike": 1, "is_renting": "OUI", "is_returning": "OUI", "duedate": "2024-06-15T15:46:55+00:00", "coordonnees_geo": {"lon": 2.333521842956543, "lat": 48.8978712500682}, "nom_arrondissement_communes": "Paris", "code_insee_commune": null}, {"stationcode": "12166", "name": "Parc Floral du Bel Air", "is_installed": "OUI", "capacity": 25, "numdocksavailable": 12, "numbikesavailable": 13, "mechanical": 7, "ebike": 6, "is_renting": "OUI", "is_returning": "OUI", "duedate": "2024-06-15T15:51:59+00:00", "coordonnees_geo": {"lon": 2.438560165464878, "lat": 48.839285711865735}, "nom_arrondissement_communes": "Paris", "code_insee_commune": null}, {"stationcode": "2109", "name": "R\u00e9aumur - Montmartre", "is_installed": "OUI", "capacity": 19, "numdocksavailable": 9, "numbikesavailable": 10, "mechanical": 6, "ebike": 4, "is_renting": "OUI", "is_returning": "OUI", "duedate": "2024-06-15T15:52:09+00:00", "coordonnees_geo": {"lon": 2.3438260338876, "lat": 48.868230999759}, "nom_arrondissement_communes": "Paris", "code_insee_commune": null}, {"stationcode": "21119", "name": "Belfort - Victor Hugo", "is_installed": "OUI", "capacity": 24, "numdocksavailable": 22, "numbikesavailable": 2, "mechanical": 2, "ebike": 0, "is_renting": "OUI", "is_returning": "OUI", "duedate": "2024-06-15T15:49:09+00:00", "coordonnees_geo": {"lon": 2.3172724, "lat": 48.9018492}, "nom_arrondissement_communes": "Clichy", "code_insee_commune": null}, {"stationcode": "23042", "name": "Andr\u00e9 Theuriet - Blagis", "is_installed": "OUI", "capacity": 30, "numdocksavailable": 8, "numbikesavailable": 22, "mechanical": 18, "ebike": 4, "is_renting": "OUI", "is_returning": "OUI", "duedate": "2024-06-15T15:51:18+00:00", "coordonnees_geo": {"lon": 2.3130525648593903, "lat": 48.77977325745441}, "nom_arrondissement_communes": "Bourg-la-Reine", "code_insee_commune": null}, {"stationcode": "2102", "name": "Saint-Marc - Feydeau", "is_installed": "OUI", "capacity": 37, "numdocksavailable": 31, "numbikesavailable": 6, "mechanical": 4, "ebike": 2, "is_renting": "OUI", "is_returning": "OUI", "duedate": "2024-06-15T15:51:43+00:00", "coordonnees_geo": {"lon": 2.3419791832566, "lat": 48.870310661422}, "nom_arrondissement_communes": "Paris", "code_insee_commune": null}, {"stationcode": "32020", "name": "Jules Guesdes - Carnot", "is_installed": "OUI", "capacity": 16, "numdocksavailable": 9, "numbikesavailable": 7, "mechanical": 1, "ebike": 6, "is_renting": "OUI", "is_returning": "OUI", "duedate": "2024-06-15T15:45:39+00:00", "coordonnees_geo": {"lon": 2.3508992046117783, "lat": 48.93828169931872}, "nom_arrondissement_communes": "Saint-Denis", "code_insee_commune": null}, {"stationcode": "27006", "name": "Victor Hugo - Gare", "is_installed": "OUI", "capacity": 22, "numdocksavailable": 15, "numbikesavailable": 7, "mechanical": 1, "ebike": 6, "is_renting": "OUI", "is_returning": "OUI", "duedate": "2024-06-15T15:51:12+00:00", "coordonnees_geo": {"lon": 2.2600970417261, "lat": 48.923133952658}, "nom_arrondissement_communes": "Colombes", "code_insee_commune": null}]