[{"stationcode": "32603", "name": "Calmette", "is_installed": "OUI", "capacity": 32, "numdocksavailable": 30, "numbikesavailable": 0, "mechanical": 0, "ebike": 0, "is_renting": "OUI", "is_returning": "OUI", "duedate": "2024-06-17T12:52:34+00:00", "coordonnees_geo": {"lon": 2.424993216991425, "lat": 48.88104925098552}, "nom_arrondissement_communes": "Les Lilas", "code_insee_commune": null}, {"stationcode": "17201", "name": "Porte Maillot - Perreire", "is_installed": "OUI", "capacity": 51, "numdocksavailable": 38, "numbikesavailable": 13, "mechanical": 5, "ebike": 8, "is_renting": "OUI", "is_returning": "OUI", "duedate": "2024-06-17T12:57:10+00:00", "coordonnees_geo": {"lon": 2.2842371277102, "lat": 48.878021154637}, "nom_arrondissement_communes": "Paris", "code_insee_commune": null}, {"stationcode": "15059", "name": "Parc Andr\u00e9 Citro\u00ebn", "is_installed": "OUI", "capacity": 65, "numdocksavailable": 32, "numbikesavailable": 32, "mechanical": 31, "ebike": 1, "is_renting": "OUI", "is_returning": "OUI", "duedate": "2024-06-17T12:56:20+00:00", "coordonnees_geo": {"lon": 2.2780618071556096, "lat": 48.840639944296655}, "nom_arrondissement_communes": "Paris", "code_insee_commune": null}, {"stationcode": "4013", "name": "Vieille du Temple - Francs Bourgeois", "is_installed": "OUI", "capacity": 29, "numdocksavailable": 4, "numbikesavailable": 24, "mechanical": 17, "ebike": 7, "is_renting": "OUI", "is_returning": "OUI", "duedate": "2024-06-17T12:56:32+00:00", "coordonnees_geo": {"lon": 2.35821794718504, "lat": 48.858256413365815}, "nom_arrondissement_communes": "Paris", "code_insee_commune": null}, {"stationcode": "45001", "name": "H\u00f4tel de Ville de Champigny sur Marne", "is_installed": "OUI", "capacity": 21, "numdocksavailable": 8, "numbikesavailable": 13, "mechanical": 5, "ebike": 8, "is_renting": "OUI", "is_returning": "OUI", "duedate": "2024-06-17T12:53:25+00:00", "coordonnees_geo": {"lon": 2.5096759200096, "lat": 48.813810628405}, "nom_arrondissement_communes": "Champigny-sur-Marne", "code_insee_commune": null}, {"stationcode": "21024", "name": "Billancourt - G\u00e9n\u00e9ral Leclerc", "is_installed": "OUI", "capacity": 22, "numdocksavailable": 8, "numbikesavailable": 14, "mechanical": 8, "ebike": 6, "is_renting": "OUI", "is_returning": "OUI", "duedate": "2024-06-17T12:56:50+00:00", "coordonnees_geo": {"lon": 2.2380413, "lat": 48.8322649}, "nom_arrondissement_communes": "Boulogne-Billancourt", "code_insee_commune": null}, {"stationcode": "2001", "name": "Greneta - Sebastopol", "is_installed": "OUI", "capacity": 32, "numdocksavailable": 0, "numbikesavailable": 32, "mechanical": 29, "ebike": 3, "is_renting": "OUI", "is_returning": "OUI", "duedate": "2024-06-17T12:56:24+00:00", "coordonnees_geo": {"lon": 2.3516669869423, "lat": 48.865242333228}, "nom_arrondissement_communes": "Paris", "code_insee_commune": null}, {"stationcode": "7016", "name": "Surcouf - Universit\u00e9", "is_installed": "OUI", "capacity": 58, "numdocksavailable": 50, "numbikesavailable": 2, "mechanical": 2, "ebike": 0, "is_renting": "NON", "is_returning": "NON", "duedate": "2024-06-17T12:57:08+00:00", "coordonnees_geo": {"lon": 2.3094535509142, "lat": 48.861273016278}, "nom_arrondissement_communes": "Paris", "code_insee_commune": null}, {"stationcode": "20019", "name": "Place du Maquis du Vercors", "is_installed": "OUI", "capacity": 31, "numdocksavailable": 25, "numbikesavailable": 5, "mechanical": 0, "ebike": 5, "is_renting": "OUI", "is_returning": "OUI", "duedate": "2024-06-17T12:58:15+00:00", "coordonnees_geo": {"lon": 2.4083782732486725, "lat": 48.877321579493575}, "nom_arrondissement_communes": "Paris", "code_insee_commune": null}, {"stationcode": "18137", "name": "Poissonniers - Nord", "is_installed": "OUI", "capacity": 28, "numdocksavailable": 25, "numbikesavailable": 1, "mechanical": 0, "ebike": 1, "is_renting": "OUI", "is_returning": "OUI", "duedate": "2024-06-17T12:54:57+00:00", "coordonnees_geo": {"lon": 2.3522228747606277, "lat": 48.892511213520656}, "nom_arrondissement_communes": "Paris", "code_insee_commune": null}, {"stationcode": "17116", "name": "Reims - Porte d'Asni\u00e8res", "is_installed": "OUI", "capacity": 26, "numdocksavailable": 1, "numbikesavailable": 25, "mechanical": 22, "ebike": 3, "is_renting": "OUI", "is_returning": "OUI", "duedate": "2024-06-17T12:57:55+00:00", "coordonnees_geo": {"lon": 2.300144659954865, "lat": 48.891834448210986}, "nom_arrondissement_communes": "Paris", "code_insee_commune": null}, {"stationcode": "31013", "name": "Centenaire - Sorins", "is_installed": "OUI", "capacity": 45, "numdocksavailable": 41, "numbikesavailable": 4, "mechanical": 1, "ebike": 3, "is_renting": "OUI", "is_returning": "OUI", "duedate": "2024-06-17T12:51:48+00:00", "coordonnees_geo": {"lon": 2.4273508787155156, "lat": 48.85853523359734}, "nom_arrondissement_communes": "Montreuil", "code_insee_commune": null}, {"stationcode": "18001", "name": "Damr\u00e9mont - Caulaincourt", "is_installed": "OUI", "capacity": 18, "numdocksavailable": 17, "numbikesavailable": 1, "mechanical": 0, "ebike": 1, "is_renting": "OUI", "is_returning": "OUI", "duedate": "2024-06-17T12:49:55+00:00", "coordonnees_geo": {"lon": 2.3325880989432335, "lat": 48.88714509078738}, "nom_arrondissement_communes": "Paris", "code_insee_commune": null}, {"stationcode": "32018", "name": "Franciade - Gabriel P\u00e9ri", "is_installed": "OUI", "capacity": 26, "numdocksavailable": 17, "numbikesavailable": 9, "mechanical": 7, "ebike": 2, "is_renting": "OUI", "is_returning": "OUI", "duedate": "2024-06-17T12:56:02+00:00", "coordonnees_geo": {"lon": 2.355954498052597, "lat": 48.93261499331498}, "nom_arrondissement_communes": "Saint-Denis", "code_insee_commune": null}, {"stationcode": "17016", "name": "Brochant - Square des Batignolles", "is_installed": "OUI", "capacity": 31, "numdocksavailable": 27, "numbikesavailable": 4, "mechanical": 3, "ebike": 1, "is_renting": "OUI", "is_returning": "OUI", "duedate": "2024-06-17T12:51:54+00:00", "coordonnees_geo": {"lon": 2.316861143151153, "lat": 48.88818698581028}, "nom_arrondissement_communes": "Paris", "code_insee_commune": null}, {"stationcode": "18019", "name": "Square Raymond Souplex", "is_installed": "OUI", "capacity": 52, "numdocksavailable": 48, "numbikesavailable": 4, "mechanical": 1, "ebike": 3, "is_renting": "OUI", "is_returning": "OUI", "duedate": "2024-06-17T12:57:51+00:00", "coordonnees_geo": {"lon": 2.335426103165901, "lat": 48.89183721478911}, "nom_arrondissement_communes": "Paris", "code_insee_commune": null}, {"stationcode": "5019", "name": "Poissy - Saint-Germain", "is_installed": "OUI", "capacity": 25, "numdocksavailable": 0, "numbikesavailable": 24, "mechanical": 21, "ebike": 3, "is_renting": "OUI", "is_returning": "OUI", "duedate": "2024-06-17T12:57:10+00:00", "coordonnees_geo": {"lon": 2.3529685288668, "lat": 48.84969649427}, "nom_arrondissement_communes": "Paris", "code_insee_commune": null}, {"stationcode": "11003", "name": "Keller - La Roquette", "is_installed": "OUI", "capacity": 34, "numdocksavailable": 28, "numbikesavailable": 6, "mechanical": 4, "ebike": 2, "is_renting": "OUI", "is_returning": "OUI", "duedate": "2024-06-17T12:54:51+00:00", "coordonnees_geo": {"lon": 2.3752778, "lat": 48.8555508}, "nom_arrondissement_communes": "Paris", "code_insee_commune": null}, {"stationcode": "13114", "name": "Nationale - Marcel Duchamp", "is_installed": "OUI", "capacity": 23, "numdocksavailable": 13, "numbikesavailable": 10, "mechanical": 2, "ebike": 8, "is_renting": "OUI", "is_returning": "OUI", "duedate": "2024-06-17T12:55:59+00:00", "coordonnees_geo": {"lon": 2.3678014799952507, "lat": 48.82463749337136}, "nom_arrondissement_communes": "Paris", "code_insee_commune": null}, {"stationcode": "15061", "name": "Square Desnouettes", "is_installed": "OUI", "capacity": 22, "numdocksavailable": 4, "numbikesavailable": 17, "mechanical": 16, "ebike": 1, "is_renting": "OUI", "is_returning": "OUI", "duedate": "2024-06-17T12:58:09+00:00", "coordonnees_geo": {"lon": 2.284142297394666, "lat": 48.83476837934194}, "nom_arrondissement_communes": "Paris", "code_insee_commune": null}, {"stationcode": "20017", "name": "Saint-Blaise - Mouraud", "is_installed": "OUI", "capacity": 27, "numdocksavailable": 24, "numbikesavailable": 3, "mechanical": 0, "ebike": 3, "is_renting": "OUI", "is_returning": "OUI", "duedate": "2024-06-17T12:57:24+00:00", "coordonnees_geo": {"lon": 2.40869477391243, "lat": 48.85696177597818}, "nom_arrondissement_communes": "Paris", "code_insee_commune": null}, {"stationcode": "11019", "name": "Charonne - Philippe-Auguste", "is_installed": "OUI", "capacity": 32, "numdocksavailable": 27, "numbikesavailable": 2, "mechanical": 1, "ebike": 1, "is_renting": "OUI", "is_returning": "OUI", "duedate": "2024-06-17T12:56:48+00:00", "coordonnees_geo": {"lon": 2.39054639062, "lat": 48.855603162026}, "nom_arrondissement_communes": "Paris", "code_insee_commune": null}, {"stationcode": "15063", "name": "Convention - Saint-Charles", "is_installed": "OUI", "capacity": 23, "numdocksavailable": 21, "numbikesavailable": 2, "mechanical": 2, "ebike": 0, "is_renting": "NON", "is_returning": "NON", "duedate": "2023-12-14T02:53:24+00:00", "coordonnees_geo": {"lon": 2.2831090539694, "lat": 48.843156111116}, "nom_arrondissement_communes": "Paris", "code_insee_commune": null}, {"stationcode": "8015", "name": "Roqu\u00e9pine - Malesherbes", "is_installed": "OUI", "capacity": 37, "numdocksavailable": 0, "numbikesavailable": 36, "mechanical": 23, "ebike": 13, "is_renting": "OUI", "is_returning": "OUI", "duedate": "2024-06-17T12:57:37+00:00", "coordonnees_geo": {"lon": 2.320404499769211, "lat": 48.87345073390807}, "nom_arrondissement_communes": "Paris", "code_insee_commune": null}, {"stationcode": "21108", "name": "Mairie de Clichy", "is_installed": "OUI", "capacity": 51, "numdocksavailable": 46, "numbikesavailable": 4, "mechanical": 3, "ebike": 1, "is_renting": "OUI", "is_returning": "OUI", "duedate": "2024-06-17T12:57:03+00:00", "coordonnees_geo": {"lon": 2.3059353232384, "lat": 48.903653634661}, "nom_arrondissement_communes": "Clichy", "code_insee_commune": null}, {"stationcode": "14116", "name": "Romain Rolland", "is_installed": "OUI", "capacity": 25, "numdocksavailable": 22, "numbikesavailable": 3, "mechanical": 1, "ebike": 2, "is_renting": "OUI", "is_returning": "OUI", "duedate": "2024-06-17T12:58:10+00:00", "coordonnees_geo": {"lon": 2.3234144234418346, "lat": 48.820215229662765}, "nom_arrondissement_communes": "Montrouge", "code_insee_commune": null}, {"stationcode": "47002", "name": "Les Juilliottes", "is_installed": "OUI", "capacity": 21, "numdocksavailable": 2, "numbikesavailable": 19, "mechanical": 13, "ebike": 6, "is_renting": "OUI", "is_returning": "OUI", "duedate": "2024-06-17T12:53:33+00:00", "coordonnees_geo": {"lon": 2.4437362, "lat": 48.8043072}, "nom_arrondissement_communes": "Maisons-Alfort", "code_insee_commune": null}, {"stationcode": "33005", "name": "R\u00e9publique - Henri Barbusse", "is_installed": "OUI", "capacity": 32, "numdocksavailable": 25, "numbikesavailable": 5, "mechanical": 2, "ebike": 3, "is_renting": "OUI", "is_returning": "OUI", "duedate": "2024-06-17T12:57:12+00:00", "coordonnees_geo": {"lon": 2.389432489871979, "lat": 48.90661553626751}, "nom_arrondissement_communes": "Aubervilliers", "code_insee_commune": null}, {"stationcode": "17033", "name": "Carnot - G\u00e9n\u00e9ral Lanrezac", "is_installed": "OUI", "capacity": 30, "numdocksavailable": 23, "numbikesavailable": 7, "mechanical": 4, "ebike": 3, "is_renting": "OUI", "is_returning": "OUI", "duedate": "2024-06-17T12:53:44+00:00", "coordonnees_geo": {"lon": 2.2938242935036, "lat": 48.875443870736}, "nom_arrondissement_communes": "Paris", "code_insee_commune": null}, {"stationcode": "14007", "name": "Ferrus - Saint-Jacques", "is_installed": "OUI", "capacity": 34, "numdocksavailable": 24, "numbikesavailable": 9, "mechanical": 6, "ebike": 3, "is_renting": "OUI", "is_returning": "OUI", "duedate": "2024-06-17T12:56:44+00:00", "coordonnees_geo": {"lon": 2.3408563, "lat": 48.8313878}, "nom_arrondissement_communes": "Paris", "code_insee_commune": null}, {"stationcode": "9113", "name": "Bleue - Tr\u00e9vise", "is_installed": "OUI", "capacity": 30, "numdocksavailable": 5, "numbikesavailable": 23, "mechanical": 17, "ebike": 6, "is_renting": "OUI", "is_returning": "OUI", "duedate": "2024-06-17T12:53:47+00:00", "coordonnees_geo": {"lon": 2.347289621829987, "lat": 48.87578906564573}, "nom_arrondissement_communes": "Paris", "code_insee_commune": null}, {"stationcode": "20103", "name": "Le Vau - Maurice Bertaux", "is_installed": "OUI", "capacity": 25, "numdocksavailable": 22, "numbikesavailable": 2, "mechanical": 0, "ebike": 2, "is_renting": "OUI", "is_returning": "OUI", "duedate": "2024-06-17T12:50:09+00:00", "coordonnees_geo": {"lon": 2.411030612453627, "lat": 48.86803439043193}, "nom_arrondissement_communes": "Paris", "code_insee_commune": null}, {"stationcode": "16041", "name": "Versailles - Claude Terrasse", "is_installed": "OUI", "capacity": 46, "numdocksavailable": 29, "numbikesavailable": 15, "mechanical": 13, "ebike": 2, "is_renting": "OUI", "is_returning": "OUI", "duedate": "2024-06-17T12:57:20+00:00", "coordonnees_geo": {"lon": 2.263834191152959, "lat": 48.84021933807409}, "nom_arrondissement_communes": "Paris", "code_insee_commune": null}, {"stationcode": "4109", "name": "Mornay - Sully", "is_installed": "OUI", "capacity": 15, "numdocksavailable": 7, "numbikesavailable": 7, "mechanical": 7, "ebike": 0, "is_renting": "OUI", "is_returning": "OUI", "duedate": "2024-06-17T12:53:51+00:00", "coordonnees_geo": {"lon": 2.364460788667202, "lat": 48.84970399548416}, "nom_arrondissement_communes": "Paris", "code_insee_commune": null}, {"stationcode": "6031", "name": "Pierre Sarrazin - Saint-Michel", "is_installed": "OUI", "capacity": 33, "numdocksavailable": 0, "numbikesavailable": 33, "mechanical": 23, "ebike": 10, "is_renting": "OUI", "is_returning": "OUI", "duedate": "2024-06-17T12:58:05+00:00", "coordonnees_geo": {"lon": 2.342130728066, "lat": 48.850908146398}, "nom_arrondissement_communes": "Paris", "code_insee_commune": null}, {"stationcode": "11048", "name": "Place Mireille Havet", "is_installed": "OUI", "capacity": 43, "numdocksavailable": 33, "numbikesavailable": 8, "mechanical": 6, "ebike": 2, "is_renting": "OUI", "is_returning": "OUI", "duedate": "2024-06-17T12:54:53+00:00", "coordonnees_geo": {"lon": 2.383756, "lat": 48.850533}, "nom_arrondissement_communes": "Paris", "code_insee_commune": null}, {"stationcode": "21952", "name": "Place Tony de Graaff", "is_installed": "OUI", "capacity": 42, "numdocksavailable": 27, "numbikesavailable": 15, "mechanical": 10, "ebike": 5, "is_renting": "OUI", "is_returning": "OUI", "duedate": "2024-06-17T12:56:27+00:00", "coordonnees_geo": {"lon": 2.2458109, "lat": 48.8181645}, "nom_arrondissement_communes": "Meudon", "code_insee_commune": null}, {"stationcode": "5030", "name": "Sorbonne - Ecoles", "is_installed": "OUI", "capacity": 50, "numdocksavailable": 2, "numbikesavailable": 48, "mechanical": 39, "ebike": 9, "is_renting": "OUI", "is_returning": "OUI", "duedate": "2024-06-17T12:56:42+00:00", "coordonnees_geo": {"lon": 2.3434996604919, "lat": 48.849686566191}, "nom_arrondissement_communes": "Paris", "code_insee_commune": null}, {"stationcode": "19021", "name": "Mairie du 19\u00e8me", "is_installed": "OUI", "capacity": 27, "numdocksavailable": 23, "numbikesavailable": 3, "mechanical": 1, "ebike": 2, "is_renting": "OUI", "is_returning": "OUI", "duedate": "2024-06-17T12:54:00+00:00", "coordonnees_geo": {"lon": 2.3812624812126164, "lat": 48.88256264247959}, "nom_arrondissement_communes": "Paris", "code_insee_commune": null}, {"stationcode": "19030", "name": "Melun - Jean Jaur\u00e8s", "is_installed": "OUI", "capacity": 28, "numdocksavailable": 27, "numbikesavailable": 1, "mechanical": 0, "ebike": 1, "is_renting": "OUI", "is_returning": "OUI", "duedate": "2024-06-17T12:50:41+00:00", "coordonnees_geo": {"lon": 2.376477420330048, "lat": 48.8837796723475}, "nom_arrondissement_communes": "Paris", "code_insee_commune": null}, {"stationcode": "35008", "name": "Place de l'Eglise - Pantin", "is_installed": "OUI", "capacity": 30, "numdocksavailable": 28, "numbikesavailable": 2, "mechanical": 1, "ebike": 1, "is_renting": "OUI", "is_returning": "OUI", "duedate": "2024-06-17T12:53:23+00:00", "coordonnees_geo": {"lon": 2.4124351143836975, "lat": 48.892809461520265}, "nom_arrondissement_communes": "Pantin", "code_insee_commune": null}, {"stationcode": "13019", "name": "Fernand Braudel - Vincent Auriol", "is_installed": "OUI", "capacity": 36, "numdocksavailable": 1, "numbikesavailable": 34, "mechanical": 33, "ebike": 1, "is_renting": "OUI", "is_returning": "OUI", "duedate": "2024-06-17T12:57:56+00:00", "coordonnees_geo": {"lon": 2.3723404482007027, "lat": 48.83637852318147}, "nom_arrondissement_communes": "Paris", "code_insee_commune": null}, {"stationcode": "11044", "name": "Square du Bataclan", "is_installed": "OUI", "capacity": 20, "numdocksavailable": 2, "numbikesavailable": 16, "mechanical": 8, "ebike": 8, "is_renting": "OUI", "is_returning": "OUI", "duedate": "2024-06-17T12:55:00+00:00", "coordonnees_geo": {"lon": 2.3711327, "lat": 48.8633762}, "nom_arrondissement_communes": "Paris", "code_insee_commune": null}, {"stationcode": "23302", "name": "Parc de Sceaux - Centre-Ville", "is_installed": "OUI", "capacity": 33, "numdocksavailable": 33, "numbikesavailable": 0, "mechanical": 0, "ebike": 0, "is_renting": "NON", "is_returning": "NON", "duedate": "2024-06-07T14:37:22+00:00", "coordonnees_geo": {"lon": 2.2957214713097, "lat": 48.77695298261}, "nom_arrondissement_communes": "Sceaux", "code_insee_commune": null}, {"stationcode": "8029", "name": "Place du Canada", "is_installed": "OUI", "capacity": 58, "numdocksavailable": 0, "numbikesavailable": 58, "mechanical": 44, "ebike": 14, "is_renting": "OUI", "is_returning": "OUI", "duedate": "2024-06-17T12:57:44+00:00", "coordonnees_geo": {"lon": 2.3101937879648, "lat": 48.865346269363}, "nom_arrondissement_communes": "Paris", "code_insee_commune": null}, {"stationcode": "12153", "name": "Terroirs de France - Lheureux", "is_installed": "OUI", "capacity": 55, "numdocksavailable": 0, "numbikesavailable": 55, "mechanical": 42, "ebike": 13, "is_renting": "OUI", "is_returning": "OUI", "duedate": "2024-06-17T12:58:02+00:00", "coordonnees_geo": {"lon": 2.388618104159832, "lat": 48.83212027074841}, "nom_arrondissement_communes": "Paris", "code_insee_commune": null}, {"stationcode": "17005", "name": "Brochant - Clichy", "is_installed": "OUI", "capacity": 53, "numdocksavailable": 50, "numbikesavailable": 3, "mechanical": 2, "ebike": 1, "is_renting": "OUI", "is_returning": "OUI", "duedate": "2024-06-17T12:57:27+00:00", "coordonnees_geo": {"lon": 2.319730559929781, "lat": 48.89032998912038}, "nom_arrondissement_communes": "Paris", "code_insee_commune": null}, {"stationcode": "12033", "name": "Fran\u00e7ois Truffaut - Saint Emilion", "is_installed": "OUI", "capacity": 66, "numdocksavailable": 1, "numbikesavailable": 64, "mechanical": 57, "ebike": 7, "is_renting": "OUI", "is_returning": "OUI", "duedate": "2024-06-17T12:57:35+00:00", "coordonnees_geo": {"lon": 2.386601903271428, "lat": 48.83372354344807}, "nom_arrondissement_communes": "Paris", "code_insee_commune": null}, {"stationcode": "22012", "name": "Madeleine Michelis - Roule", "is_installed": "OUI", "capacity": 25, "numdocksavailable": 22, "numbikesavailable": 2, "mechanical": 0, "ebike": 2, "is_renting": "OUI", "is_returning": "OUI", "duedate": "2024-06-17T12:53:00+00:00", "coordonnees_geo": {"lon": 2.2773634269833565, "lat": 48.88260431301364}, "nom_arrondissement_communes": "Neuilly-sur-Seine", "code_insee_commune": null}, {"stationcode": "18142", "name": "Jessaint - Marx Dormoy", "is_installed": "OUI", "capacity": 30, "numdocksavailable": 27, "numbikesavailable": 1, "mechanical": 1, "ebike": 0, "is_renting": "OUI", "is_returning": "OUI", "duedate": "2024-06-17T12:56:41+00:00", "coordonnees_geo": {"lon": 2.358930408954621, "lat": 48.88484543106364}, "nom_arrondissement_communes": "Paris", "code_insee_commune": null}, {"stationcode": "18014", "name": "L\u00e9on - Doudeauville", "is_installed": "OUI", "capacity": 13, "numdocksavailable": 9, "numbikesavailable": 3, "mechanical": 1, "ebike": 2, "is_renting": "OUI", "is_returning": "OUI", "duedate": "2024-06-17T12:55:09+00:00", "coordonnees_geo": {"lon": 2.353573372638597, "lat": 48.88832421845225}, "nom_arrondissement_communes": "Paris", "code_insee_commune": null}, {"stationcode": "18035", "name": "Ren\u00e9 Binet - Porte de Montmartre", "is_installed": "OUI", "capacity": 37, "numdocksavailable": 28, "numbikesavailable": 6, "mechanical": 0, "ebike": 6, "is_renting": "OUI", "is_returning": "OUI", "duedate": "2024-06-17T12:56:05+00:00", "coordonnees_geo": {"lon": 2.3365534096956253, "lat": 48.89905109950848}, "nom_arrondissement_communes": "Paris", "code_insee_commune": null}, {"stationcode": "13110", "name": "Moulin de la Pointe", "is_installed": "OUI", "capacity": 22, "numdocksavailable": 16, "numbikesavailable": 6, "mechanical": 3, "ebike": 3, "is_renting": "OUI", "is_returning": "OUI", "duedate": "2024-06-17T12:53:20+00:00", "coordonnees_geo": {"lon": 2.3563179373741145, "lat": 48.82092946051445}, "nom_arrondissement_communes": "Paris", "code_insee_commune": null}, {"stationcode": "42011", "name": "Quai Marcel Boyer - Victor Hugo", "is_installed": "OUI", "capacity": 29, "numdocksavailable": 1, "numbikesavailable": 28, "mechanical": 25, "ebike": 3, "is_renting": "OUI", "is_returning": "OUI", "duedate": "2024-06-17T12:57:52+00:00", "coordonnees_geo": {"lon": 2.392039597034455, "lat": 48.82255636666729}, "nom_arrondissement_communes": "Ivry-sur-Seine", "code_insee_commune": null}, {"stationcode": "15009", "name": "Suffren - P\u00e9rignon", "is_installed": "OUI", "capacity": 46, "numdocksavailable": 34, "numbikesavailable": 10, "mechanical": 7, "ebike": 3, "is_renting": "OUI", "is_returning": "OUI", "duedate": "2024-06-17T12:57:42+00:00", "coordonnees_geo": {"lon": 2.307052147596786, "lat": 48.84717561492764}, "nom_arrondissement_communes": "Paris", "code_insee_commune": null}, {"stationcode": "23005", "name": "Gare de Clichy-Levallois", "is_installed": "OUI", "capacity": 26, "numdocksavailable": 12, "numbikesavailable": 12, "mechanical": 8, "ebike": 4, "is_renting": "OUI", "is_returning": "OUI", "duedate": "2024-06-17T12:58:04+00:00", "coordonnees_geo": {"lon": 2.2984680533409123, "lat": 48.89679827481989}, "nom_arrondissement_communes": "Levallois-Perret", "code_insee_commune": null}, {"stationcode": "20117", "name": "Saint-Fargeau - Mortier", "is_installed": "OUI", "capacity": 31, "numdocksavailable": 27, "numbikesavailable": 2, "mechanical": 0, "ebike": 2, "is_renting": "OUI", "is_returning": "OUI", "duedate": "2024-06-17T12:55:18+00:00", "coordonnees_geo": {"lon": 2.407912909984589, "lat": 48.87266656122256}, "nom_arrondissement_communes": "Paris", "code_insee_commune": null}, {"stationcode": "14125", "name": "Dareau - Broussais", "is_installed": "OUI", "capacity": 24, "numdocksavailable": 22, "numbikesavailable": 2, "mechanical": 0, "ebike": 2, "is_renting": "OUI", "is_returning": "OUI", "duedate": "2024-06-17T12:55:23+00:00", "coordonnees_geo": {"lon": 2.3361804, "lat": 48.8307758}, "nom_arrondissement_communes": "Paris", "code_insee_commune": null}, {"stationcode": "21009", "name": "Le Corbusier - Jean Jaur\u00e8s", "is_installed": "OUI", "capacity": 46, "numdocksavailable": 36, "numbikesavailable": 10, "mechanical": 5, "ebike": 5, "is_renting": "OUI", "is_returning": "OUI", "duedate": "2024-06-17T12:55:49+00:00", "coordonnees_geo": {"lon": 2.2408381104469304, "lat": 48.83780830557548}, "nom_arrondissement_communes": "Boulogne-Billancourt", "code_insee_commune": null}, {"stationcode": "20047", "name": "Cours de Vincennes - Davout", "is_installed": "OUI", "capacity": 48, "numdocksavailable": 46, "numbikesavailable": 2, "mechanical": 0, "ebike": 2, "is_renting": "OUI", "is_returning": "OUI", "duedate": "2024-06-17T12:56:38+00:00", "coordonnees_geo": {"lon": 2.4107042336225, "lat": 48.847238029966}, "nom_arrondissement_communes": "Paris", "code_insee_commune": null}, {"stationcode": "31017", "name": "Jean Moulin - Paul Doumer", "is_installed": "OUI", "capacity": 20, "numdocksavailable": 20, "numbikesavailable": 0, "mechanical": 0, "ebike": 0, "is_renting": "OUI", "is_returning": "OUI", "duedate": "2024-06-17T12:55:30+00:00", "coordonnees_geo": {"lon": 2.45533436536789, "lat": 48.8622179854695}, "nom_arrondissement_communes": "Montreuil", "code_insee_commune": null}, {"stationcode": "22403", "name": "Pierre Brossolette - Adolphe Pinard", "is_installed": "OUI", "capacity": 24, "numdocksavailable": 22, "numbikesavailable": 2, "mechanical": 1, "ebike": 1, "is_renting": "OUI", "is_returning": "OUI", "duedate": "2024-06-17T12:49:01+00:00", "coordonnees_geo": {"lon": 2.313155829906464, "lat": 48.82177227954821}, "nom_arrondissement_communes": "Malakoff", "code_insee_commune": null}, {"stationcode": "4107", "name": "Beaumarchais - Pas de la Mule", "is_installed": "OUI", "capacity": 18, "numdocksavailable": 3, "numbikesavailable": 15, "mechanical": 6, "ebike": 9, "is_renting": "OUI", "is_returning": "OUI", "duedate": "2024-06-17T12:57:18+00:00", "coordonnees_geo": {"lon": 2.3684333673431, "lat": 48.855580507049}, "nom_arrondissement_communes": "Paris", "code_insee_commune": null}, {"stationcode": "92005", "name": "Gare de Nanterre Ville", "is_installed": "OUI", "capacity": 43, "numdocksavailable": 17, "numbikesavailable": 26, "mechanical": 11, "ebike": 15, "is_renting": "OUI", "is_returning": "OUI", "duedate": "2024-06-17T12:57:43+00:00", "coordonnees_geo": {"lon": 2.1957932, "lat": 48.8950295}, "nom_arrondissement_communes": "Nanterre", "code_insee_commune": null}, {"stationcode": "19113", "name": "Pr\u00e9 Saint-Gervais - Lilas", "is_installed": "OUI", "capacity": 28, "numdocksavailable": 27, "numbikesavailable": 1, "mechanical": 0, "ebike": 1, "is_renting": "OUI", "is_returning": "OUI", "duedate": "2024-06-17T12:56:43+00:00", "coordonnees_geo": {"lon": 2.3959073424339, "lat": 48.877870626988}, "nom_arrondissement_communes": "Paris", "code_insee_commune": null}, {"stationcode": "10039", "name": "Sambre et Meuse - Villette", "is_installed": "OUI", "capacity": 25, "numdocksavailable": 21, "numbikesavailable": 2, "mechanical": 0, "ebike": 2, "is_renting": "OUI", "is_returning": "OUI", "duedate": "2024-06-17T12:56:56+00:00", "coordonnees_geo": {"lon": 2.3738072379951, "lat": 48.874405666217}, "nom_arrondissement_communes": "Paris", "code_insee_commune": null}, {"stationcode": "19036", "name": "H\u00f4pital Robert Debr\u00e9", "is_installed": "OUI", "capacity": 33, "numdocksavailable": 33, "numbikesavailable": 0, "mechanical": 0, "ebike": 0, "is_renting": "OUI", "is_returning": "OUI", "duedate": "2024-06-17T12:54:41+00:00", "coordonnees_geo": {"lon": 2.4008650346327003, "lat": 48.88005222200894}, "nom_arrondissement_communes": "Paris", "code_insee_commune": null}, {"stationcode": "12125", "name": "Pyramide - Parc Floral", "is_installed": "OUI", "capacity": 50, "numdocksavailable": 25, "numbikesavailable": 25, "mechanical": 17, "ebike": 8, "is_renting": "OUI", "is_returning": "OUI", "duedate": "2024-06-17T12:57:36+00:00", "coordonnees_geo": {"lon": 2.440452, "lat": 48.837442}, "nom_arrondissement_communes": "Paris", "code_insee_commune": null}, {"stationcode": "12129", "name": "Bois de Vincennes - Porte Jaune", "is_installed": "OUI", "capacity": 35, "numdocksavailable": 14, "numbikesavailable": 20, "mechanical": 16, "ebike": 4, "is_renting": "OUI", "is_returning": "OUI", "duedate": "2024-06-17T12:57:25+00:00", "coordonnees_geo": {"lon": 2.4605489149689674, "lat": 48.838751246689455}, "nom_arrondissement_communes": "Paris", "code_insee_commune": null}, {"stationcode": "9016", "name": "Choron - Martyrs", "is_installed": "OUI", "capacity": 17, "numdocksavailable": 12, "numbikesavailable": 5, "mechanical": 2, "ebike": 3, "is_renting": "OUI", "is_returning": "OUI", "duedate": "2024-06-17T12:57:05+00:00", "coordonnees_geo": {"lon": 2.3396701365709305, "lat": 48.877851443502536}, "nom_arrondissement_communes": "Paris", "code_insee_commune": null}, {"stationcode": "35004", "name": "Place du Pr\u00e9sident Salvador Allende", "is_installed": "OUI", "capacity": 60, "numdocksavailable": 19, "numbikesavailable": 39, "mechanical": 29, "ebike": 10, "is_renting": "OUI", "is_returning": "OUI", "duedate": "2024-06-17T12:57:33+00:00", "coordonnees_geo": {"lon": 2.40079153681279, "lat": 48.897307310356055}, "nom_arrondissement_communes": "Pantin", "code_insee_commune": null}, {"stationcode": "8011", "name": "Clapeyron - Moscou", "is_installed": "OUI", "capacity": 15, "numdocksavailable": 15, "numbikesavailable": 0, "mechanical": 0, "ebike": 0, "is_renting": "OUI", "is_returning": "OUI", "duedate": "2024-06-17T12:58:16+00:00", "coordonnees_geo": {"lon": 2.324815057218075, "lat": 48.88078819514121}, "nom_arrondissement_communes": "Paris", "code_insee_commune": null}, {"stationcode": "19124", "name": "Alexander Fleming - Belv\u00e9d\u00e8re", "is_installed": "OUI", "capacity": 31, "numdocksavailable": 24, "numbikesavailable": 5, "mechanical": 0, "ebike": 5, "is_renting": "OUI", "is_returning": "OUI", "duedate": "2024-06-17T12:53:38+00:00", "coordonnees_geo": {"lon": 2.4030599377642674, "lat": 48.88179064200294}, "nom_arrondissement_communes": "Paris", "code_insee_commune": null}, {"stationcode": "35011", "name": "Honor\u00e9 d'Estienne d'Ovres - Grilles", "is_installed": "OUI", "capacity": 18, "numdocksavailable": 14, "numbikesavailable": 2, "mechanical": 0, "ebike": 2, "is_renting": "OUI", "is_returning": "OUI", "duedate": "2024-06-17T12:56:12+00:00", "coordonnees_geo": {"lon": 2.4064831843792427, "lat": 48.89056394743836}, "nom_arrondissement_communes": "Pantin", "code_insee_commune": null}, {"stationcode": "10152", "name": "Gare du Nord - Place de Valenciennes", "is_installed": "OUI", "capacity": 25, "numdocksavailable": 19, "numbikesavailable": 4, "mechanical": 4, "ebike": 0, "is_renting": "OUI", "is_returning": "OUI", "duedate": "2024-06-17T12:57:14+00:00", "coordonnees_geo": {"lon": 2.354235, "lat": 48.879089}, "nom_arrondissement_communes": "Paris", "code_insee_commune": null}, {"stationcode": "7024", "name": "Rapp - Place du G\u00e9n\u00e9ral Gouraud", "is_installed": "OUI", "capacity": 31, "numdocksavailable": 1, "numbikesavailable": 27, "mechanical": 19, "ebike": 8, "is_renting": "OUI", "is_returning": "OUI", "duedate": "2024-06-17T12:57:46+00:00", "coordonnees_geo": {"lon": 2.3004072904587, "lat": 48.858102885107}, "nom_arrondissement_communes": "Paris", "code_insee_commune": null}, {"stationcode": "11031", "name": "Jacquard - Ternaux", "is_installed": "OUI", "capacity": 0, "numdocksavailable": 0, "numbikesavailable": 0, "mechanical": 0, "ebike": 0, "is_renting": "NON", "is_returning": "NON", "duedate": "2024-03-27T06:55:09+00:00", "coordonnees_geo": {"lon": 2.373162, "lat": 48.8646605}, "nom_arrondissement_communes": "Paris", "code_insee_commune": null}, {"stationcode": "16007", "name": "Longchamp - Place d'I\u00e9na", "is_installed": "OUI", "capacity": 40, "numdocksavailable": 11, "numbikesavailable": 26, "mechanical": 4, "ebike": 22, "is_renting": "OUI", "is_returning": "OUI", "duedate": "2024-06-17T12:55:42+00:00", "coordonnees_geo": {"lon": 2.2926748171448708, "lat": 48.86491723343388}, "nom_arrondissement_communes": "Paris", "code_insee_commune": null}, {"stationcode": "10110", "name": "Louis Blanc - Jemmapes", "is_installed": "OUI", "capacity": 31, "numdocksavailable": 27, "numbikesavailable": 2, "mechanical": 1, "ebike": 1, "is_renting": "OUI", "is_returning": "OUI", "duedate": "2024-06-17T12:52:30+00:00", "coordonnees_geo": {"lon": 2.368448562920093, "lat": 48.879330755297346}, "nom_arrondissement_communes": "Paris", "code_insee_commune": null}, {"stationcode": "20002", "name": "Square de la rue Pix\u00e9r\u00e9court", "is_installed": "OUI", "capacity": 15, "numdocksavailable": 14, "numbikesavailable": 1, "mechanical": 0, "ebike": 1, "is_renting": "OUI", "is_returning": "OUI", "duedate": "2024-06-17T12:55:22+00:00", "coordonnees_geo": {"lon": 2.3960278, "lat": 48.8736824}, "nom_arrondissement_communes": "Paris", "code_insee_commune": null}, {"stationcode": "9036", "name": "Ath\u00e8nes - Clichy", "is_installed": "OUI", "capacity": 20, "numdocksavailable": 4, "numbikesavailable": 16, "mechanical": 8, "ebike": 8, "is_renting": "OUI", "is_returning": "OUI", "duedate": "2024-06-17T12:57:38+00:00", "coordonnees_geo": {"lon": 2.32956021945824, "lat": 48.878113787876}, "nom_arrondissement_communes": "Paris", "code_insee_commune": null}, {"stationcode": "12006", "name": "Gare de Lyon - Van Gogh", "is_installed": "OUI", "capacity": 41, "numdocksavailable": 13, "numbikesavailable": 27, "mechanical": 23, "ebike": 4, "is_renting": "OUI", "is_returning": "OUI", "duedate": "2024-06-17T12:57:16+00:00", "coordonnees_geo": {"lon": 2.3704450240357, "lat": 48.843839785643}, "nom_arrondissement_communes": "Paris", "code_insee_commune": null}, {"stationcode": "13117", "name": "Stade Georges Carpentier", "is_installed": "OUI", "capacity": 40, "numdocksavailable": 39, "numbikesavailable": 1, "mechanical": 0, "ebike": 1, "is_renting": "OUI", "is_returning": "OUI", "duedate": "2024-06-17T12:58:10+00:00", "coordonnees_geo": {"lon": 2.3668321967125, "lat": 48.820482438381}, "nom_arrondissement_communes": "Paris", "code_insee_commune": null}, {"stationcode": "17029", "name": "Pierre Demours - Laugier", "is_installed": "OUI", "capacity": 37, "numdocksavailable": 33, "numbikesavailable": 3, "mechanical": 0, "ebike": 3, "is_renting": "OUI", "is_returning": "OUI", "duedate": "2024-06-17T12:56:46+00:00", "coordonnees_geo": {"lon": 2.294846, "lat": 48.8813072}, "nom_arrondissement_communes": "Paris", "code_insee_commune": null}, {"stationcode": "10004", "name": "Metz - Faubourg Saint-Denis", "is_installed": "OUI", "capacity": 48, "numdocksavailable": 0, "numbikesavailable": 44, "mechanical": 35, "ebike": 9, "is_renting": "OUI", "is_returning": "OUI", "duedate": "2024-06-17T12:56:37+00:00", "coordonnees_geo": {"lon": 2.353521, "lat": 48.870893}, "nom_arrondissement_communes": "Paris", "code_insee_commune": null}, {"stationcode": "21118", "name": "Neuilly - Petit", "is_installed": "OUI", "capacity": 16, "numdocksavailable": 9, "numbikesavailable": 6, "mechanical": 6, "ebike": 0, "is_renting": "OUI", "is_returning": "OUI", "duedate": "2024-06-17T12:57:07+00:00", "coordonnees_geo": {"lon": 2.29627937078476, "lat": 48.898965361341254}, "nom_arrondissement_communes": "Clichy", "code_insee_commune": null}, {"stationcode": "11103", "name": "Pel\u00e9e - Alphonse Baudin", "is_installed": "OUI", "capacity": 38, "numdocksavailable": 27, "numbikesavailable": 9, "mechanical": 7, "ebike": 2, "is_renting": "OUI", "is_returning": "OUI", "duedate": "2024-06-17T12:56:24+00:00", "coordonnees_geo": {"lon": 2.3710541, "lat": 48.8600265}, "nom_arrondissement_communes": "Paris", "code_insee_commune": null}, {"stationcode": "10017", "name": "Gare de l'Est - Fid\u00e9lit\u00e9", "is_installed": "OUI", "capacity": 15, "numdocksavailable": 13, "numbikesavailable": 1, "mechanical": 0, "ebike": 1, "is_renting": "OUI", "is_returning": "OUI", "duedate": "2024-06-17T12:56:03+00:00", "coordonnees_geo": {"lon": 2.356796, "lat": 48.874575}, "nom_arrondissement_communes": "Paris", "code_insee_commune": null}, {"stationcode": "22013", "name": "Mairie de Neuilly sur Seine", "is_installed": "OUI", "capacity": 31, "numdocksavailable": 25, "numbikesavailable": 5, "mechanical": 4, "ebike": 1, "is_renting": "OUI", "is_returning": "OUI", "duedate": "2024-06-17T12:55:39+00:00", "coordonnees_geo": {"lon": 2.2677031159400944, "lat": 48.88494728765838}, "nom_arrondissement_communes": "Neuilly-sur-Seine", "code_insee_commune": null}, {"stationcode": "21115", "name": "Chanc\u00e9 Milly - Cimeti\u00e8re Communal Sud", "is_installed": "OUI", "capacity": 32, "numdocksavailable": 24, "numbikesavailable": 7, "mechanical": 5, "ebike": 2, "is_renting": "OUI", "is_returning": "OUI", "duedate": "2024-06-17T12:57:23+00:00", "coordonnees_geo": {"lon": 2.303922325372696, "lat": 48.89687189382465}, "nom_arrondissement_communes": "Clichy", "code_insee_commune": null}, {"stationcode": "16009", "name": "Saint-Didier - Raymond Poincar\u00e9", "is_installed": "OUI", "capacity": 17, "numdocksavailable": 16, "numbikesavailable": 1, "mechanical": 0, "ebike": 1, "is_renting": "OUI", "is_returning": "OUI", "duedate": "2024-06-17T12:58:15+00:00", "coordonnees_geo": {"lon": 2.285863497192411, "lat": 48.86642312020962}, "nom_arrondissement_communes": "Paris", "code_insee_commune": null}, {"stationcode": "21029", "name": "Cours de l'Ile Seguin - Parc Billancourt", "is_installed": "OUI", "capacity": 29, "numdocksavailable": 0, "numbikesavailable": 29, "mechanical": 14, "ebike": 15, "is_renting": "OUI", "is_returning": "OUI", "duedate": "2024-06-17T12:57:25+00:00", "coordonnees_geo": {"lon": 2.234234511852265, "lat": 48.82714055843935}, "nom_arrondissement_communes": "Boulogne-Billancourt", "code_insee_commune": null}, {"stationcode": "16003", "name": "Andr\u00e9 Maurois - Joseph et Marie Hackin", "is_installed": "OUI", "capacity": 29, "numdocksavailable": 19, "numbikesavailable": 9, "mechanical": 6, "ebike": 3, "is_renting": "OUI", "is_returning": "OUI", "duedate": "2024-06-17T12:55:31+00:00", "coordonnees_geo": {"lon": 2.2789591, "lat": 48.8778983}, "nom_arrondissement_communes": "Paris", "code_insee_commune": null}, {"stationcode": "21316", "name": "Cimeti\u00e8re d'Issy-les-Moulineaux", "is_installed": "OUI", "capacity": 24, "numdocksavailable": 22, "numbikesavailable": 2, "mechanical": 1, "ebike": 1, "is_renting": "OUI", "is_returning": "OUI", "duedate": "2024-06-17T12:54:13+00:00", "coordonnees_geo": {"lon": 2.2609312087297, "lat": 48.817699773925}, "nom_arrondissement_communes": "Issy-les-Moulineaux", "code_insee_commune": null}, {"stationcode": "21708", "name": "Marcel Yol - Jullien", "is_installed": "OUI", "capacity": 30, "numdocksavailable": 26, "numbikesavailable": 4, "mechanical": 0, "ebike": 4, "is_renting": "OUI", "is_returning": "OUI", "duedate": "2024-06-17T12:54:45+00:00", "coordonnees_geo": {"lon": 2.287235018058929, "lat": 48.82537611802588}, "nom_arrondissement_communes": "Vanves", "code_insee_commune": null}, {"stationcode": "42304", "name": "Marc Sangnier - Division Leclerc", "is_installed": "OUI", "capacity": 24, "numdocksavailable": 14, "numbikesavailable": 9, "mechanical": 8, "ebike": 1, "is_renting": "OUI", "is_returning": "OUI", "duedate": "2024-06-17T12:50:31+00:00", "coordonnees_geo": {"lon": 2.329955510795116, "lat": 48.78599652305309}, "nom_arrondissement_communes": "Cachan", "code_insee_commune": null}, {"stationcode": "31021", "name": "R\u00e9sistance - Hoche", "is_installed": "OUI", "capacity": 29, "numdocksavailable": 27, "numbikesavailable": 2, "mechanical": 0, "ebike": 2, "is_renting": "OUI", "is_returning": "OUI", "duedate": "2024-06-17T12:49:40+00:00", "coordonnees_geo": {"lon": 2.435784414410591, "lat": 48.864273423741956}, "nom_arrondissement_communes": "Montreuil", "code_insee_commune": null}, {"stationcode": "44002", "name": "Paul Vaillant-Couturier - Gare RER", "is_installed": "OUI", "capacity": 26, "numdocksavailable": 9, "numbikesavailable": 17, "mechanical": 10, "ebike": 7, "is_renting": "OUI", "is_returning": "OUI", "duedate": "2024-06-17T12:55:40+00:00", "coordonnees_geo": {"lon": 2.402097210288048, "lat": 48.80108159069614}, "nom_arrondissement_communes": "Vitry-sur-Seine", "code_insee_commune": null}, {"stationcode": "13039", "name": "Ivry - Simone Weil", "is_installed": "OUI", "capacity": 18, "numdocksavailable": 15, "numbikesavailable": 3, "mechanical": 2, "ebike": 1, "is_renting": "OUI", "is_returning": "OUI", "duedate": "2024-06-17T12:48:24+00:00", "coordonnees_geo": {"lon": 2.3659095168113713, "lat": 48.823283932030755}, "nom_arrondissement_communes": "Paris", "code_insee_commune": null}, {"stationcode": "21030", "name": "Fessart - Ch\u00e2teau", "is_installed": "OUI", "capacity": 20, "numdocksavailable": 6, "numbikesavailable": 13, "mechanical": 5, "ebike": 8, "is_renting": "OUI", "is_returning": "OUI", "duedate": "2024-06-17T12:55:36+00:00", "coordonnees_geo": {"lon": 2.23989, "lat": 48.84245}, "nom_arrondissement_communes": "Boulogne-Billancourt", "code_insee_commune": null}]