[{"stationcode": "15070", "name": "Balard - Montagne de la Fage", "is_installed": "OUI", "capacity": 36, "numdocksavailable": 6, "numbikesavailable": 26, "mechanical": 23, "ebike": 3, "is_renting": "OUI", "is_returning": "OUI", "duedate": "2024-06-16T05:49:54+00:00", "coordonnees_geo": {"lon": 2.2782871127128606, "lat": 48.83850740333351}, "nom_arrondissement_communes": "Paris", "code_insee_commune": null}, {"stationcode": "1120", "name": "Lavandieres Sainte Opportune - Rivoli", "is_installed": "OUI", "capacity": 27, "numdocksavailable": 24, "numbikesavailable": 2, "mechanical": 1, "ebike": 1, "is_renting": "OUI", "is_returning": "OUI", "duedate": "2024-06-16T05:47:13+00:00", "coordonnees_geo": {"lon": 2.3466217517853, "lat": 48.859279702476}, "nom_arrondissement_communes": "Paris", "code_insee_commune": null}, {"stationcode": "14112", "name": "M\u00e9chain - Faubourg Saint-Jacques", "is_installed": "OUI", "capacity": 16, "numdocksavailable": 13, "numbikesavailable": 3, "mechanical": 1, "ebike": 2, "is_renting": "OUI", "is_returning": "OUI", "duedate": "2024-06-16T05:54:24+00:00", "coordonnees_geo": {"lon": 2.33798034198275, "lat": 48.83586772099485}, "nom_arrondissement_communes": "Paris", "code_insee_commune": null}, {"stationcode": "9026", "name": "Jean-Baptiste Pigalle - La Bruyere", "is_installed": "OUI", "capacity": 17, "numdocksavailable": 16, "numbikesavailable": 0, "mechanical": 0, "ebike": 0, "is_renting": "OUI", "is_returning": "OUI", "duedate": "2024-06-16T05:50:07+00:00", "coordonnees_geo": {"lon": 2.333709173337285, "lat": 48.87939826447722}, "nom_arrondissement_communes": "Paris", "code_insee_commune": null}, {"stationcode": "21001", "name": "Transvaal - Charles de Gaulle", "is_installed": "OUI", "capacity": 27, "numdocksavailable": 21, "numbikesavailable": 6, "mechanical": 3, "ebike": 3, "is_renting": "OUI", "is_returning": "OUI", "duedate": "2024-06-16T05:52:15+00:00", "coordonnees_geo": {"lon": 2.2373420120857195, "lat": 48.848280403628806}, "nom_arrondissement_communes": "Boulogne-Billancourt", "code_insee_commune": null}, {"stationcode": "16122", "name": "Route de la Muette - Porte de Neuilly", "is_installed": "OUI", "capacity": 50, "numdocksavailable": 46, "numbikesavailable": 4, "mechanical": 1, "ebike": 3, "is_renting": "OUI", "is_returning": "OUI", "duedate": "2024-06-16T05:50:36+00:00", "coordonnees_geo": {"lon": 2.2587671, "lat": 48.8798926}, "nom_arrondissement_communes": "Paris", "code_insee_commune": null}, {"stationcode": "23007", "name": "Pr\u00e9sident Wilson - Jean Jaures", "is_installed": "OUI", "capacity": 27, "numdocksavailable": 14, "numbikesavailable": 13, "mechanical": 6, "ebike": 7, "is_renting": "OUI", "is_returning": "OUI", "duedate": "2024-06-16T05:53:53+00:00", "coordonnees_geo": {"lon": 2.2920683026313786, "lat": 48.89034054052266}, "nom_arrondissement_communes": "Levallois-Perret", "code_insee_commune": null}, {"stationcode": "20016", "name": "Pyr\u00e9n\u00e9es - Mara\u00eechers", "is_installed": "OUI", "capacity": 19, "numdocksavailable": 14, "numbikesavailable": 5, "mechanical": 0, "ebike": 5, "is_renting": "OUI", "is_returning": "OUI", "duedate": "2024-06-16T05:54:21+00:00", "coordonnees_geo": {"lon": 2.4043509364128113, "lat": 48.85714001395299}, "nom_arrondissement_communes": "Paris", "code_insee_commune": null}, {"stationcode": "32015", "name": "Gare RER de Saint-Denis", "is_installed": "OUI", "capacity": 40, "numdocksavailable": 13, "numbikesavailable": 21, "mechanical": 5, "ebike": 16, "is_renting": "OUI", "is_returning": "OUI", "duedate": "2024-06-16T05:51:31+00:00", "coordonnees_geo": {"lon": 2.3471488058567047, "lat": 48.93554324248177}, "nom_arrondissement_communes": "Saint-Denis", "code_insee_commune": null}, {"stationcode": "10010", "name": "Place Jacques Bonsergent", "is_installed": "OUI", "capacity": 33, "numdocksavailable": 4, "numbikesavailable": 28, "mechanical": 24, "ebike": 4, "is_renting": "OUI", "is_returning": "OUI", "duedate": "2024-06-16T05:54:02+00:00", "coordonnees_geo": {"lon": 2.3612049221992, "lat": 48.870948218595}, "nom_arrondissement_communes": "Paris", "code_insee_commune": null}, {"stationcode": "16043", "name": "Place de Passy", "is_installed": "OUI", "capacity": 15, "numdocksavailable": 14, "numbikesavailable": 1, "mechanical": 1, "ebike": 0, "is_renting": "OUI", "is_returning": "OUI", "duedate": "2024-06-16T05:50:11+00:00", "coordonnees_geo": {"lon": 2.277500546942199, "lat": 48.85780291711202}, "nom_arrondissement_communes": "Paris", "code_insee_commune": null}, {"stationcode": "20116", "name": "Haies - R\u00e9union", "is_installed": "OUI", "capacity": 16, "numdocksavailable": 7, "numbikesavailable": 9, "mechanical": 1, "ebike": 8, "is_renting": "OUI", "is_returning": "OUI", "duedate": "2024-06-16T05:53:55+00:00", "coordonnees_geo": {"lon": 2.402426162238911, "lat": 48.85386896766491}, "nom_arrondissement_communes": "Paris", "code_insee_commune": null}, {"stationcode": "18017", "name": "Caulaincourt - Place Constantin Pecqueur", "is_installed": "OUI", "capacity": 44, "numdocksavailable": 31, "numbikesavailable": 10, "mechanical": 1, "ebike": 9, "is_renting": "OUI", "is_returning": "OUI", "duedate": "2024-06-16T05:48:31+00:00", "coordonnees_geo": {"lon": 2.33817871442611, "lat": 48.8896779050281}, "nom_arrondissement_communes": "Paris", "code_insee_commune": null}, {"stationcode": "16029", "name": "Maison de Radio - France", "is_installed": "OUI", "capacity": 47, "numdocksavailable": 13, "numbikesavailable": 33, "mechanical": 31, "ebike": 2, "is_renting": "OUI", "is_returning": "OUI", "duedate": "2024-06-16T05:54:36+00:00", "coordonnees_geo": {"lon": 2.277785539627075, "lat": 48.85132886434057}, "nom_arrondissement_communes": "Paris", "code_insee_commune": null}, {"stationcode": "9017", "name": "Lallier - Trudaine", "is_installed": "OUI", "capacity": 29, "numdocksavailable": 28, "numbikesavailable": 1, "mechanical": 0, "ebike": 1, "is_renting": "OUI", "is_returning": "OUI", "duedate": "2024-06-16T05:48:28+00:00", "coordonnees_geo": {"lon": 2.3408224806189537, "lat": 48.88109246617963}, "nom_arrondissement_communes": "Paris", "code_insee_commune": null}, {"stationcode": "18008", "name": "Square L\u00e9on", "is_installed": "OUI", "capacity": 33, "numdocksavailable": 20, "numbikesavailable": 12, "mechanical": 0, "ebike": 12, "is_renting": "OUI", "is_returning": "OUI", "duedate": "2024-06-16T05:53:57+00:00", "coordonnees_geo": {"lon": 2.353205569088459, "lat": 48.88667396788626}, "nom_arrondissement_communes": "Paris", "code_insee_commune": null}, {"stationcode": "16112", "name": "Chernoviz - Raynouard", "is_installed": "OUI", "capacity": 37, "numdocksavailable": 22, "numbikesavailable": 14, "mechanical": 13, "ebike": 1, "is_renting": "OUI", "is_returning": "OUI", "duedate": "2024-06-16T05:48:38+00:00", "coordonnees_geo": {"lon": 2.282173218142987, "lat": 48.8569864146289}, "nom_arrondissement_communes": "Paris", "code_insee_commune": null}, {"stationcode": "20201", "name": "Eug\u00e8ne Reisz - Davout", "is_installed": "OUI", "capacity": 20, "numdocksavailable": 14, "numbikesavailable": 5, "mechanical": 2, "ebike": 3, "is_renting": "OUI", "is_returning": "OUI", "duedate": "2024-06-16T05:47:43+00:00", "coordonnees_geo": {"lon": 2.410396970808506, "lat": 48.85631874632638}, "nom_arrondissement_communes": "Paris", "code_insee_commune": null}, {"stationcode": "13046", "name": "Eug\u00e8ne Oudin\u00e9 - Dessous Des Berges", "is_installed": "OUI", "capacity": 44, "numdocksavailable": 3, "numbikesavailable": 39, "mechanical": 32, "ebike": 7, "is_renting": "OUI", "is_returning": "OUI", "duedate": "2024-06-16T05:53:32+00:00", "coordonnees_geo": {"lon": 2.3750226, "lat": 48.8256423}, "nom_arrondissement_communes": "Paris", "code_insee_commune": null}, {"stationcode": "22102", "name": "Mont Val\u00e9rien - Michel Salles", "is_installed": "OUI", "capacity": 24, "numdocksavailable": 16, "numbikesavailable": 7, "mechanical": 2, "ebike": 5, "is_renting": "OUI", "is_returning": "OUI", "duedate": "2024-06-16T05:54:29+00:00", "coordonnees_geo": {"lon": 2.2152966, "lat": 48.8561915}, "nom_arrondissement_communes": "Saint-Cloud", "code_insee_commune": null}, {"stationcode": "6032", "name": "Sabot - Rennes", "is_installed": "OUI", "capacity": 26, "numdocksavailable": 20, "numbikesavailable": 6, "mechanical": 4, "ebike": 2, "is_renting": "OUI", "is_returning": "OUI", "duedate": "2024-06-16T05:54:12+00:00", "coordonnees_geo": {"lon": 2.331552766263485, "lat": 48.852575112948415}, "nom_arrondissement_communes": "Paris", "code_insee_commune": null}, {"stationcode": "7020", "name": "Champ de Mars - Cler", "is_installed": "OUI", "capacity": 40, "numdocksavailable": 1, "numbikesavailable": 37, "mechanical": 34, "ebike": 3, "is_renting": "OUI", "is_returning": "OUI", "duedate": "2024-06-16T05:54:24+00:00", "coordonnees_geo": {"lon": 2.306646779179573, "lat": 48.856691550115315}, "nom_arrondissement_communes": "Paris", "code_insee_commune": null}, {"stationcode": "23304", "name": "Mairie de Sceaux", "is_installed": "OUI", "capacity": 33, "numdocksavailable": 25, "numbikesavailable": 8, "mechanical": 2, "ebike": 6, "is_renting": "OUI", "is_returning": "OUI", "duedate": "2024-06-16T05:53:50+00:00", "coordonnees_geo": {"lon": 2.2887361764861, "lat": 48.778916905132}, "nom_arrondissement_communes": "Sceaux", "code_insee_commune": null}, {"stationcode": "6017", "name": "S\u00e9nat - Cond\u00e9", "is_installed": "OUI", "capacity": 33, "numdocksavailable": 14, "numbikesavailable": 19, "mechanical": 16, "ebike": 3, "is_renting": "OUI", "is_returning": "OUI", "duedate": "2024-06-16T05:54:22+00:00", "coordonnees_geo": {"lon": 2.337939441204071, "lat": 48.84954227788459}, "nom_arrondissement_communes": "Paris", "code_insee_commune": null}, {"stationcode": "13103", "name": "H\u00f4pital Piti\u00e9 Salp\u00eatri\u00e8re", "is_installed": "OUI", "capacity": 50, "numdocksavailable": 22, "numbikesavailable": 26, "mechanical": 19, "ebike": 7, "is_renting": "OUI", "is_returning": "OUI", "duedate": "2024-06-16T05:53:29+00:00", "coordonnees_geo": {"lon": 2.3604946, "lat": 48.8377016}, "nom_arrondissement_communes": "Paris", "code_insee_commune": null}, {"stationcode": "12161", "name": "Diderot - Reuilly", "is_installed": "OUI", "capacity": 44, "numdocksavailable": 30, "numbikesavailable": 14, "mechanical": 11, "ebike": 3, "is_renting": "OUI", "is_returning": "OUI", "duedate": "2024-06-16T05:54:34+00:00", "coordonnees_geo": {"lon": 2.3861273378134, "lat": 48.847208456061}, "nom_arrondissement_communes": "Paris", "code_insee_commune": null}, {"stationcode": "15107", "name": "Palais des Sports", "is_installed": "OUI", "capacity": 22, "numdocksavailable": 12, "numbikesavailable": 10, "mechanical": 9, "ebike": 1, "is_renting": "OUI", "is_returning": "OUI", "duedate": "2024-06-16T05:53:16+00:00", "coordonnees_geo": {"lon": 2.2858720645308, "lat": 48.833468517426}, "nom_arrondissement_communes": "Paris", "code_insee_commune": null}, {"stationcode": "1117", "name": "Pont Neuf - Rivoli", "is_installed": "OUI", "capacity": 27, "numdocksavailable": 24, "numbikesavailable": 2, "mechanical": 1, "ebike": 1, "is_renting": "OUI", "is_returning": "OUI", "duedate": "2024-06-16T05:53:44+00:00", "coordonnees_geo": {"lon": 2.344057559967, "lat": 48.860089892617}, "nom_arrondissement_communes": "Paris", "code_insee_commune": null}, {"stationcode": "20137", "name": "Borr\u00e9go - Gambetta", "is_installed": "OUI", "capacity": 25, "numdocksavailable": 4, "numbikesavailable": 21, "mechanical": 14, "ebike": 7, "is_renting": "OUI", "is_returning": "OUI", "duedate": "2024-06-16T05:53:34+00:00", "coordonnees_geo": {"lon": 2.4014145880937576, "lat": 48.87330497045532}, "nom_arrondissement_communes": "Paris", "code_insee_commune": null}, {"stationcode": "23903", "name": "Stade Gaston Bouillant", "is_installed": "OUI", "capacity": 30, "numdocksavailable": 17, "numbikesavailable": 11, "mechanical": 4, "ebike": 7, "is_renting": "OUI", "is_returning": "OUI", "duedate": "2024-06-16T05:52:32+00:00", "coordonnees_geo": {"lon": 2.3279571813836, "lat": 48.939958667023}, "nom_arrondissement_communes": "Villeneuve-la-Garenne", "code_insee_commune": null}, {"stationcode": "32603", "name": "Calmette", "is_installed": "OUI", "capacity": 32, "numdocksavailable": 18, "numbikesavailable": 13, "mechanical": 1, "ebike": 12, "is_renting": "OUI", "is_returning": "OUI", "duedate": "2024-06-16T05:53:45+00:00", "coordonnees_geo": {"lon": 2.424993216991425, "lat": 48.88104925098552}, "nom_arrondissement_communes": "Les Lilas", "code_insee_commune": null}, {"stationcode": "7013", "name": "Duroc - Place de Breteuil", "is_installed": "OUI", "capacity": 42, "numdocksavailable": 9, "numbikesavailable": 33, "mechanical": 25, "ebike": 8, "is_renting": "OUI", "is_returning": "OUI", "duedate": "2024-06-16T05:54:30+00:00", "coordonnees_geo": {"lon": 2.3126140236855, "lat": 48.847460641142}, "nom_arrondissement_communes": "Paris", "code_insee_commune": null}, {"stationcode": "17201", "name": "Porte Maillot - Perreire", "is_installed": "OUI", "capacity": 51, "numdocksavailable": 45, "numbikesavailable": 6, "mechanical": 4, "ebike": 2, "is_renting": "OUI", "is_returning": "OUI", "duedate": "2024-06-16T05:53:03+00:00", "coordonnees_geo": {"lon": 2.2842371277102, "lat": 48.878021154637}, "nom_arrondissement_communes": "Paris", "code_insee_commune": null}, {"stationcode": "21311", "name": "Parvis Corentin Celton", "is_installed": "OUI", "capacity": 55, "numdocksavailable": 0, "numbikesavailable": 53, "mechanical": 49, "ebike": 4, "is_renting": "OUI", "is_returning": "OUI", "duedate": "2024-06-16T05:53:43+00:00", "coordonnees_geo": {"lon": 2.2784319519996648, "lat": 48.82747252522725}, "nom_arrondissement_communes": "Issy-les-Moulineaux", "code_insee_commune": null}, {"stationcode": "12041", "name": "Bois de Vincennes.", "is_installed": "OUI", "capacity": 60, "numdocksavailable": 36, "numbikesavailable": 22, "mechanical": 19, "ebike": 3, "is_renting": "OUI", "is_returning": "OUI", "duedate": "2024-06-16T05:54:28+00:00", "coordonnees_geo": {"lon": 2.4132221, "lat": 48.8338064}, "nom_arrondissement_communes": "Saint-Mand\u00e9", "code_insee_commune": null}, {"stationcode": "15059", "name": "Parc Andr\u00e9 Citro\u00ebn", "is_installed": "OUI", "capacity": 65, "numdocksavailable": 36, "numbikesavailable": 29, "mechanical": 29, "ebike": 0, "is_renting": "OUI", "is_returning": "OUI", "duedate": "2024-06-16T05:54:15+00:00", "coordonnees_geo": {"lon": 2.2780618071556096, "lat": 48.840639944296655}, "nom_arrondissement_communes": "Paris", "code_insee_commune": null}, {"stationcode": "4013", "name": "Vieille du Temple - Francs Bourgeois", "is_installed": "OUI", "capacity": 29, "numdocksavailable": 11, "numbikesavailable": 16, "mechanical": 10, "ebike": 6, "is_renting": "OUI", "is_returning": "OUI", "duedate": "2024-06-16T05:52:16+00:00", "coordonnees_geo": {"lon": 2.35821794718504, "lat": 48.858256413365815}, "nom_arrondissement_communes": "Paris", "code_insee_commune": null}, {"stationcode": "4011", "name": "H\u00f4tel de Ville - Pont-Marie", "is_installed": "OUI", "capacity": 36, "numdocksavailable": 33, "numbikesavailable": 2, "mechanical": 0, "ebike": 2, "is_renting": "OUI", "is_returning": "OUI", "duedate": "2024-06-16T05:53:18+00:00", "coordonnees_geo": {"lon": 2.3569472506642, "lat": 48.853899645527}, "nom_arrondissement_communes": "Paris", "code_insee_commune": null}, {"stationcode": "31023", "name": "Place Fran\u00e7ois Mitterand", "is_installed": "OUI", "capacity": 34, "numdocksavailable": 31, "numbikesavailable": 3, "mechanical": 1, "ebike": 2, "is_renting": "OUI", "is_returning": "OUI", "duedate": "2024-06-16T05:53:14+00:00", "coordonnees_geo": {"lon": 2.442958317697048, "lat": 48.86492782016328}, "nom_arrondissement_communes": "Montreuil", "code_insee_commune": null}, {"stationcode": "9118", "name": "Faubourg Poissonniere - Delta", "is_installed": "OUI", "capacity": 36, "numdocksavailable": 33, "numbikesavailable": 3, "mechanical": 0, "ebike": 3, "is_renting": "OUI", "is_returning": "OUI", "duedate": "2024-06-16T05:54:01+00:00", "coordonnees_geo": {"lon": 2.3497482016682625, "lat": 48.882555807626765}, "nom_arrondissement_communes": "Paris", "code_insee_commune": null}, {"stationcode": "21024", "name": "Billancourt - G\u00e9n\u00e9ral Leclerc", "is_installed": "OUI", "capacity": 22, "numdocksavailable": 6, "numbikesavailable": 16, "mechanical": 8, "ebike": 8, "is_renting": "OUI", "is_returning": "OUI", "duedate": "2024-06-16T05:52:32+00:00", "coordonnees_geo": {"lon": 2.2380413, "lat": 48.8322649}, "nom_arrondissement_communes": "Boulogne-Billancourt", "code_insee_commune": null}, {"stationcode": "10163", "name": "Gare du Nord - Demarquay", "is_installed": "OUI", "capacity": 30, "numdocksavailable": 20, "numbikesavailable": 9, "mechanical": 6, "ebike": 3, "is_renting": "OUI", "is_returning": "OUI", "duedate": "2024-06-16T05:53:27+00:00", "coordonnees_geo": {"lon": 2.358411, "lat": 48.881154}, "nom_arrondissement_communes": "Paris", "code_insee_commune": null}, {"stationcode": "2001", "name": "Greneta - Sebastopol", "is_installed": "OUI", "capacity": 32, "numdocksavailable": 21, "numbikesavailable": 11, "mechanical": 11, "ebike": 0, "is_renting": "OUI", "is_returning": "OUI", "duedate": "2024-06-16T05:52:19+00:00", "coordonnees_geo": {"lon": 2.3516669869423, "lat": 48.865242333228}, "nom_arrondissement_communes": "Paris", "code_insee_commune": null}, {"stationcode": "7016", "name": "Surcouf - Universit\u00e9", "is_installed": "OUI", "capacity": 58, "numdocksavailable": 48, "numbikesavailable": 4, "mechanical": 3, "ebike": 1, "is_renting": "NON", "is_returning": "NON", "duedate": "2024-06-16T05:51:16+00:00", "coordonnees_geo": {"lon": 2.3094535509142, "lat": 48.861273016278}, "nom_arrondissement_communes": "Paris", "code_insee_commune": null}, {"stationcode": "20019", "name": "Place du Maquis du Vercors", "is_installed": "OUI", "capacity": 31, "numdocksavailable": 15, "numbikesavailable": 15, "mechanical": 12, "ebike": 3, "is_renting": "OUI", "is_returning": "OUI", "duedate": "2024-06-16T05:47:56+00:00", "coordonnees_geo": {"lon": 2.4083782732486725, "lat": 48.877321579493575}, "nom_arrondissement_communes": "Paris", "code_insee_commune": null}, {"stationcode": "18137", "name": "Poissonniers - Nord", "is_installed": "OUI", "capacity": 28, "numdocksavailable": 6, "numbikesavailable": 21, "mechanical": 6, "ebike": 15, "is_renting": "OUI", "is_returning": "OUI", "duedate": "2024-06-16T05:54:04+00:00", "coordonnees_geo": {"lon": 2.3522228747606277, "lat": 48.892511213520656}, "nom_arrondissement_communes": "Paris", "code_insee_commune": null}, {"stationcode": "8056", "name": "Beaujon - Wagram", "is_installed": "OUI", "capacity": 29, "numdocksavailable": 16, "numbikesavailable": 13, "mechanical": 12, "ebike": 1, "is_renting": "OUI", "is_returning": "OUI", "duedate": "2024-06-16T05:53:11+00:00", "coordonnees_geo": {"lon": 2.2964416444302, "lat": 48.875352455985}, "nom_arrondissement_communes": "Paris", "code_insee_commune": null}, {"stationcode": "18138", "name": "Station Paris Basketball - Ney - Charles Hermite", "is_installed": "OUI", "capacity": 20, "numdocksavailable": 7, "numbikesavailable": 12, "mechanical": 4, "ebike": 8, "is_renting": "OUI", "is_returning": "OUI", "duedate": "2024-06-16T05:54:41+00:00", "coordonnees_geo": {"lon": 2.3645754531026, "lat": 48.898748039775}, "nom_arrondissement_communes": "Paris", "code_insee_commune": null}, {"stationcode": "13041", "name": "Porte d'Ivry", "is_installed": "OUI", "capacity": 50, "numdocksavailable": 46, "numbikesavailable": 3, "mechanical": 3, "ebike": 0, "is_renting": "OUI", "is_returning": "OUI", "duedate": "2024-06-16T05:52:50+00:00", "coordonnees_geo": {"lon": 2.3688706755638, "lat": 48.821768747596}, "nom_arrondissement_communes": "Paris", "code_insee_commune": null}, {"stationcode": "14006", "name": "Saint-Jacques - Tombe Issoire", "is_installed": "OUI", "capacity": 23, "numdocksavailable": 10, "numbikesavailable": 13, "mechanical": 7, "ebike": 6, "is_renting": "OUI", "is_returning": "OUI", "duedate": "2024-06-16T05:54:06+00:00", "coordonnees_geo": {"lon": 2.3369108140468597, "lat": 48.833206330538864}, "nom_arrondissement_communes": "Paris", "code_insee_commune": null}, {"stationcode": "31013", "name": "Centenaire - Sorins", "is_installed": "OUI", "capacity": 45, "numdocksavailable": 25, "numbikesavailable": 20, "mechanical": 3, "ebike": 17, "is_renting": "OUI", "is_returning": "OUI", "duedate": "2024-06-16T05:53:15+00:00", "coordonnees_geo": {"lon": 2.4273508787155156, "lat": 48.85853523359734}, "nom_arrondissement_communes": "Montreuil", "code_insee_commune": null}, {"stationcode": "18001", "name": "Damr\u00e9mont - Caulaincourt", "is_installed": "OUI", "capacity": 18, "numdocksavailable": 8, "numbikesavailable": 10, "mechanical": 4, "ebike": 6, "is_renting": "OUI", "is_returning": "OUI", "duedate": "2024-06-16T05:53:11+00:00", "coordonnees_geo": {"lon": 2.3325880989432335, "lat": 48.88714509078738}, "nom_arrondissement_communes": "Paris", "code_insee_commune": null}, {"stationcode": "17016", "name": "Brochant - Square des Batignolles", "is_installed": "OUI", "capacity": 31, "numdocksavailable": 27, "numbikesavailable": 4, "mechanical": 1, "ebike": 3, "is_renting": "OUI", "is_returning": "OUI", "duedate": "2024-06-16T05:49:29+00:00", "coordonnees_geo": {"lon": 2.316861143151153, "lat": 48.88818698581028}, "nom_arrondissement_communes": "Paris", "code_insee_commune": null}, {"stationcode": "18019", "name": "Square Raymond Souplex", "is_installed": "OUI", "capacity": 52, "numdocksavailable": 43, "numbikesavailable": 8, "mechanical": 1, "ebike": 7, "is_renting": "OUI", "is_returning": "OUI", "duedate": "2024-06-16T05:53:18+00:00", "coordonnees_geo": {"lon": 2.335426103165901, "lat": 48.89183721478911}, "nom_arrondissement_communes": "Paris", "code_insee_commune": null}, {"stationcode": "11034", "name": "Parmentier - Fontaine au Roi", "is_installed": "OUI", "capacity": 48, "numdocksavailable": 3, "numbikesavailable": 44, "mechanical": 38, "ebike": 6, "is_renting": "OUI", "is_returning": "OUI", "duedate": "2024-06-16T05:53:01+00:00", "coordonnees_geo": {"lon": 2.372705978671471, "lat": 48.86787670551736}, "nom_arrondissement_communes": "Paris", "code_insee_commune": null}, {"stationcode": "1016", "name": "Th\u00e9r\u00e8se - Op\u00e9ra", "is_installed": "OUI", "capacity": 25, "numdocksavailable": 6, "numbikesavailable": 19, "mechanical": 19, "ebike": 0, "is_renting": "OUI", "is_returning": "OUI", "duedate": "2024-06-16T05:52:42+00:00", "coordonnees_geo": {"lon": 2.3344334212238, "lat": 48.866483514509}, "nom_arrondissement_communes": "Paris", "code_insee_commune": null}, {"stationcode": "9012", "name": "Rougemont - Poissonni\u00e8re", "is_installed": "OUI", "capacity": 30, "numdocksavailable": 18, "numbikesavailable": 11, "mechanical": 11, "ebike": 0, "is_renting": "OUI", "is_returning": "OUI", "duedate": "2024-06-16T05:48:50+00:00", "coordonnees_geo": {"lon": 2.345873080193996, "lat": 48.871611569354755}, "nom_arrondissement_communes": "Paris", "code_insee_commune": null}, {"stationcode": "41206", "name": "Place des Larris", "is_installed": "OUI", "capacity": 34, "numdocksavailable": 23, "numbikesavailable": 11, "mechanical": 0, "ebike": 11, "is_renting": "OUI", "is_returning": "OUI", "duedate": "2024-06-16T05:48:53+00:00", "coordonnees_geo": {"lon": 2.4780236, "lat": 48.8568363}, "nom_arrondissement_communes": "Fontenay-sous-Bois", "code_insee_commune": null}, {"stationcode": "13113", "name": "Vistule - Choisy", "is_installed": "OUI", "capacity": 33, "numdocksavailable": 26, "numbikesavailable": 6, "mechanical": 5, "ebike": 1, "is_renting": "OUI", "is_returning": "OUI", "duedate": "2024-06-16T05:50:05+00:00", "coordonnees_geo": {"lon": 2.3615723848342896, "lat": 48.82365543660611}, "nom_arrondissement_communes": "Paris", "code_insee_commune": null}, {"stationcode": "13114", "name": "Nationale - Marcel Duchamp", "is_installed": "OUI", "capacity": 23, "numdocksavailable": 10, "numbikesavailable": 13, "mechanical": 5, "ebike": 8, "is_renting": "OUI", "is_returning": "OUI", "duedate": "2024-06-16T05:50:32+00:00", "coordonnees_geo": {"lon": 2.3678014799952507, "lat": 48.82463749337136}, "nom_arrondissement_communes": "Paris", "code_insee_commune": null}, {"stationcode": "20017", "name": "Saint-Blaise - Mouraud", "is_installed": "OUI", "capacity": 27, "numdocksavailable": 19, "numbikesavailable": 8, "mechanical": 1, "ebike": 7, "is_renting": "OUI", "is_returning": "OUI", "duedate": "2024-06-16T05:52:37+00:00", "coordonnees_geo": {"lon": 2.40869477391243, "lat": 48.85696177597818}, "nom_arrondissement_communes": "Paris", "code_insee_commune": null}, {"stationcode": "23008", "name": "H\u00f4tel de Ville de Levallois Perret", "is_installed": "OUI", "capacity": 26, "numdocksavailable": 9, "numbikesavailable": 13, "mechanical": 9, "ebike": 4, "is_renting": "OUI", "is_returning": "OUI", "duedate": "2024-06-16T05:53:33+00:00", "coordonnees_geo": {"lon": 2.2888818383216862, "lat": 48.89314451997415}, "nom_arrondissement_communes": "Levallois-Perret", "code_insee_commune": null}, {"stationcode": "31018", "name": "Gambetta - Michelet", "is_installed": "OUI", "capacity": 33, "numdocksavailable": 17, "numbikesavailable": 16, "mechanical": 7, "ebike": 9, "is_renting": "OUI", "is_returning": "OUI", "duedate": "2024-06-16T05:54:20+00:00", "coordonnees_geo": {"lon": 2.429966032505036, "lat": 48.85273792380526}, "nom_arrondissement_communes": "Montreuil", "code_insee_commune": null}, {"stationcode": "2110", "name": "Je\u00fbneurs - Mulhouse", "is_installed": "OUI", "capacity": 28, "numdocksavailable": 12, "numbikesavailable": 13, "mechanical": 12, "ebike": 1, "is_renting": "OUI", "is_returning": "OUI", "duedate": "2024-06-16T05:53:34+00:00", "coordonnees_geo": {"lon": 2.346925, "lat": 48.868997}, "nom_arrondissement_communes": "Paris", "code_insee_commune": null}, {"stationcode": "10164", "name": "Claude Vellefaux - Sambre et Meuse", "is_installed": "OUI", "capacity": 34, "numdocksavailable": 9, "numbikesavailable": 24, "mechanical": 14, "ebike": 10, "is_renting": "OUI", "is_returning": "OUI", "duedate": "2024-06-16T05:54:21+00:00", "coordonnees_geo": {"lon": 2.370478, "lat": 48.875022}, "nom_arrondissement_communes": "Paris", "code_insee_commune": null}, {"stationcode": "20103", "name": "Le Vau - Maurice Bertaux", "is_installed": "OUI", "capacity": 25, "numdocksavailable": 14, "numbikesavailable": 9, "mechanical": 1, "ebike": 8, "is_renting": "OUI", "is_returning": "OUI", "duedate": "2024-06-16T05:46:40+00:00", "coordonnees_geo": {"lon": 2.411030612453627, "lat": 48.86803439043193}, "nom_arrondissement_communes": "Paris", "code_insee_commune": null}, {"stationcode": "2014", "name": "Daunou - Louis le Grand", "is_installed": "OUI", "capacity": 17, "numdocksavailable": 13, "numbikesavailable": 3, "mechanical": 3, "ebike": 0, "is_renting": "OUI", "is_returning": "OUI", "duedate": "2024-06-16T05:48:07+00:00", "coordonnees_geo": {"lon": 2.332515, "lat": 48.869113}, "nom_arrondissement_communes": "Paris", "code_insee_commune": null}, {"stationcode": "3101", "name": "Porte Saint-Martin", "is_installed": "OUI", "capacity": 34, "numdocksavailable": 14, "numbikesavailable": 18, "mechanical": 16, "ebike": 2, "is_renting": "OUI", "is_returning": "OUI", "duedate": "2024-06-16T05:53:34+00:00", "coordonnees_geo": {"lon": 2.35570102930069, "lat": 48.86860172112996}, "nom_arrondissement_communes": "Paris", "code_insee_commune": null}, {"stationcode": "2101", "name": "Bachaumont - Montmartre", "is_installed": "OUI", "capacity": 33, "numdocksavailable": 24, "numbikesavailable": 8, "mechanical": 6, "ebike": 2, "is_renting": "OUI", "is_returning": "OUI", "duedate": "2024-06-16T05:50:08+00:00", "coordonnees_geo": {"lon": 2.3449775576591496, "lat": 48.86617395079137}, "nom_arrondissement_communes": "Paris", "code_insee_commune": null}, {"stationcode": "21952", "name": "Place Tony de Graaff", "is_installed": "OUI", "capacity": 42, "numdocksavailable": 21, "numbikesavailable": 21, "mechanical": 19, "ebike": 2, "is_renting": "OUI", "is_returning": "OUI", "duedate": "2024-06-16T05:51:54+00:00", "coordonnees_geo": {"lon": 2.2458109, "lat": 48.8181645}, "nom_arrondissement_communes": "Meudon", "code_insee_commune": null}, {"stationcode": "8049", "name": "Georges V - Fran\u00e7ois 1er", "is_installed": "OUI", "capacity": 22, "numdocksavailable": 18, "numbikesavailable": 4, "mechanical": 2, "ebike": 2, "is_renting": "OUI", "is_returning": "OUI", "duedate": "2024-06-16T05:50:39+00:00", "coordonnees_geo": {"lon": 2.30082, "lat": 48.87034}, "nom_arrondissement_communes": "Paris", "code_insee_commune": null}, {"stationcode": "9015", "name": "Lamartine - Faubourg Montmartre", "is_installed": "OUI", "capacity": 32, "numdocksavailable": 15, "numbikesavailable": 14, "mechanical": 11, "ebike": 3, "is_renting": "OUI", "is_returning": "OUI", "duedate": "2024-06-16T05:51:37+00:00", "coordonnees_geo": {"lon": 2.339765690267086, "lat": 48.87661398289084}, "nom_arrondissement_communes": "Paris", "code_insee_commune": null}, {"stationcode": "19030", "name": "Melun - Jean Jaur\u00e8s", "is_installed": "OUI", "capacity": 28, "numdocksavailable": 16, "numbikesavailable": 10, "mechanical": 3, "ebike": 7, "is_renting": "OUI", "is_returning": "OUI", "duedate": "2024-06-16T05:54:22+00:00", "coordonnees_geo": {"lon": 2.376477420330048, "lat": 48.8837796723475}, "nom_arrondissement_communes": "Paris", "code_insee_commune": null}, {"stationcode": "22002", "name": "Argenson - Ch\u00e2teau", "is_installed": "OUI", "capacity": 25, "numdocksavailable": 13, "numbikesavailable": 10, "mechanical": 8, "ebike": 2, "is_renting": "OUI", "is_returning": "OUI", "duedate": "2024-06-16T05:49:35+00:00", "coordonnees_geo": {"lon": 2.2642001509666447, "lat": 48.888559314669514}, "nom_arrondissement_communes": "Neuilly-sur-Seine", "code_insee_commune": null}, {"stationcode": "35008", "name": "Place de l'Eglise - Pantin", "is_installed": "OUI", "capacity": 30, "numdocksavailable": 21, "numbikesavailable": 9, "mechanical": 2, "ebike": 7, "is_renting": "OUI", "is_returning": "OUI", "duedate": "2024-06-16T05:53:29+00:00", "coordonnees_geo": {"lon": 2.4124351143836975, "lat": 48.892809461520265}, "nom_arrondissement_communes": "Pantin", "code_insee_commune": null}, {"stationcode": "13022", "name": "Butte aux Cailles - Esperance", "is_installed": "OUI", "capacity": 36, "numdocksavailable": 19, "numbikesavailable": 14, "mechanical": 5, "ebike": 9, "is_renting": "OUI", "is_returning": "OUI", "duedate": "2024-06-16T05:52:58+00:00", "coordonnees_geo": {"lon": 2.3492151126265526, "lat": 48.82758774190948}, "nom_arrondissement_communes": "Paris", "code_insee_commune": null}, {"stationcode": "20045", "name": "Louis Ganne - Davout", "is_installed": "OUI", "capacity": 30, "numdocksavailable": 12, "numbikesavailable": 18, "mechanical": 15, "ebike": 3, "is_renting": "OUI", "is_returning": "OUI", "duedate": "2024-06-16T05:48:30+00:00", "coordonnees_geo": {"lon": 2.409725748002529, "lat": 48.86338720692607}, "nom_arrondissement_communes": "Paris", "code_insee_commune": null}, {"stationcode": "16031", "name": "Vignes - Boulainvilliers", "is_installed": "OUI", "capacity": 21, "numdocksavailable": 14, "numbikesavailable": 7, "mechanical": 3, "ebike": 4, "is_renting": "OUI", "is_returning": "OUI", "duedate": "2024-06-16T05:52:23+00:00", "coordonnees_geo": {"lon": 2.275240458548069, "lat": 48.856399483950504}, "nom_arrondissement_communes": "Paris", "code_insee_commune": null}, {"stationcode": "12153", "name": "Terroirs de France - Lheureux", "is_installed": "OUI", "capacity": 55, "numdocksavailable": 19, "numbikesavailable": 36, "mechanical": 21, "ebike": 15, "is_renting": "OUI", "is_returning": "OUI", "duedate": "2024-06-16T05:54:24+00:00", "coordonnees_geo": {"lon": 2.388618104159832, "lat": 48.83212027074841}, "nom_arrondissement_communes": "Paris", "code_insee_commune": null}, {"stationcode": "17005", "name": "Brochant - Clichy", "is_installed": "OUI", "capacity": 53, "numdocksavailable": 45, "numbikesavailable": 8, "mechanical": 2, "ebike": 6, "is_renting": "OUI", "is_returning": "OUI", "duedate": "2024-06-16T05:52:34+00:00", "coordonnees_geo": {"lon": 2.319730559929781, "lat": 48.89032998912038}, "nom_arrondissement_communes": "Paris", "code_insee_commune": null}, {"stationcode": "14127", "name": "Odessa - D\u00e9part", "is_installed": "OUI", "capacity": 39, "numdocksavailable": 21, "numbikesavailable": 18, "mechanical": 16, "ebike": 2, "is_renting": "OUI", "is_returning": "OUI", "duedate": "2024-06-16T05:54:22+00:00", "coordonnees_geo": {"lon": 2.3244281485677, "lat": 48.842885590081}, "nom_arrondissement_communes": "Paris", "code_insee_commune": null}, {"stationcode": "14016", "name": "Ren\u00e9 Coty - Parc Montsouris", "is_installed": "OUI", "capacity": 55, "numdocksavailable": 28, "numbikesavailable": 26, "mechanical": 11, "ebike": 15, "is_renting": "OUI", "is_returning": "OUI", "duedate": "2024-06-16T05:53:04+00:00", "coordonnees_geo": {"lon": 2.336124926805496, "lat": 48.82479134498032}, "nom_arrondissement_communes": "Paris", "code_insee_commune": null}, {"stationcode": "18014", "name": "L\u00e9on - Doudeauville", "is_installed": "OUI", "capacity": 13, "numdocksavailable": 3, "numbikesavailable": 9, "mechanical": 5, "ebike": 4, "is_renting": "OUI", "is_returning": "OUI", "duedate": "2024-06-16T05:54:40+00:00", "coordonnees_geo": {"lon": 2.353573372638597, "lat": 48.88832421845225}, "nom_arrondissement_communes": "Paris", "code_insee_commune": null}, {"stationcode": "23105", "name": "S\u00e8vres Rive Gauche", "is_installed": "OUI", "capacity": 33, "numdocksavailable": 16, "numbikesavailable": 16, "mechanical": 14, "ebike": 2, "is_renting": "OUI", "is_returning": "OUI", "duedate": "2024-06-16T05:48:27+00:00", "coordonnees_geo": {"lon": 2.2150785306885, "lat": 48.821443218278}, "nom_arrondissement_communes": "S\u00e8vres", "code_insee_commune": null}, {"stationcode": "15009", "name": "Suffren - P\u00e9rignon", "is_installed": "OUI", "capacity": 46, "numdocksavailable": 27, "numbikesavailable": 18, "mechanical": 6, "ebike": 12, "is_renting": "OUI", "is_returning": "OUI", "duedate": "2024-06-16T05:53:51+00:00", "coordonnees_geo": {"lon": 2.307052147596786, "lat": 48.84717561492764}, "nom_arrondissement_communes": "Paris", "code_insee_commune": null}, {"stationcode": "23005", "name": "Gare de Clichy-Levallois", "is_installed": "OUI", "capacity": 26, "numdocksavailable": 3, "numbikesavailable": 21, "mechanical": 12, "ebike": 9, "is_renting": "OUI", "is_returning": "OUI", "duedate": "2024-06-16T05:54:36+00:00", "coordonnees_geo": {"lon": 2.2984680533409123, "lat": 48.89679827481989}, "nom_arrondissement_communes": "Levallois-Perret", "code_insee_commune": null}, {"stationcode": "48009", "name": "R\u00e9publique - Auguste Perret", "is_installed": "OUI", "capacity": 30, "numdocksavailable": 21, "numbikesavailable": 8, "mechanical": 0, "ebike": 8, "is_renting": "OUI", "is_returning": "OUI", "duedate": "2024-06-16T05:54:37+00:00", "coordonnees_geo": {"lon": 2.3518594354391094, "lat": 48.78695280952244}, "nom_arrondissement_communes": "Villejuif", "code_insee_commune": null}, {"stationcode": "21009", "name": "Le Corbusier - Jean Jaur\u00e8s", "is_installed": "OUI", "capacity": 46, "numdocksavailable": 37, "numbikesavailable": 9, "mechanical": 5, "ebike": 4, "is_renting": "OUI", "is_returning": "OUI", "duedate": "2024-06-16T05:52:01+00:00", "coordonnees_geo": {"lon": 2.2408381104469304, "lat": 48.83780830557548}, "nom_arrondissement_communes": "Boulogne-Billancourt", "code_insee_commune": null}, {"stationcode": "31017", "name": "Jean Moulin - Paul Doumer", "is_installed": "OUI", "capacity": 20, "numdocksavailable": 19, "numbikesavailable": 1, "mechanical": 0, "ebike": 1, "is_renting": "OUI", "is_returning": "OUI", "duedate": "2024-06-16T05:50:39+00:00", "coordonnees_geo": {"lon": 2.45533436536789, "lat": 48.8622179854695}, "nom_arrondissement_communes": "Montreuil", "code_insee_commune": null}, {"stationcode": "13047", "name": "Boutroux - Porte de Vitry", "is_installed": "OUI", "capacity": 49, "numdocksavailable": 3, "numbikesavailable": 42, "mechanical": 40, "ebike": 2, "is_renting": "OUI", "is_returning": "OUI", "duedate": "2024-06-16T05:53:18+00:00", "coordonnees_geo": {"lon": 2.377738, "lat": 48.822632}, "nom_arrondissement_communes": "Paris", "code_insee_commune": null}, {"stationcode": "18114", "name": "V\u00e9ron - Lepic", "is_installed": "OUI", "capacity": 23, "numdocksavailable": 14, "numbikesavailable": 8, "mechanical": 6, "ebike": 2, "is_renting": "OUI", "is_returning": "OUI", "duedate": "2024-06-16T05:54:13+00:00", "coordonnees_geo": {"lon": 2.334559857845307, "lat": 48.88526123395252}, "nom_arrondissement_communes": "Paris", "code_insee_commune": null}, {"stationcode": "22403", "name": "Pierre Brossolette - Adolphe Pinard", "is_installed": "OUI", "capacity": 24, "numdocksavailable": 18, "numbikesavailable": 6, "mechanical": 2, "ebike": 4, "is_renting": "OUI", "is_returning": "OUI", "duedate": "2024-06-16T05:51:40+00:00", "coordonnees_geo": {"lon": 2.313155829906464, "lat": 48.82177227954821}, "nom_arrondissement_communes": "Malakoff", "code_insee_commune": null}, {"stationcode": "4107", "name": "Beaumarchais - Pas de la Mule", "is_installed": "OUI", "capacity": 18, "numdocksavailable": 18, "numbikesavailable": 0, "mechanical": 0, "ebike": 0, "is_renting": "OUI", "is_returning": "OUI", "duedate": "2024-06-16T05:50:12+00:00", "coordonnees_geo": {"lon": 2.3684333673431, "lat": 48.855580507049}, "nom_arrondissement_communes": "Paris", "code_insee_commune": null}, {"stationcode": "31101", "name": "Jules Guesde - Laennec", "is_installed": "OUI", "capacity": 19, "numdocksavailable": 3, "numbikesavailable": 16, "mechanical": 1, "ebike": 15, "is_renting": "OUI", "is_returning": "OUI", "duedate": "2024-06-16T05:52:01+00:00", "coordonnees_geo": {"lon": 2.5006942078471184, "lat": 48.87628983900398}, "nom_arrondissement_communes": "Rosny-sous-Bois", "code_insee_commune": null}, {"stationcode": "9016", "name": "Choron - Martyrs", "is_installed": "OUI", "capacity": 17, "numdocksavailable": 9, "numbikesavailable": 8, "mechanical": 5, "ebike": 3, "is_renting": "OUI", "is_returning": "OUI", "duedate": "2024-06-16T05:45:25+00:00", "coordonnees_geo": {"lon": 2.3396701365709305, "lat": 48.877851443502536}, "nom_arrondissement_communes": "Paris", "code_insee_commune": null}, {"stationcode": "12150", "name": "Bastille - Quai de la Rap\u00e9e", "is_installed": "OUI", "capacity": 27, "numdocksavailable": 15, "numbikesavailable": 11, "mechanical": 10, "ebike": 1, "is_renting": "OUI", "is_returning": "OUI", "duedate": "2024-06-16T05:51:08+00:00", "coordonnees_geo": {"lon": 2.3669364675879, "lat": 48.84682410855}, "nom_arrondissement_communes": "Paris", "code_insee_commune": null}, {"stationcode": "19124", "name": "Alexander Fleming - Belv\u00e9d\u00e8re", "is_installed": "OUI", "capacity": 31, "numdocksavailable": 19, "numbikesavailable": 12, "mechanical": 3, "ebike": 9, "is_renting": "OUI", "is_returning": "OUI", "duedate": "2024-06-16T05:54:41+00:00", "coordonnees_geo": {"lon": 2.4030599377642674, "lat": 48.88179064200294}, "nom_arrondissement_communes": "Paris", "code_insee_commune": null}, {"stationcode": "7010", "name": "Constantine - Universit\u00e9", "is_installed": "OUI", "capacity": 65, "numdocksavailable": 60, "numbikesavailable": 5, "mechanical": 3, "ebike": 2, "is_renting": "OUI", "is_returning": "OUI", "duedate": "2024-06-16T05:51:54+00:00", "coordonnees_geo": {"lon": 2.3148481955842, "lat": 48.860680473738}, "nom_arrondissement_communes": "Paris", "code_insee_commune": null}, {"stationcode": "35015", "name": "Averro\u00e8s - Aim\u00e9 C\u00e9saire", "is_installed": "OUI", "capacity": 19, "numdocksavailable": 14, "numbikesavailable": 4, "mechanical": 1, "ebike": 3, "is_renting": "OUI", "is_returning": "OUI", "duedate": "2024-06-16T05:53:57+00:00", "coordonnees_geo": {"lon": 2.412636950612068, "lat": 48.91405323432864}, "nom_arrondissement_communes": "Pantin", "code_insee_commune": null}, {"stationcode": "15019", "name": "Paul Barruel - Vaugirard", "is_installed": "OUI", "capacity": 39, "numdocksavailable": 30, "numbikesavailable": 8, "mechanical": 5, "ebike": 3, "is_renting": "OUI", "is_returning": "OUI", "duedate": "2024-06-16T05:52:38+00:00", "coordonnees_geo": {"lon": 2.3044332861900334, "lat": 48.84014918546239}, "nom_arrondissement_communes": "Paris", "code_insee_commune": null}]