[{"stationcode": "13005", "name": "Cordeli\u00e8res - Arago", "is_installed": "OUI", "capacity": 46, "numdocksavailable": 32, "numbikesavailable": 14, "mechanical": 11, "ebike": 3, "is_renting": "OUI", "is_returning": "OUI", "duedate": "2024-06-13T15:50:47+00:00", "coordonnees_geo": {"lon": 2.348572461702221, "lat": 48.83548071896613}, "nom_arrondissement_communes": "Paris", "code_insee_commune": null}, {"stationcode": "19002", "name": "Centquatre", "is_installed": "OUI", "capacity": 42, "numdocksavailable": 38, "numbikesavailable": 4, "mechanical": 3, "ebike": 1, "is_renting": "OUI", "is_returning": "OUI", "duedate": "2024-06-13T15:50:11+00:00", "coordonnees_geo": {"lon": 2.3707854375243187, "lat": 48.88933353845543}, "nom_arrondissement_communes": "Paris", "code_insee_commune": null}, {"stationcode": "17019", "name": "Phalsbourg - Villiers", "is_installed": "OUI", "capacity": 20, "numdocksavailable": 16, "numbikesavailable": 3, "mechanical": 1, "ebike": 2, "is_renting": "OUI", "is_returning": "OUI", "duedate": "2024-06-13T15:51:25+00:00", "coordonnees_geo": {"lon": 2.3090453445911407, "lat": 48.88242307900951}, "nom_arrondissement_communes": "Paris", "code_insee_commune": null}, {"stationcode": "15132", "name": "Bargue -  Dutot", "is_installed": "OUI", "capacity": 21, "numdocksavailable": 17, "numbikesavailable": 4, "mechanical": 1, "ebike": 3, "is_renting": "OUI", "is_returning": "OUI", "duedate": "2024-06-13T15:53:20+00:00", "coordonnees_geo": {"lon": 2.308876, "lat": 48.837884}, "nom_arrondissement_communes": "Paris", "code_insee_commune": null}, {"stationcode": "20006", "name": "Pyr\u00e9n\u00e9es - Plaine", "is_installed": "OUI", "capacity": 12, "numdocksavailable": 8, "numbikesavailable": 4, "mechanical": 3, "ebike": 1, "is_renting": "OUI", "is_returning": "OUI", "duedate": "2024-06-13T15:53:21+00:00", "coordonnees_geo": {"lon": 2.4062821269035, "lat": 48.85026702458}, "nom_arrondissement_communes": "Paris", "code_insee_commune": null}, {"stationcode": "32013", "name": "Saint-Denis - Universit\u00e9", "is_installed": "OUI", "capacity": 24, "numdocksavailable": 3, "numbikesavailable": 19, "mechanical": 4, "ebike": 15, "is_renting": "OUI", "is_returning": "OUI", "duedate": "2024-06-13T15:53:01+00:00", "coordonnees_geo": {"lon": 2.3638297989964485, "lat": 48.94563430946964}, "nom_arrondissement_communes": "Saint-Denis", "code_insee_commune": null}, {"stationcode": "21953", "name": "Gare de Bellevue", "is_installed": "OUI", "capacity": 20, "numdocksavailable": 16, "numbikesavailable": 4, "mechanical": 0, "ebike": 4, "is_renting": "OUI", "is_returning": "OUI", "duedate": "2024-06-13T15:53:39+00:00", "coordonnees_geo": {"lon": 2.2295309230685234, "lat": 48.8192404685572}, "nom_arrondissement_communes": "Meudon", "code_insee_commune": null}, {"stationcode": "7021", "name": "Bosquet - Saint-Dominique", "is_installed": "OUI", "capacity": 28, "numdocksavailable": 21, "numbikesavailable": 4, "mechanical": 3, "ebike": 1, "is_renting": "OUI", "is_returning": "OUI", "duedate": "2024-06-13T15:53:16+00:00", "coordonnees_geo": {"lon": 2.303716580234576, "lat": 48.85865170952645}, "nom_arrondissement_communes": "Paris", "code_insee_commune": null}, {"stationcode": "2015", "name": "Louis le Grand - Italiens", "is_installed": "OUI", "capacity": 33, "numdocksavailable": 23, "numbikesavailable": 9, "mechanical": 6, "ebike": 3, "is_renting": "OUI", "is_returning": "OUI", "duedate": "2024-06-13T15:53:36+00:00", "coordonnees_geo": {"lon": 2.3340544619393, "lat": 48.870508937204}, "nom_arrondissement_communes": "Paris", "code_insee_commune": null}, {"stationcode": "10027", "name": "Dunkerque - Alsace", "is_installed": "OUI", "capacity": 20, "numdocksavailable": 18, "numbikesavailable": 1, "mechanical": 1, "ebike": 0, "is_renting": "OUI", "is_returning": "OUI", "duedate": "2024-06-13T15:52:03+00:00", "coordonnees_geo": {"lon": 2.358379, "lat": 48.879355}, "nom_arrondissement_communes": "Paris", "code_insee_commune": null}, {"stationcode": "22401", "name": "Charles de Gaulle - Plateau de Vanves", "is_installed": "OUI", "capacity": 33, "numdocksavailable": 30, "numbikesavailable": 3, "mechanical": 1, "ebike": 2, "is_renting": "OUI", "is_returning": "OUI", "duedate": "2024-06-13T15:51:10+00:00", "coordonnees_geo": {"lon": 2.298571803412886, "lat": 48.82233088973263}, "nom_arrondissement_communes": "Malakoff", "code_insee_commune": null}, {"stationcode": "19129", "name": "Solitaires - Place des F\u00eates", "is_installed": "OUI", "capacity": 29, "numdocksavailable": 28, "numbikesavailable": 1, "mechanical": 0, "ebike": 1, "is_renting": "OUI", "is_returning": "OUI", "duedate": "2024-06-13T15:52:51+00:00", "coordonnees_geo": {"lon": 2.391769, "lat": 48.876601}, "nom_arrondissement_communes": "Paris", "code_insee_commune": null}, {"stationcode": "4103", "name": "Archives - Rivoli", "is_installed": "OUI", "capacity": 25, "numdocksavailable": 1, "numbikesavailable": 19, "mechanical": 15, "ebike": 4, "is_renting": "OUI", "is_returning": "OUI", "duedate": "2024-06-13T15:53:29+00:00", "coordonnees_geo": {"lon": 2.3539767041802, "lat": 48.857346707443}, "nom_arrondissement_communes": "Paris", "code_insee_commune": null}, {"stationcode": "3001", "name": "Beaumarchais - Saint-Gilles", "is_installed": "OUI", "capacity": 51, "numdocksavailable": 13, "numbikesavailable": 37, "mechanical": 30, "ebike": 7, "is_renting": "OUI", "is_returning": "OUI", "duedate": "2024-06-13T15:52:48+00:00", "coordonnees_geo": {"lon": 2.3679352, "lat": 48.8580378}, "nom_arrondissement_communes": "Paris", "code_insee_commune": null}, {"stationcode": "21110", "name": "Parc Roger Salengro", "is_installed": "OUI", "capacity": 35, "numdocksavailable": 13, "numbikesavailable": 19, "mechanical": 19, "ebike": 0, "is_renting": "OUI", "is_returning": "OUI", "duedate": "2024-06-13T15:53:44+00:00", "coordonnees_geo": {"lon": 2.31055945158, "lat": 48.905303858642}, "nom_arrondissement_communes": "Clichy", "code_insee_commune": null}, {"stationcode": "13017", "name": "Nationale - Vincent Auriol", "is_installed": "OUI", "capacity": 33, "numdocksavailable": 31, "numbikesavailable": 2, "mechanical": 1, "ebike": 1, "is_renting": "OUI", "is_returning": "OUI", "duedate": "2024-06-13T15:53:38+00:00", "coordonnees_geo": {"lon": 2.362354410392119, "lat": 48.83252708397293}, "nom_arrondissement_communes": "Paris", "code_insee_commune": null}, {"stationcode": "2021", "name": "Cl\u00e9ry - Montmartre", "is_installed": "OUI", "capacity": 44, "numdocksavailable": 25, "numbikesavailable": 19, "mechanical": 19, "ebike": 0, "is_renting": "OUI", "is_returning": "OUI", "duedate": "2024-06-13T15:52:34+00:00", "coordonnees_geo": {"lon": 2.3445211, "lat": 48.867458}, "nom_arrondissement_communes": "Paris", "code_insee_commune": null}, {"stationcode": "14132", "name": "B\u00e9zout - G\u00e9n\u00e9ral Leclerc", "is_installed": "OUI", "capacity": 30, "numdocksavailable": 26, "numbikesavailable": 2, "mechanical": 2, "ebike": 0, "is_renting": "OUI", "is_returning": "OUI", "duedate": "2024-06-13T15:53:46+00:00", "coordonnees_geo": {"lon": 2.3285973072052, "lat": 48.82884804502439}, "nom_arrondissement_communes": "Paris", "code_insee_commune": null}, {"stationcode": "4014", "name": "Blancs-Manteaux - Archives", "is_installed": "OUI", "capacity": 29, "numdocksavailable": 5, "numbikesavailable": 22, "mechanical": 20, "ebike": 2, "is_renting": "OUI", "is_returning": "OUI", "duedate": "2024-06-13T15:53:23+00:00", "coordonnees_geo": {"lon": 2.3559471219778, "lat": 48.85941800703}, "nom_arrondissement_communes": "Paris", "code_insee_commune": null}, {"stationcode": "2005", "name": "Montmartre - Etienne Marcel", "is_installed": "OUI", "capacity": 16, "numdocksavailable": 5, "numbikesavailable": 11, "mechanical": 9, "ebike": 2, "is_renting": "OUI", "is_returning": "OUI", "duedate": "2024-06-13T15:50:44+00:00", "coordonnees_geo": {"lon": 2.3450684401448, "lat": 48.86502194581}, "nom_arrondissement_communes": "Paris", "code_insee_commune": null}, {"stationcode": "3012", "name": "Square Emile - Chautemps", "is_installed": "OUI", "capacity": 25, "numdocksavailable": 5, "numbikesavailable": 17, "mechanical": 16, "ebike": 1, "is_renting": "OUI", "is_returning": "OUI", "duedate": "2024-06-13T15:53:40+00:00", "coordonnees_geo": {"lon": 2.3536357283592, "lat": 48.867433724231}, "nom_arrondissement_communes": "Paris", "code_insee_commune": null}, {"stationcode": "23702", "name": "H\u00f4tel de Ville de Chaville", "is_installed": "OUI", "capacity": 20, "numdocksavailable": 14, "numbikesavailable": 6, "mechanical": 1, "ebike": 5, "is_renting": "OUI", "is_returning": "OUI", "duedate": "2024-06-13T15:52:44+00:00", "coordonnees_geo": {"lon": 2.188134044408798, "lat": 48.80887149094033}, "nom_arrondissement_communes": "Chaville", "code_insee_commune": null}, {"stationcode": "14022", "name": "Didot - Mariniers", "is_installed": "OUI", "capacity": 35, "numdocksavailable": 27, "numbikesavailable": 5, "mechanical": 1, "ebike": 4, "is_renting": "OUI", "is_returning": "OUI", "duedate": "2024-06-13T15:52:49+00:00", "coordonnees_geo": {"lon": 2.313136198271666, "lat": 48.82650543613106}, "nom_arrondissement_communes": "Paris", "code_insee_commune": null}, {"stationcode": "21507", "name": "Gardenat-Lapostol - Velettes", "is_installed": "OUI", "capacity": 20, "numdocksavailable": 19, "numbikesavailable": 1, "mechanical": 1, "ebike": 0, "is_renting": "OUI", "is_returning": "OUI", "duedate": "2024-06-13T15:53:12+00:00", "coordonnees_geo": {"lon": 2.224185, "lat": 48.87387}, "nom_arrondissement_communes": "Suresnes", "code_insee_commune": null}, {"stationcode": "3006", "name": "Mairie du 3\u00e8me", "is_installed": "OUI", "capacity": 32, "numdocksavailable": 5, "numbikesavailable": 24, "mechanical": 19, "ebike": 5, "is_renting": "OUI", "is_returning": "OUI", "duedate": "2024-06-13T15:53:15+00:00", "coordonnees_geo": {"lon": 2.361762821674347, "lat": 48.86446178139141}, "nom_arrondissement_communes": "Paris", "code_insee_commune": null}, {"stationcode": "3003", "name": "Fille du Calvaire - Turenne", "is_installed": "OUI", "capacity": 29, "numdocksavailable": 4, "numbikesavailable": 22, "mechanical": 16, "ebike": 6, "is_renting": "OUI", "is_returning": "OUI", "duedate": "2024-06-13T15:53:43+00:00", "coordonnees_geo": {"lon": 2.3649600148200993, "lat": 48.86210505412563}, "nom_arrondissement_communes": "Paris", "code_insee_commune": null}, {"stationcode": "22504", "name": "Ch\u00e2teau - R\u00e9publique", "is_installed": "OUI", "capacity": 20, "numdocksavailable": 17, "numbikesavailable": 2, "mechanical": 0, "ebike": 2, "is_renting": "OUI", "is_returning": "OUI", "duedate": "2024-06-13T15:50:03+00:00", "coordonnees_geo": {"lon": 2.253629, "lat": 48.905928}, "nom_arrondissement_communes": "La Garenne-Colombes", "code_insee_commune": null}, {"stationcode": "19111", "name": "Cesaria Evora - Rosa Parks", "is_installed": "OUI", "capacity": 40, "numdocksavailable": 29, "numbikesavailable": 8, "mechanical": 6, "ebike": 2, "is_renting": "OUI", "is_returning": "OUI", "duedate": "2024-06-13T15:53:42+00:00", "coordonnees_geo": {"lon": 2.3745173960924144, "lat": 48.89717672825043}, "nom_arrondissement_communes": "Paris", "code_insee_commune": null}, {"stationcode": "9111", "name": "Victoire - Laffitte", "is_installed": "OUI", "capacity": 20, "numdocksavailable": 15, "numbikesavailable": 5, "mechanical": 5, "ebike": 0, "is_renting": "OUI", "is_returning": "OUI", "duedate": "2024-06-13T15:52:56+00:00", "coordonnees_geo": {"lon": 2.338118505144376, "lat": 48.87514373494672}, "nom_arrondissement_communes": "Paris", "code_insee_commune": null}, {"stationcode": "42704", "name": "Mairie du Kremlin-Bic\u00eatre", "is_installed": "OUI", "capacity": 25, "numdocksavailable": 25, "numbikesavailable": 0, "mechanical": 0, "ebike": 0, "is_renting": "OUI", "is_returning": "OUI", "duedate": "2024-06-13T15:52:41+00:00", "coordonnees_geo": {"lon": 2.3570189997553825, "lat": 48.81191981537702}, "nom_arrondissement_communes": "Le Kremlin-Bic\u00eatre", "code_insee_commune": null}, {"stationcode": "10041", "name": "Gare du Nord - La Chapelle", "is_installed": "OUI", "capacity": 18, "numdocksavailable": 11, "numbikesavailable": 4, "mechanical": 1, "ebike": 3, "is_renting": "OUI", "is_returning": "OUI", "duedate": "2024-06-13T15:49:52+00:00", "coordonnees_geo": {"lon": 2.3561057075858, "lat": 48.884178287286}, "nom_arrondissement_communes": "Paris", "code_insee_commune": null}, {"stationcode": "1014", "name": "Rivoli - Mus\u00e9e du Louvre", "is_installed": "OUI", "capacity": 24, "numdocksavailable": 19, "numbikesavailable": 5, "mechanical": 3, "ebike": 2, "is_renting": "OUI", "is_returning": "OUI", "duedate": "2024-06-13T15:49:22+00:00", "coordonnees_geo": {"lon": 2.33409583568573, "lat": 48.86364636851945}, "nom_arrondissement_communes": "Paris", "code_insee_commune": null}, {"stationcode": "42211", "name": "S\u00e9minaire de Conflans - Libert\u00e9", "is_installed": "OUI", "capacity": 26, "numdocksavailable": 22, "numbikesavailable": 2, "mechanical": 0, "ebike": 2, "is_renting": "OUI", "is_returning": "OUI", "duedate": "2024-06-13T15:52:29+00:00", "coordonnees_geo": {"lon": 2.404179, "lat": 48.823194}, "nom_arrondissement_communes": "Charenton-le-Pont", "code_insee_commune": null}, {"stationcode": "42026", "name": "Barb\u00e8s - Monique Maunoury", "is_installed": "OUI", "capacity": 40, "numdocksavailable": 36, "numbikesavailable": 3, "mechanical": 0, "ebike": 3, "is_renting": "OUI", "is_returning": "OUI", "duedate": "2024-06-13T15:52:15+00:00", "coordonnees_geo": {"lon": 2.3687169334905405, "lat": 48.81552718820216}, "nom_arrondissement_communes": "Ivry-sur-Seine", "code_insee_commune": null}, {"stationcode": "2012", "name": "Choiseul - Quatre Septembre", "is_installed": "OUI", "capacity": 44, "numdocksavailable": 34, "numbikesavailable": 8, "mechanical": 5, "ebike": 3, "is_renting": "OUI", "is_returning": "OUI", "duedate": "2024-06-13T15:53:25+00:00", "coordonnees_geo": {"lon": 2.3359975218772893, "lat": 48.8699355331869}, "nom_arrondissement_communes": "Paris", "code_insee_commune": null}, {"stationcode": "3002", "name": "Saint-Gilles - Turenne", "is_installed": "OUI", "capacity": 18, "numdocksavailable": 2, "numbikesavailable": 15, "mechanical": 4, "ebike": 11, "is_renting": "OUI", "is_returning": "OUI", "duedate": "2024-06-13T15:52:25+00:00", "coordonnees_geo": {"lon": 2.3647149920992, "lat": 48.858158956779}, "nom_arrondissement_communes": "Paris", "code_insee_commune": null}, {"stationcode": "4101", "name": "Bastille - Beaumarchais", "is_installed": "OUI", "capacity": 23, "numdocksavailable": 4, "numbikesavailable": 16, "mechanical": 14, "ebike": 2, "is_renting": "OUI", "is_returning": "OUI", "duedate": "2024-06-13T15:53:32+00:00", "coordonnees_geo": {"lon": 2.3685702681541, "lat": 48.853833463852}, "nom_arrondissement_communes": "Paris", "code_insee_commune": null}, {"stationcode": "21509", "name": "Gardenat Lapostol - Franklin Roosevelt", "is_installed": "OUI", "capacity": 24, "numdocksavailable": 20, "numbikesavailable": 4, "mechanical": 0, "ebike": 4, "is_renting": "OUI", "is_returning": "OUI", "duedate": "2024-06-13T15:50:14+00:00", "coordonnees_geo": {"lon": 2.222505, "lat": 48.871839}, "nom_arrondissement_communes": "Suresnes", "code_insee_commune": null}, {"stationcode": "13054", "name": "Pau Casals - Neuve Tolbiac", "is_installed": "OUI", "capacity": 53, "numdocksavailable": 34, "numbikesavailable": 18, "mechanical": 14, "ebike": 4, "is_renting": "OUI", "is_returning": "OUI", "duedate": "2024-06-13T15:53:20+00:00", "coordonnees_geo": {"lon": 2.3774395, "lat": 48.8311602}, "nom_arrondissement_communes": "Paris", "code_insee_commune": null}, {"stationcode": "35012", "name": "Candale - Mehul", "is_installed": "OUI", "capacity": 25, "numdocksavailable": 16, "numbikesavailable": 7, "mechanical": 4, "ebike": 3, "is_renting": "OUI", "is_returning": "OUI", "duedate": "2024-06-13T15:52:53+00:00", "coordonnees_geo": {"lon": 2.414379715919495, "lat": 48.8893935006175}, "nom_arrondissement_communes": "Pantin", "code_insee_commune": null}, {"stationcode": "16044", "name": "Porte de Saint Cloud - Parc des Princes", "is_installed": "OUI", "capacity": 32, "numdocksavailable": 20, "numbikesavailable": 11, "mechanical": 6, "ebike": 5, "is_renting": "OUI", "is_returning": "OUI", "duedate": "2024-06-13T15:53:39+00:00", "coordonnees_geo": {"lon": 2.2525164484978, "lat": 48.838662757066}, "nom_arrondissement_communes": "Paris", "code_insee_commune": null}, {"stationcode": "44001", "name": "Quai Jules Guesde - Saint-Simon", "is_installed": "OUI", "capacity": 30, "numdocksavailable": 11, "numbikesavailable": 19, "mechanical": 14, "ebike": 5, "is_renting": "OUI", "is_returning": "OUI", "duedate": "2024-06-13T15:51:19+00:00", "coordonnees_geo": {"lon": 2.4089661620274, "lat": 48.80391487219}, "nom_arrondissement_communes": "Vitry-sur-Seine", "code_insee_commune": null}, {"stationcode": "33020", "name": "Waldeck Rochet - Germaine Tillon", "is_installed": "OUI", "capacity": 31, "numdocksavailable": 26, "numbikesavailable": 5, "mechanical": 4, "ebike": 1, "is_renting": "OUI", "is_returning": "OUI", "duedate": "2024-06-13T15:51:29+00:00", "coordonnees_geo": {"lon": 2.3676301538944244, "lat": 48.91105960199651}, "nom_arrondissement_communes": "Aubervilliers", "code_insee_commune": null}, {"stationcode": "22506", "name": "Gare des Vall\u00e9es", "is_installed": "OUI", "capacity": 20, "numdocksavailable": 10, "numbikesavailable": 9, "mechanical": 5, "ebike": 4, "is_renting": "OUI", "is_returning": "OUI", "duedate": "2024-06-13T15:51:54+00:00", "coordonnees_geo": {"lon": 2.257726, "lat": 48.913179}, "nom_arrondissement_communes": "La Garenne-Colombes", "code_insee_commune": null}, {"stationcode": "2008", "name": "Mairie du 2\u00e8me", "is_installed": "OUI", "capacity": 28, "numdocksavailable": 22, "numbikesavailable": 5, "mechanical": 4, "ebike": 1, "is_renting": "OUI", "is_returning": "OUI", "duedate": "2024-06-13T15:52:14+00:00", "coordonnees_geo": {"lon": 2.3404625437747044, "lat": 48.8672190355135}, "nom_arrondissement_communes": "Paris", "code_insee_commune": null}, {"stationcode": "1026", "name": "Place du Lieutenant Henri Karcher", "is_installed": "OUI", "capacity": 30, "numdocksavailable": 19, "numbikesavailable": 10, "mechanical": 9, "ebike": 1, "is_renting": "OUI", "is_returning": "OUI", "duedate": "2024-06-13T15:53:30+00:00", "coordonnees_geo": {"lon": 2.3400671035051346, "lat": 48.863490871724466}, "nom_arrondissement_communes": "Paris", "code_insee_commune": null}, {"stationcode": "23101", "name": "Grande Rue - Europe", "is_installed": "OUI", "capacity": 25, "numdocksavailable": 15, "numbikesavailable": 10, "mechanical": 5, "ebike": 5, "is_renting": "OUI", "is_returning": "OUI", "duedate": "2024-06-13T15:50:46+00:00", "coordonnees_geo": {"lon": 2.205879874527455, "lat": 48.8218104687602}, "nom_arrondissement_communes": "S\u00e8vres", "code_insee_commune": null}, {"stationcode": "18015", "name": "Custine - Ramey", "is_installed": "OUI", "capacity": 41, "numdocksavailable": 25, "numbikesavailable": 13, "mechanical": 0, "ebike": 13, "is_renting": "OUI", "is_returning": "OUI", "duedate": "2024-06-13T15:50:19+00:00", "coordonnees_geo": {"lon": 2.3469526693225, "lat": 48.888735896947}, "nom_arrondissement_communes": "Paris", "code_insee_commune": null}, {"stationcode": "32024", "name": "Port - Confluence", "is_installed": "OUI", "capacity": 26, "numdocksavailable": 13, "numbikesavailable": 13, "mechanical": 8, "ebike": 5, "is_renting": "OUI", "is_returning": "OUI", "duedate": "2024-06-13T15:49:57+00:00", "coordonnees_geo": {"lon": 2.3436167797955, "lat": 48.936093926526}, "nom_arrondissement_communes": "Saint-Denis", "code_insee_commune": null}, {"stationcode": "15040", "name": "Saint-Amand - Labrouste", "is_installed": "OUI", "capacity": 36, "numdocksavailable": 30, "numbikesavailable": 6, "mechanical": 1, "ebike": 5, "is_renting": "OUI", "is_returning": "OUI", "duedate": "2024-06-13T15:45:42+00:00", "coordonnees_geo": {"lon": 2.3087677359581, "lat": 48.834097274832295}, "nom_arrondissement_communes": "Paris", "code_insee_commune": null}, {"stationcode": "23107", "name": "Gare de S\u00e8vres - Ville d'Avray", "is_installed": "OUI", "capacity": 22, "numdocksavailable": 21, "numbikesavailable": 1, "mechanical": 0, "ebike": 1, "is_renting": "OUI", "is_returning": "OUI", "duedate": "2024-06-13T15:50:07+00:00", "coordonnees_geo": {"lon": 2.2001516849313, "lat": 48.826262366227}, "nom_arrondissement_communes": "S\u00e8vres", "code_insee_commune": null}, {"stationcode": "6201", "name": "Saint P\u00e8res - Saint Germain", "is_installed": "OUI", "capacity": 22, "numdocksavailable": 19, "numbikesavailable": 2, "mechanical": 1, "ebike": 1, "is_renting": "OUI", "is_returning": "OUI", "duedate": "2024-06-13T15:53:45+00:00", "coordonnees_geo": {"lon": 2.3300181032703, "lat": 48.853729675265}, "nom_arrondissement_communes": "Paris", "code_insee_commune": null}, {"stationcode": "6026", "name": "Saint-Placide - Cherche Midi", "is_installed": "OUI", "capacity": 66, "numdocksavailable": 61, "numbikesavailable": 4, "mechanical": 2, "ebike": 2, "is_renting": "OUI", "is_returning": "OUI", "duedate": "2024-06-13T15:53:36+00:00", "coordonnees_geo": {"lon": 2.325317971408367, "lat": 48.8490535919234}, "nom_arrondissement_communes": "Paris", "code_insee_commune": null}, {"stationcode": "22601", "name": "Marx Dormoy - Ch\u00e2teau Sainte-Barbe", "is_installed": "OUI", "capacity": 22, "numdocksavailable": 20, "numbikesavailable": 1, "mechanical": 1, "ebike": 0, "is_renting": "OUI", "is_returning": "OUI", "duedate": "2024-06-13T15:52:58+00:00", "coordonnees_geo": {"lon": 2.297856844961643, "lat": 48.791782341055324}, "nom_arrondissement_communes": "Fontenay-aux-Roses", "code_insee_commune": null}, {"stationcode": "1023", "name": "Saint-Honor\u00e9 - Mus\u00e9e du Louvre", "is_installed": "OUI", "capacity": 22, "numdocksavailable": 8, "numbikesavailable": 14, "mechanical": 12, "ebike": 2, "is_renting": "OUI", "is_returning": "OUI", "duedate": "2024-06-13T15:53:04+00:00", "coordonnees_geo": {"lon": 2.3348781846405, "lat": 48.863443132848}, "nom_arrondissement_communes": "Paris", "code_insee_commune": null}, {"stationcode": "48008", "name": "Guy M\u00f4quet - Parvis Georges Marchais", "is_installed": "OUI", "capacity": 30, "numdocksavailable": 30, "numbikesavailable": 0, "mechanical": 0, "ebike": 0, "is_renting": "OUI", "is_returning": "OUI", "duedate": "2024-06-13T15:47:24+00:00", "coordonnees_geo": {"lon": 2.35943466424942, "lat": 48.79518840095975}, "nom_arrondissement_communes": "Villejuif", "code_insee_commune": null}, {"stationcode": "5003", "name": "Le Goff - Gay-Lussac", "is_installed": "OUI", "capacity": 35, "numdocksavailable": 33, "numbikesavailable": 2, "mechanical": 0, "ebike": 2, "is_renting": "OUI", "is_returning": "OUI", "duedate": "2024-06-13T15:53:31+00:00", "coordonnees_geo": {"lon": 2.3412207886576653, "lat": 48.8461024009786}, "nom_arrondissement_communes": "Paris", "code_insee_commune": null}, {"stationcode": "19202", "name": "Marseillaise - Grenade", "is_installed": "OUI", "capacity": 45, "numdocksavailable": 42, "numbikesavailable": 2, "mechanical": 0, "ebike": 2, "is_renting": "OUI", "is_returning": "OUI", "duedate": "2024-06-13T15:52:08+00:00", "coordonnees_geo": {"lon": 2.3979396821544, "lat": 48.889371092747}, "nom_arrondissement_communes": "Paris", "code_insee_commune": null}, {"stationcode": "14201", "name": "Decr\u00e8s - Al\u00e9sia", "is_installed": "OUI", "capacity": 30, "numdocksavailable": 28, "numbikesavailable": 1, "mechanical": 0, "ebike": 1, "is_renting": "OUI", "is_returning": "OUI", "duedate": "2024-06-13T15:51:00+00:00", "coordonnees_geo": {"lon": 2.3139070151575, "lat": 48.832200060759}, "nom_arrondissement_communes": "Paris", "code_insee_commune": null}, {"stationcode": "27001", "name": "Square Victor Basch", "is_installed": "OUI", "capacity": 20, "numdocksavailable": 20, "numbikesavailable": 0, "mechanical": 0, "ebike": 0, "is_renting": "OUI", "is_returning": "OUI", "duedate": "2024-06-13T15:53:43+00:00", "coordonnees_geo": {"lon": 2.2289156913757, "lat": 48.914304862261}, "nom_arrondissement_communes": "Colombes", "code_insee_commune": null}, {"stationcode": "19018", "name": "Cit\u00e9 de la Musique", "is_installed": "OUI", "capacity": 60, "numdocksavailable": 42, "numbikesavailable": 16, "mechanical": 7, "ebike": 9, "is_renting": "OUI", "is_returning": "OUI", "duedate": "2024-06-13T15:53:43+00:00", "coordonnees_geo": {"lon": 2.3925811931922, "lat": 48.888796556487}, "nom_arrondissement_communes": "Paris", "code_insee_commune": null}, {"stationcode": "3007", "name": "Archives - Pastourelle", "is_installed": "OUI", "capacity": 28, "numdocksavailable": 17, "numbikesavailable": 7, "mechanical": 7, "ebike": 0, "is_renting": "OUI", "is_returning": "OUI", "duedate": "2024-06-13T15:52:46+00:00", "coordonnees_geo": {"lon": 2.3595041, "lat": 48.8623615}, "nom_arrondissement_communes": "Paris", "code_insee_commune": null}, {"stationcode": "31020", "name": "R\u00e9sistance - Parmentier", "is_installed": "OUI", "capacity": 35, "numdocksavailable": 31, "numbikesavailable": 4, "mechanical": 1, "ebike": 3, "is_renting": "OUI", "is_returning": "OUI", "duedate": "2024-06-13T15:47:06+00:00", "coordonnees_geo": {"lon": 2.436705082654953, "lat": 48.85965138131299}, "nom_arrondissement_communes": "Montreuil", "code_insee_commune": null}, {"stationcode": "28005", "name": "Jean Jaur\u00e8s - Paul Lafargue", "is_installed": "OUI", "capacity": 28, "numdocksavailable": 19, "numbikesavailable": 8, "mechanical": 8, "ebike": 0, "is_renting": "OUI", "is_returning": "OUI", "duedate": "2024-06-13T15:52:37+00:00", "coordonnees_geo": {"lon": 2.2484488785267, "lat": 48.884933177666}, "nom_arrondissement_communes": "Puteaux", "code_insee_commune": null}, {"stationcode": "18112", "name": "Arthur Ranc - H\u00f4pital Bichat", "is_installed": "OUI", "capacity": 26, "numdocksavailable": 21, "numbikesavailable": 4, "mechanical": 2, "ebike": 2, "is_renting": "OUI", "is_returning": "OUI", "duedate": "2024-06-13T15:52:49+00:00", "coordonnees_geo": {"lon": 2.333521842956543, "lat": 48.8978712500682}, "nom_arrondissement_communes": "Paris", "code_insee_commune": null}, {"stationcode": "10201", "name": "Magenta - Chabrol", "is_installed": "OUI", "capacity": 24, "numdocksavailable": 17, "numbikesavailable": 6, "mechanical": 0, "ebike": 6, "is_renting": "OUI", "is_returning": "OUI", "duedate": "2024-06-13T15:53:04+00:00", "coordonnees_geo": {"lon": 2.3560990020633, "lat": 48.876495350882}, "nom_arrondissement_communes": "Paris", "code_insee_commune": null}, {"stationcode": "22603", "name": "Place de la Division Leclerc", "is_installed": "OUI", "capacity": 35, "numdocksavailable": 35, "numbikesavailable": 0, "mechanical": 0, "ebike": 0, "is_renting": "OUI", "is_returning": "OUI", "duedate": "2024-06-13T15:44:09+00:00", "coordonnees_geo": {"lon": 2.2731140430551027, "lat": 48.793824988636516}, "nom_arrondissement_communes": "Fontenay-aux-Roses", "code_insee_commune": null}, {"stationcode": "2109", "name": "R\u00e9aumur - Montmartre", "is_installed": "OUI", "capacity": 19, "numdocksavailable": 13, "numbikesavailable": 6, "mechanical": 5, "ebike": 1, "is_renting": "OUI", "is_returning": "OUI", "duedate": "2024-06-13T15:53:19+00:00", "coordonnees_geo": {"lon": 2.3438260338876, "lat": 48.868230999759}, "nom_arrondissement_communes": "Paris", "code_insee_commune": null}, {"stationcode": "16201", "name": "Porte Dauphine", "is_installed": "OUI", "capacity": 65, "numdocksavailable": 56, "numbikesavailable": 5, "mechanical": 2, "ebike": 3, "is_renting": "OUI", "is_returning": "OUI", "duedate": "2024-06-13T15:51:51+00:00", "coordonnees_geo": {"lon": 2.2749781616017, "lat": 48.871139344351}, "nom_arrondissement_communes": "Paris", "code_insee_commune": null}, {"stationcode": "2102", "name": "Saint-Marc - Feydeau", "is_installed": "OUI", "capacity": 37, "numdocksavailable": 18, "numbikesavailable": 19, "mechanical": 16, "ebike": 3, "is_renting": "OUI", "is_returning": "OUI", "duedate": "2024-06-13T15:53:14+00:00", "coordonnees_geo": {"lon": 2.3419791832566, "lat": 48.870310661422}, "nom_arrondissement_communes": "Paris", "code_insee_commune": null}, {"stationcode": "42019", "name": "Lampes", "is_installed": "OUI", "capacity": 43, "numdocksavailable": 10, "numbikesavailable": 32, "mechanical": 29, "ebike": 3, "is_renting": "OUI", "is_returning": "OUI", "duedate": "2024-06-13T15:52:40+00:00", "coordonnees_geo": {"lon": 2.4017931148409843, "lat": 48.81152481985875}, "nom_arrondissement_communes": "Ivry-sur-Seine", "code_insee_commune": null}, {"stationcode": "19046", "name": "Porte de Pantin.", "is_installed": "OUI", "capacity": 33, "numdocksavailable": 32, "numbikesavailable": 0, "mechanical": 0, "ebike": 0, "is_renting": "OUI", "is_returning": "OUI", "duedate": "2024-06-13T15:51:38+00:00", "coordonnees_geo": {"lon": 2.3950181901455, "lat": 48.889199725577}, "nom_arrondissement_communes": "Paris", "code_insee_commune": null}, {"stationcode": "27006", "name": "Victor Hugo - Gare", "is_installed": "OUI", "capacity": 22, "numdocksavailable": 5, "numbikesavailable": 16, "mechanical": 7, "ebike": 9, "is_renting": "OUI", "is_returning": "OUI", "duedate": "2024-06-13T15:53:46+00:00", "coordonnees_geo": {"lon": 2.2600970417261, "lat": 48.923133952658}, "nom_arrondissement_communes": "Colombes", "code_insee_commune": null}, {"stationcode": "9019", "name": "Victor Mass\u00e9 - Jean-Baptiste Pigalle", "is_installed": "OUI", "capacity": 18, "numdocksavailable": 11, "numbikesavailable": 6, "mechanical": 1, "ebike": 5, "is_renting": "OUI", "is_returning": "OUI", "duedate": "2024-06-13T15:53:05+00:00", "coordonnees_geo": {"lon": 2.3366955667734, "lat": 48.8811043724}, "nom_arrondissement_communes": "Paris", "code_insee_commune": null}, {"stationcode": "1024", "name": "Coquilli\u00e8re - Louvre", "is_installed": "OUI", "capacity": 21, "numdocksavailable": 10, "numbikesavailable": 9, "mechanical": 9, "ebike": 0, "is_renting": "OUI", "is_returning": "OUI", "duedate": "2024-06-13T15:52:47+00:00", "coordonnees_geo": {"lon": 2.3425736278295517, "lat": 48.86379590966231}, "nom_arrondissement_communes": "Paris", "code_insee_commune": null}, {"stationcode": "8004", "name": "Malesherbes - Place de la Madeleine", "is_installed": "OUI", "capacity": 67, "numdocksavailable": 28, "numbikesavailable": 38, "mechanical": 36, "ebike": 2, "is_renting": "OUI", "is_returning": "OUI", "duedate": "2024-06-13T15:53:26+00:00", "coordonnees_geo": {"lon": 2.323243509808, "lat": 48.870406028483}, "nom_arrondissement_communes": "Paris", "code_insee_commune": null}, {"stationcode": "13202", "name": "Place Farhat Hached", "is_installed": "OUI", "capacity": 28, "numdocksavailable": 26, "numbikesavailable": 2, "mechanical": 2, "ebike": 0, "is_renting": "OUI", "is_returning": "OUI", "duedate": "2024-06-13T15:51:29+00:00", "coordonnees_geo": {"lon": 2.3819742271533, "lat": 48.825806194537}, "nom_arrondissement_communes": "Paris", "code_insee_commune": null}, {"stationcode": "12202", "name": "Charenton - Wattignies", "is_installed": "OUI", "capacity": 40, "numdocksavailable": 17, "numbikesavailable": 22, "mechanical": 18, "ebike": 4, "is_renting": "OUI", "is_returning": "OUI", "duedate": "2024-06-13T15:53:32+00:00", "coordonnees_geo": {"lon": 2.3916775206425, "lat": 48.836919119234}, "nom_arrondissement_communes": "Paris", "code_insee_commune": null}, {"stationcode": "20010", "name": "Sorbier - Gasnier-Guy", "is_installed": "OUI", "capacity": 34, "numdocksavailable": 30, "numbikesavailable": 3, "mechanical": 0, "ebike": 3, "is_renting": "OUI", "is_returning": "OUI", "duedate": "2024-06-13T15:53:27+00:00", "coordonnees_geo": {"lon": 2.39365965127945, "lat": 48.86521763101122}, "nom_arrondissement_communes": "Paris", "code_insee_commune": null}, {"stationcode": "12016", "name": "Saint-Mande - Picpus", "is_installed": "OUI", "capacity": 35, "numdocksavailable": 30, "numbikesavailable": 3, "mechanical": 0, "ebike": 3, "is_renting": "OUI", "is_returning": "OUI", "duedate": "2024-06-13T15:52:29+00:00", "coordonnees_geo": {"lon": 2.4015686296482, "lat": 48.845127728278}, "nom_arrondissement_communes": "Paris", "code_insee_commune": null}, {"stationcode": "23301", "name": "Les Blagis", "is_installed": "OUI", "capacity": 27, "numdocksavailable": 10, "numbikesavailable": 16, "mechanical": 15, "ebike": 1, "is_renting": "OUI", "is_returning": "OUI", "duedate": "2024-06-13T15:51:22+00:00", "coordonnees_geo": {"lon": 2.302526, "lat": 48.785205}, "nom_arrondissement_communes": "Sceaux", "code_insee_commune": null}, {"stationcode": "21011", "name": "Silly - Louis Bl\u00e9riot", "is_installed": "OUI", "capacity": 23, "numdocksavailable": 18, "numbikesavailable": 5, "mechanical": 1, "ebike": 4, "is_renting": "OUI", "is_returning": "OUI", "duedate": "2024-06-13T15:51:02+00:00", "coordonnees_geo": {"lon": 2.2340199351310734, "lat": 48.83219045374266}, "nom_arrondissement_communes": "Boulogne-Billancourt", "code_insee_commune": null}, {"stationcode": "20140", "name": "Paganini - Davout", "is_installed": "OUI", "capacity": 22, "numdocksavailable": 19, "numbikesavailable": 3, "mechanical": 2, "ebike": 1, "is_renting": "OUI", "is_returning": "OUI", "duedate": "2024-06-13T15:49:50+00:00", "coordonnees_geo": {"lon": 2.412021, "lat": 48.85135}, "nom_arrondissement_communes": "Paris", "code_insee_commune": null}, {"stationcode": "23303", "name": "Gare de Robinson", "is_installed": "OUI", "capacity": 30, "numdocksavailable": 17, "numbikesavailable": 13, "mechanical": 10, "ebike": 3, "is_renting": "OUI", "is_returning": "OUI", "duedate": "2024-06-13T15:52:47+00:00", "coordonnees_geo": {"lon": 2.281828634440899, "lat": 48.7799259211605}, "nom_arrondissement_communes": "Sceaux", "code_insee_commune": null}, {"stationcode": "15018", "name": "Dutot - Place Alleray", "is_installed": "OUI", "capacity": 56, "numdocksavailable": 55, "numbikesavailable": 1, "mechanical": 1, "ebike": 0, "is_renting": "OUI", "is_returning": "OUI", "duedate": "2024-06-13T15:52:38+00:00", "coordonnees_geo": {"lon": 2.3071701095578, "lat": 48.836826091766}, "nom_arrondissement_communes": "Paris", "code_insee_commune": null}, {"stationcode": "20048", "name": "Bagnolet - Place Saint-Blaise", "is_installed": "OUI", "capacity": 28, "numdocksavailable": 26, "numbikesavailable": 2, "mechanical": 0, "ebike": 2, "is_renting": "OUI", "is_returning": "OUI", "duedate": "2024-06-13T15:53:23+00:00", "coordonnees_geo": {"lon": 2.40334, "lat": 48.85973}, "nom_arrondissement_communes": "Paris", "code_insee_commune": null}, {"stationcode": "10166", "name": "Strasbourg - Saint-Denis", "is_installed": "OUI", "capacity": 16, "numdocksavailable": 2, "numbikesavailable": 13, "mechanical": 9, "ebike": 4, "is_renting": "OUI", "is_returning": "OUI", "duedate": "2024-06-13T15:53:21+00:00", "coordonnees_geo": {"lon": 2.3542908579111, "lat": 48.869601642433}, "nom_arrondissement_communes": "Paris", "code_insee_commune": null}, {"stationcode": "13049", "name": "Vincent Auriol - Louise Weiss", "is_installed": "OUI", "capacity": 22, "numdocksavailable": 14, "numbikesavailable": 7, "mechanical": 5, "ebike": 2, "is_renting": "OUI", "is_returning": "OUI", "duedate": "2024-06-13T15:46:48+00:00", "coordonnees_geo": {"lon": 2.3703888058662, "lat": 48.834001935501}, "nom_arrondissement_communes": "Paris", "code_insee_commune": null}, {"stationcode": "8202", "name": "Londres - Europe", "is_installed": "OUI", "capacity": 27, "numdocksavailable": 24, "numbikesavailable": 2, "mechanical": 0, "ebike": 2, "is_renting": "OUI", "is_returning": "OUI", "duedate": "2024-06-13T15:51:52+00:00", "coordonnees_geo": {"lon": 2.3248164693922, "lat": 48.878618556803}, "nom_arrondissement_communes": "Paris", "code_insee_commune": null}, {"stationcode": "17020", "name": "Jouffroy d'Abbans - Malesherbes", "is_installed": "OUI", "capacity": 27, "numdocksavailable": 23, "numbikesavailable": 4, "mechanical": 3, "ebike": 1, "is_renting": "OUI", "is_returning": "OUI", "duedate": "2024-06-13T15:49:24+00:00", "coordonnees_geo": {"lon": 2.3070717, "lat": 48.8850134}, "nom_arrondissement_communes": "Paris", "code_insee_commune": null}, {"stationcode": "23206", "name": "B\u00e9ranger - F\u00e9lix Faure", "is_installed": "OUI", "capacity": 28, "numdocksavailable": 24, "numbikesavailable": 3, "mechanical": 0, "ebike": 3, "is_renting": "OUI", "is_returning": "OUI", "duedate": "2024-06-13T15:50:41+00:00", "coordonnees_geo": {"lon": 2.2848263373723436, "lat": 48.80404828621485}, "nom_arrondissement_communes": "Ch\u00e2tillon", "code_insee_commune": null}, {"stationcode": "18010", "name": "Riquet - Marx Dormoy", "is_installed": "OUI", "capacity": 26, "numdocksavailable": 26, "numbikesavailable": 0, "mechanical": 0, "ebike": 0, "is_renting": "NON", "is_returning": "NON", "duedate": "2023-08-08T15:42:30+00:00", "coordonnees_geo": {"lon": 2.3601756244898, "lat": 48.89021003702}, "nom_arrondissement_communes": "Paris", "code_insee_commune": null}, {"stationcode": "23703", "name": "Gare de Chaville Rive Gauche", "is_installed": "OUI", "capacity": 18, "numdocksavailable": 17, "numbikesavailable": 1, "mechanical": 0, "ebike": 1, "is_renting": "OUI", "is_returning": "OUI", "duedate": "2024-06-13T15:52:48+00:00", "coordonnees_geo": {"lon": 2.188277207314968, "lat": 48.80516030434533}, "nom_arrondissement_communes": "Chaville", "code_insee_commune": null}, {"stationcode": "20142", "name": "M\u00fbriers - P\u00e8re Lachaise", "is_installed": "OUI", "capacity": 20, "numdocksavailable": 20, "numbikesavailable": 0, "mechanical": 0, "ebike": 0, "is_renting": "OUI", "is_returning": "OUI", "duedate": "2024-06-13T15:53:28+00:00", "coordonnees_geo": {"lon": 2.39164982067019, "lat": 48.864130509668044}, "nom_arrondissement_communes": "Paris", "code_insee_commune": null}, {"stationcode": "42024", "name": "Danielle Casanova - Ledru-Rollin", "is_installed": "OUI", "capacity": 28, "numdocksavailable": 14, "numbikesavailable": 14, "mechanical": 9, "ebike": 5, "is_renting": "OUI", "is_returning": "OUI", "duedate": "2024-06-13T15:53:17+00:00", "coordonnees_geo": {"lon": 2.383259721100331, "lat": 48.815783497876815}, "nom_arrondissement_communes": "Ivry-sur-Seine", "code_insee_commune": null}, {"stationcode": "51008", "name": "Martyrs de Ch\u00e2teaubriant - Jean Grandel", "is_installed": "OUI", "capacity": 38, "numdocksavailable": 25, "numbikesavailable": 13, "mechanical": 6, "ebike": 7, "is_renting": "OUI", "is_returning": "OUI", "duedate": "2024-06-13T15:53:38+00:00", "coordonnees_geo": {"lon": 2.211214, "lat": 48.951432}, "nom_arrondissement_communes": "Argenteuil", "code_insee_commune": null}, {"stationcode": "24101", "name": "Place Charles de Gaulle", "is_installed": "OUI", "capacity": 24, "numdocksavailable": 22, "numbikesavailable": 2, "mechanical": 0, "ebike": 2, "is_renting": "OUI", "is_returning": "OUI", "duedate": "2024-06-13T15:52:25+00:00", "coordonnees_geo": {"lon": 2.1894485725692, "lat": 48.826073335699}, "nom_arrondissement_communes": "Ville-d'Avray", "code_insee_commune": null}, {"stationcode": "34011", "name": "Clef des Champs - Albert Dhalenne", "is_installed": "OUI", "capacity": 28, "numdocksavailable": 24, "numbikesavailable": 0, "mechanical": 0, "ebike": 0, "is_renting": "OUI", "is_returning": "OUI", "duedate": "2024-06-13T15:50:55+00:00", "coordonnees_geo": {"lon": 2.330665, "lat": 48.914938}, "nom_arrondissement_communes": "Saint-Ouen-sur-Seine", "code_insee_commune": null}, {"stationcode": "21329", "name": "Gare - Aristide Briand", "is_installed": "OUI", "capacity": 29, "numdocksavailable": 10, "numbikesavailable": 19, "mechanical": 16, "ebike": 3, "is_renting": "OUI", "is_returning": "OUI", "duedate": "2024-06-13T15:53:18+00:00", "coordonnees_geo": {"lon": 2.2555950104387, "lat": 48.821410564722}, "nom_arrondissement_communes": "Issy-les-Moulineaux", "code_insee_commune": null}, {"stationcode": "8040", "name": "Pierre Charron - Champs-Elys\u00e9es", "is_installed": "OUI", "capacity": 32, "numdocksavailable": 7, "numbikesavailable": 21, "mechanical": 11, "ebike": 10, "is_renting": "OUI", "is_returning": "OUI", "duedate": "2024-06-13T15:48:26+00:00", "coordonnees_geo": {"lon": 2.3043501377106, "lat": 48.870103359864}, "nom_arrondissement_communes": "Paris", "code_insee_commune": null}]