[{"stationcode": "14031", "name": "Didot - Place de Moro-Giafferi", "is_installed": "OUI", "capacity": 22, "numdocksavailable": 18, "numbikesavailable": 4, "mechanical": 2, "ebike": 2, "is_renting": "OUI", "is_returning": "OUI", "duedate": "2024-06-16T17:54:47+00:00", "coordonnees_geo": {"lon": 2.3215, "lat": 48.8337}, "nom_arrondissement_communes": "Paris", "code_insee_commune": null}, {"stationcode": "20044", "name": "Davout - Volga", "is_installed": "OUI", "capacity": 28, "numdocksavailable": 22, "numbikesavailable": 6, "mechanical": 4, "ebike": 2, "is_renting": "OUI", "is_returning": "OUI", "duedate": "2024-06-16T17:55:59+00:00", "coordonnees_geo": {"lon": 2.410522909779111, "lat": 48.852919679957296}, "nom_arrondissement_communes": "Paris", "code_insee_commune": null}, {"stationcode": "33012", "name": "Landy - Heurtault", "is_installed": "OUI", "capacity": 30, "numdocksavailable": 14, "numbikesavailable": 15, "mechanical": 12, "ebike": 3, "is_renting": "OUI", "is_returning": "OUI", "duedate": "2024-06-16T17:55:42+00:00", "coordonnees_geo": {"lon": 2.375951372087002, "lat": 48.915096534520316}, "nom_arrondissement_communes": "Aubervilliers", "code_insee_commune": null}, {"stationcode": "2013", "name": "Favart - Italiens", "is_installed": "OUI", "capacity": 17, "numdocksavailable": 11, "numbikesavailable": 5, "mechanical": 3, "ebike": 2, "is_renting": "OUI", "is_returning": "OUI", "duedate": "2024-06-16T17:51:30+00:00", "coordonnees_geo": {"lon": 2.3382901058508, "lat": 48.871446353921}, "nom_arrondissement_communes": "Paris", "code_insee_commune": null}, {"stationcode": "10019", "name": "Paradis - Hauteville", "is_installed": "OUI", "capacity": 31, "numdocksavailable": 10, "numbikesavailable": 20, "mechanical": 11, "ebike": 9, "is_renting": "OUI", "is_returning": "OUI", "duedate": "2024-06-16T17:55:36+00:00", "coordonnees_geo": {"lon": 2.3522757401923404, "lat": 48.874999954666755}, "nom_arrondissement_communes": "Paris", "code_insee_commune": null}, {"stationcode": "41203", "name": "Stalingrad - Rigollots", "is_installed": "OUI", "capacity": 51, "numdocksavailable": 39, "numbikesavailable": 12, "mechanical": 4, "ebike": 8, "is_renting": "OUI", "is_returning": "OUI", "duedate": "2024-06-16T17:55:04+00:00", "coordonnees_geo": {"lon": 2.45557576417923, "lat": 48.84997403844251}, "nom_arrondissement_communes": "Fontenay-sous-Bois", "code_insee_commune": null}, {"stationcode": "10033", "name": "Gare du Nord - Saint-Vincent de Paul", "is_installed": "OUI", "capacity": 24, "numdocksavailable": 21, "numbikesavailable": 2, "mechanical": 1, "ebike": 1, "is_renting": "OUI", "is_returning": "OUI", "duedate": "2024-06-16T17:53:30+00:00", "coordonnees_geo": {"lon": 2.3524305148385, "lat": 48.880955741648}, "nom_arrondissement_communes": "Paris", "code_insee_commune": null}, {"stationcode": "18039", "name": "Jardins d'Eole", "is_installed": "OUI", "capacity": 20, "numdocksavailable": 16, "numbikesavailable": 4, "mechanical": 3, "ebike": 1, "is_renting": "OUI", "is_returning": "OUI", "duedate": "2024-06-16T17:55:48+00:00", "coordonnees_geo": {"lon": 2.3668488, "lat": 48.8869703}, "nom_arrondissement_communes": "Paris", "code_insee_commune": null}, {"stationcode": "5007", "name": "Ecoles - Carmes", "is_installed": "OUI", "capacity": 36, "numdocksavailable": 4, "numbikesavailable": 30, "mechanical": 21, "ebike": 9, "is_renting": "OUI", "is_returning": "OUI", "duedate": "2024-06-16T17:55:11+00:00", "coordonnees_geo": {"lon": 2.3473486304283147, "lat": 48.848904447989405}, "nom_arrondissement_communes": "Paris", "code_insee_commune": null}, {"stationcode": "4006", "name": "Bourdon - Pont Morland", "is_installed": "OUI", "capacity": 52, "numdocksavailable": 6, "numbikesavailable": 43, "mechanical": 40, "ebike": 3, "is_renting": "OUI", "is_returning": "OUI", "duedate": "2024-06-16T17:55:36+00:00", "coordonnees_geo": {"lon": 2.3659356, "lat": 48.8478103}, "nom_arrondissement_communes": "Paris", "code_insee_commune": null}, {"stationcode": "12036", "name": "Reuilly - Place Felix Eboue", "is_installed": "OUI", "capacity": 42, "numdocksavailable": 32, "numbikesavailable": 9, "mechanical": 3, "ebike": 6, "is_renting": "OUI", "is_returning": "OUI", "duedate": "2024-06-16T17:54:22+00:00", "coordonnees_geo": {"lon": 2.394630398715453, "lat": 48.84030274499962}, "nom_arrondissement_communes": "Paris", "code_insee_commune": null}, {"stationcode": "14026", "name": "Plantes - Moulin Vert", "is_installed": "OUI", "capacity": 45, "numdocksavailable": 36, "numbikesavailable": 8, "mechanical": 0, "ebike": 8, "is_renting": "OUI", "is_returning": "OUI", "duedate": "2024-06-16T17:51:55+00:00", "coordonnees_geo": {"lon": 2.3232302069664006, "lat": 48.83005755305626}, "nom_arrondissement_communes": "Paris", "code_insee_commune": null}, {"stationcode": "16105", "name": "Crevaux - Bugeaud", "is_installed": "OUI", "capacity": 31, "numdocksavailable": 22, "numbikesavailable": 8, "mechanical": 8, "ebike": 0, "is_renting": "OUI", "is_returning": "OUI", "duedate": "2024-06-16T17:53:43+00:00", "coordonnees_geo": {"lon": 2.281149007691853, "lat": 48.870809428669546}, "nom_arrondissement_communes": "Paris", "code_insee_commune": null}, {"stationcode": "16036", "name": "Porte Molitor", "is_installed": "OUI", "capacity": 60, "numdocksavailable": 38, "numbikesavailable": 18, "mechanical": 15, "ebike": 3, "is_renting": "OUI", "is_returning": "OUI", "duedate": "2024-06-16T17:54:52+00:00", "coordonnees_geo": {"lon": 2.2569015249609947, "lat": 48.84524763511433}, "nom_arrondissement_communes": "Paris", "code_insee_commune": null}, {"stationcode": "10032", "name": "Claude Vellefaux - H\u00f4pital Saint-Louis", "is_installed": "OUI", "capacity": 32, "numdocksavailable": 20, "numbikesavailable": 12, "mechanical": 3, "ebike": 9, "is_renting": "OUI", "is_returning": "OUI", "duedate": "2024-06-16T17:54:02+00:00", "coordonnees_geo": {"lon": 2.3700717069851, "lat": 48.872859139003}, "nom_arrondissement_communes": "Paris", "code_insee_commune": null}, {"stationcode": "48004", "name": "Maxime Gorki - Louis Aragon", "is_installed": "OUI", "capacity": 20, "numdocksavailable": 17, "numbikesavailable": 2, "mechanical": 1, "ebike": 1, "is_renting": "OUI", "is_returning": "OUI", "duedate": "2024-06-16T17:55:29+00:00", "coordonnees_geo": {"lon": 2.368387877941132, "lat": 48.78909814728443}, "nom_arrondissement_communes": "Villejuif", "code_insee_commune": null}, {"stationcode": "26004", "name": "Gare RER les Gr\u00e9sillons", "is_installed": "OUI", "capacity": 22, "numdocksavailable": 2, "numbikesavailable": 17, "mechanical": 9, "ebike": 8, "is_renting": "OUI", "is_returning": "OUI", "duedate": "2024-06-16T17:55:56+00:00", "coordonnees_geo": {"lon": 2.31458459136273, "lat": 48.919898633572764}, "nom_arrondissement_communes": "Asni\u00e8res-sur-Seine", "code_insee_commune": null}, {"stationcode": "18139", "name": "Poissonniers - Championnet", "is_installed": "OUI", "capacity": 28, "numdocksavailable": 9, "numbikesavailable": 18, "mechanical": 12, "ebike": 6, "is_renting": "OUI", "is_returning": "OUI", "duedate": "2024-06-16T17:52:51+00:00", "coordonnees_geo": {"lon": 2.3530178144574165, "lat": 48.89543299733937}, "nom_arrondissement_communes": "Paris", "code_insee_commune": null}, {"stationcode": "16042", "name": "Murat - Porte de Saint-Cloud", "is_installed": "OUI", "capacity": 38, "numdocksavailable": 12, "numbikesavailable": 23, "mechanical": 18, "ebike": 5, "is_renting": "OUI", "is_returning": "OUI", "duedate": "2024-06-16T17:55:47+00:00", "coordonnees_geo": {"lon": 2.2577651962637906, "lat": 48.83750862621299}, "nom_arrondissement_communes": "Paris", "code_insee_commune": null}, {"stationcode": "1006", "name": "Grande Truanderie - Saint-Denis", "is_installed": "OUI", "capacity": 33, "numdocksavailable": 14, "numbikesavailable": 17, "mechanical": 16, "ebike": 1, "is_renting": "OUI", "is_returning": "OUI", "duedate": "2024-06-16T17:55:57+00:00", "coordonnees_geo": {"lon": 2.3498075, "lat": 48.8626302}, "nom_arrondissement_communes": "Paris", "code_insee_commune": null}, {"stationcode": "19110", "name": "Square Claude Bernard", "is_installed": "OUI", "capacity": 30, "numdocksavailable": 18, "numbikesavailable": 9, "mechanical": 5, "ebike": 4, "is_renting": "OUI", "is_returning": "OUI", "duedate": "2024-06-16T17:53:06+00:00", "coordonnees_geo": {"lon": 2.375325746834278, "lat": 48.89876016219984}, "nom_arrondissement_communes": "Paris", "code_insee_commune": null}, {"stationcode": "11112", "name": "Jules Vall\u00e8s - Charonne", "is_installed": "OUI", "capacity": 23, "numdocksavailable": 3, "numbikesavailable": 18, "mechanical": 13, "ebike": 5, "is_renting": "OUI", "is_returning": "OUI", "duedate": "2024-06-16T17:54:10+00:00", "coordonnees_geo": {"lon": 2.384767457842827, "lat": 48.85428437993525}, "nom_arrondissement_communes": "Paris", "code_insee_commune": null}, {"stationcode": "22201", "name": "Henri Ravera - Gabriel P\u00e9ri", "is_installed": "OUI", "capacity": 30, "numdocksavailable": 24, "numbikesavailable": 6, "mechanical": 1, "ebike": 5, "is_renting": "OUI", "is_returning": "OUI", "duedate": "2024-06-16T17:54:45+00:00", "coordonnees_geo": {"lon": 2.302115857601166, "lat": 48.79722273833844}, "nom_arrondissement_communes": "Bagneux", "code_insee_commune": null}, {"stationcode": "18202", "name": "Diane Arbus", "is_installed": "OUI", "capacity": 38, "numdocksavailable": 21, "numbikesavailable": 15, "mechanical": 4, "ebike": 11, "is_renting": "OUI", "is_returning": "OUI", "duedate": "2024-06-16T17:54:05+00:00", "coordonnees_geo": {"lon": 2.3524022474885, "lat": 48.898800717199}, "nom_arrondissement_communes": "Paris", "code_insee_commune": null}, {"stationcode": "45002", "name": "Roger Salengro - G\u00e9n\u00e9ral de Gaulle", "is_installed": "OUI", "capacity": 27, "numdocksavailable": 4, "numbikesavailable": 23, "mechanical": 18, "ebike": 5, "is_renting": "OUI", "is_returning": "OUI", "duedate": "2024-06-16T17:54:33+00:00", "coordonnees_geo": {"lon": 2.4846760556101803, "lat": 48.820029010376956}, "nom_arrondissement_communes": "Champigny-sur-Marne", "code_insee_commune": null}, {"stationcode": "15128", "name": "Cadix - Hameau", "is_installed": "OUI", "capacity": 37, "numdocksavailable": 20, "numbikesavailable": 15, "mechanical": 11, "ebike": 4, "is_renting": "OUI", "is_returning": "OUI", "duedate": "2024-06-16T17:55:45+00:00", "coordonnees_geo": {"lon": 2.289516180753708, "lat": 48.8340107632249}, "nom_arrondissement_communes": "Paris", "code_insee_commune": null}, {"stationcode": "1007", "name": "Turbigo - Fran\u00e7aise", "is_installed": "OUI", "capacity": 16, "numdocksavailable": 8, "numbikesavailable": 7, "mechanical": 4, "ebike": 3, "is_renting": "OUI", "is_returning": "OUI", "duedate": "2024-06-16T17:54:43+00:00", "coordonnees_geo": {"lon": 2.3477794602513313, "lat": 48.86358858111446}, "nom_arrondissement_communes": "Paris", "code_insee_commune": null}, {"stationcode": "47003", "name": "Charentonneau - Maisons Alfort", "is_installed": "OUI", "capacity": 20, "numdocksavailable": 5, "numbikesavailable": 14, "mechanical": 12, "ebike": 2, "is_renting": "OUI", "is_returning": "OUI", "duedate": "2024-06-16T17:55:54+00:00", "coordonnees_geo": {"lon": 2.443288456496946, "lat": 48.809932980484355}, "nom_arrondissement_communes": "Maisons-Alfort", "code_insee_commune": null}, {"stationcode": "18004", "name": "Place des Abbesses", "is_installed": "OUI", "capacity": 12, "numdocksavailable": 7, "numbikesavailable": 5, "mechanical": 1, "ebike": 4, "is_renting": "OUI", "is_returning": "OUI", "duedate": "2024-06-16T17:55:43+00:00", "coordonnees_geo": {"lon": 2.3386867716908455, "lat": 48.884542726149725}, "nom_arrondissement_communes": "Paris", "code_insee_commune": null}, {"stationcode": "20034", "name": "Sorbier - M\u00e9nilmontant", "is_installed": "OUI", "capacity": 24, "numdocksavailable": 15, "numbikesavailable": 7, "mechanical": 0, "ebike": 7, "is_renting": "OUI", "is_returning": "OUI", "duedate": "2024-06-16T17:55:41+00:00", "coordonnees_geo": {"lon": 2.3897721245884895, "lat": 48.86854239566069}, "nom_arrondissement_communes": "Paris", "code_insee_commune": null}, {"stationcode": "20008", "name": "Pyr\u00e9n\u00e9es - Avron", "is_installed": "OUI", "capacity": 32, "numdocksavailable": 22, "numbikesavailable": 10, "mechanical": 5, "ebike": 5, "is_renting": "OUI", "is_returning": "OUI", "duedate": "2024-06-16T17:53:29+00:00", "coordonnees_geo": {"lon": 2.405871044529538, "lat": 48.853246898211985}, "nom_arrondissement_communes": "Paris", "code_insee_commune": null}, {"stationcode": "18034", "name": "Leibniz - Jean Dollfus", "is_installed": "OUI", "capacity": 32, "numdocksavailable": 24, "numbikesavailable": 7, "mechanical": 2, "ebike": 5, "is_renting": "OUI", "is_returning": "OUI", "duedate": "2024-06-16T17:53:01+00:00", "coordonnees_geo": {"lon": 2.333390423834684, "lat": 48.896328348515986}, "nom_arrondissement_communes": "Paris", "code_insee_commune": null}, {"stationcode": "12019", "name": "Gare de Reuilly - Picpus", "is_installed": "OUI", "capacity": 28, "numdocksavailable": 26, "numbikesavailable": 2, "mechanical": 1, "ebike": 1, "is_renting": "OUI", "is_returning": "OUI", "duedate": "2024-06-16T17:55:04+00:00", "coordonnees_geo": {"lon": 2.3972943797707558, "lat": 48.84267354116789}, "nom_arrondissement_communes": "Paris", "code_insee_commune": null}, {"stationcode": "16102", "name": "Pergol\u00e8se - Marbeau", "is_installed": "OUI", "capacity": 27, "numdocksavailable": 22, "numbikesavailable": 5, "mechanical": 5, "ebike": 0, "is_renting": "OUI", "is_returning": "OUI", "duedate": "2024-06-16T17:55:32+00:00", "coordonnees_geo": {"lon": 2.281512522529856, "lat": 48.87356870686902}, "nom_arrondissement_communes": "Paris", "code_insee_commune": null}, {"stationcode": "20104", "name": "Louis Lumi\u00e8re.", "is_installed": "OUI", "capacity": 22, "numdocksavailable": 9, "numbikesavailable": 12, "mechanical": 2, "ebike": 10, "is_renting": "OUI", "is_returning": "OUI", "duedate": "2024-06-16T17:46:59+00:00", "coordonnees_geo": {"lon": 2.41112578185621, "lat": 48.86216198070008}, "nom_arrondissement_communes": "Paris", "code_insee_commune": null}, {"stationcode": "14135", "name": "Jourdan - Cit\u00e9 Universitaire", "is_installed": "OUI", "capacity": 39, "numdocksavailable": 33, "numbikesavailable": 5, "mechanical": 3, "ebike": 2, "is_renting": "OUI", "is_returning": "OUI", "duedate": "2024-06-16T17:53:23+00:00", "coordonnees_geo": {"lon": 2.3397007964124366, "lat": 48.819897343156676}, "nom_arrondissement_communes": "Paris", "code_insee_commune": null}, {"stationcode": "21309", "name": "Mairie d'Issy", "is_installed": "OUI", "capacity": 41, "numdocksavailable": 2, "numbikesavailable": 38, "mechanical": 36, "ebike": 2, "is_renting": "OUI", "is_returning": "OUI", "duedate": "2024-06-16T17:54:06+00:00", "coordonnees_geo": {"lon": 2.27231115102768, "lat": 48.8237677924683}, "nom_arrondissement_communes": "Issy-les-Moulineaux", "code_insee_commune": null}, {"stationcode": "8110", "name": "Gare Saint-Lazare - Stockholm", "is_installed": "OUI", "capacity": 32, "numdocksavailable": 28, "numbikesavailable": 3, "mechanical": 1, "ebike": 2, "is_renting": "OUI", "is_returning": "OUI", "duedate": "2024-06-16T17:50:04+00:00", "coordonnees_geo": {"lon": 2.322417162358761, "lat": 48.877127316667654}, "nom_arrondissement_communes": "Paris", "code_insee_commune": null}, {"stationcode": "3010", "name": "Beaubourg - Michel-le-Comte", "is_installed": "OUI", "capacity": 17, "numdocksavailable": 3, "numbikesavailable": 13, "mechanical": 9, "ebike": 4, "is_renting": "OUI", "is_returning": "OUI", "duedate": "2024-06-16T17:55:46+00:00", "coordonnees_geo": {"lon": 2.3543103039265, "lat": 48.862534941806}, "nom_arrondissement_communes": "Paris", "code_insee_commune": null}, {"stationcode": "4108", "name": "Quai de B\u00e9thune - Pont de la Tournelle", "is_installed": "OUI", "capacity": 25, "numdocksavailable": 3, "numbikesavailable": 20, "mechanical": 19, "ebike": 1, "is_renting": "OUI", "is_returning": "OUI", "duedate": "2024-06-16T17:55:59+00:00", "coordonnees_geo": {"lon": 2.356307208538055, "lat": 48.85097433194032}, "nom_arrondissement_communes": "Paris", "code_insee_commune": null}, {"stationcode": "13005", "name": "Cordeli\u00e8res - Arago", "is_installed": "OUI", "capacity": 46, "numdocksavailable": 18, "numbikesavailable": 26, "mechanical": 15, "ebike": 11, "is_renting": "OUI", "is_returning": "OUI", "duedate": "2024-06-16T17:54:02+00:00", "coordonnees_geo": {"lon": 2.348572461702221, "lat": 48.83548071896613}, "nom_arrondissement_communes": "Paris", "code_insee_commune": null}, {"stationcode": "19002", "name": "Centquatre", "is_installed": "OUI", "capacity": 42, "numdocksavailable": 27, "numbikesavailable": 13, "mechanical": 6, "ebike": 7, "is_renting": "OUI", "is_returning": "OUI", "duedate": "2024-06-16T17:51:12+00:00", "coordonnees_geo": {"lon": 2.3707854375243187, "lat": 48.88933353845543}, "nom_arrondissement_communes": "Paris", "code_insee_commune": null}, {"stationcode": "19201", "name": "Petit - Georges Thill", "is_installed": "OUI", "capacity": 23, "numdocksavailable": 16, "numbikesavailable": 7, "mechanical": 4, "ebike": 3, "is_renting": "OUI", "is_returning": "OUI", "duedate": "2024-06-16T17:55:00+00:00", "coordonnees_geo": {"lon": 2.3895753175020222, "lat": 48.88603131999171}, "nom_arrondissement_communes": "Paris", "code_insee_commune": null}, {"stationcode": "22301", "name": "Chausson - Gabriel P\u00e9ri", "is_installed": "OUI", "capacity": 22, "numdocksavailable": 20, "numbikesavailable": 2, "mechanical": 1, "ebike": 1, "is_renting": "OUI", "is_returning": "OUI", "duedate": "2024-06-16T17:52:34+00:00", "coordonnees_geo": {"lon": 2.2952306270599365, "lat": 48.921891003481115}, "nom_arrondissement_communes": "Gennevilliers", "code_insee_commune": null}, {"stationcode": "15132", "name": "Bargue -  Dutot", "is_installed": "OUI", "capacity": 21, "numdocksavailable": 9, "numbikesavailable": 11, "mechanical": 6, "ebike": 5, "is_renting": "OUI", "is_returning": "OUI", "duedate": "2024-06-16T17:53:43+00:00", "coordonnees_geo": {"lon": 2.308876, "lat": 48.837884}, "nom_arrondissement_communes": "Paris", "code_insee_commune": null}, {"stationcode": "41405", "name": "Place de l'Europe - Alfortville", "is_installed": "OUI", "capacity": 24, "numdocksavailable": 5, "numbikesavailable": 17, "mechanical": 10, "ebike": 7, "is_renting": "OUI", "is_returning": "OUI", "duedate": "2024-06-16T17:55:04+00:00", "coordonnees_geo": {"lon": 2.4284800887107854, "lat": 48.78913702405837}, "nom_arrondissement_communes": "Alfortville", "code_insee_commune": null}, {"stationcode": "21026", "name": "S\u00e8vres - G\u00e9n\u00e9ral Leclerc", "is_installed": "OUI", "capacity": 30, "numdocksavailable": 22, "numbikesavailable": 8, "mechanical": 4, "ebike": 4, "is_renting": "OUI", "is_returning": "OUI", "duedate": "2024-06-16T17:48:05+00:00", "coordonnees_geo": {"lon": 2.231426239013672, "lat": 48.83012155905476}, "nom_arrondissement_communes": "Boulogne-Billancourt", "code_insee_commune": null}, {"stationcode": "21953", "name": "Gare de Bellevue", "is_installed": "OUI", "capacity": 20, "numdocksavailable": 17, "numbikesavailable": 3, "mechanical": 1, "ebike": 2, "is_renting": "OUI", "is_returning": "OUI", "duedate": "2024-06-16T17:51:34+00:00", "coordonnees_geo": {"lon": 2.2295309230685234, "lat": 48.8192404685572}, "nom_arrondissement_communes": "Meudon", "code_insee_commune": null}, {"stationcode": "14137", "name": "Maurice d'Ocagne - General Maudhuy", "is_installed": "OUI", "capacity": 30, "numdocksavailable": 28, "numbikesavailable": 2, "mechanical": 0, "ebike": 2, "is_renting": "OUI", "is_returning": "OUI", "duedate": "2024-06-16T17:52:06+00:00", "coordonnees_geo": {"lon": 2.3158789426088333, "lat": 48.82414282524159}, "nom_arrondissement_communes": "Paris", "code_insee_commune": null}, {"stationcode": "3011", "name": "Turbigo - R\u00e9aumur", "is_installed": "OUI", "capacity": 31, "numdocksavailable": 24, "numbikesavailable": 7, "mechanical": 6, "ebike": 1, "is_renting": "OUI", "is_returning": "OUI", "duedate": "2024-06-16T17:53:48+00:00", "coordonnees_geo": {"lon": 2.3564198613167, "lat": 48.865574047531}, "nom_arrondissement_communes": "Paris", "code_insee_commune": null}, {"stationcode": "31709", "name": "Place de la Fraternit\u00e9", "is_installed": "OUI", "capacity": 22, "numdocksavailable": 9, "numbikesavailable": 12, "mechanical": 4, "ebike": 8, "is_renting": "OUI", "is_returning": "OUI", "duedate": "2024-06-16T17:55:32+00:00", "coordonnees_geo": {"lon": 2.422847449779511, "lat": 48.85716405838368}, "nom_arrondissement_communes": "Montreuil", "code_insee_commune": null}, {"stationcode": "9037", "name": "Parme - Clichy", "is_installed": "OUI", "capacity": 24, "numdocksavailable": 24, "numbikesavailable": 0, "mechanical": 0, "ebike": 0, "is_renting": "NON", "is_returning": "NON", "duedate": "2023-10-01T22:05:20+00:00", "coordonnees_geo": {"lon": 2.3281970934506, "lat": 48.881266424227}, "nom_arrondissement_communes": "Paris", "code_insee_commune": null}, {"stationcode": "10006", "name": "Petites Ecuries - Faubourg Saint-Denis", "is_installed": "OUI", "capacity": 28, "numdocksavailable": 9, "numbikesavailable": 17, "mechanical": 4, "ebike": 13, "is_renting": "OUI", "is_returning": "OUI", "duedate": "2024-06-16T17:55:51+00:00", "coordonnees_geo": {"lon": 2.3542150855064397, "lat": 48.87287120589831}, "nom_arrondissement_communes": "Paris", "code_insee_commune": null}, {"stationcode": "22401", "name": "Charles de Gaulle - Plateau de Vanves", "is_installed": "OUI", "capacity": 33, "numdocksavailable": 30, "numbikesavailable": 3, "mechanical": 1, "ebike": 2, "is_renting": "OUI", "is_returning": "OUI", "duedate": "2024-06-16T17:55:42+00:00", "coordonnees_geo": {"lon": 2.298571803412886, "lat": 48.82233088973263}, "nom_arrondissement_communes": "Malakoff", "code_insee_commune": null}, {"stationcode": "12002", "name": "Lacu\u00e9e - Lyon", "is_installed": "OUI", "capacity": 16, "numdocksavailable": 6, "numbikesavailable": 7, "mechanical": 6, "ebike": 1, "is_renting": "OUI", "is_returning": "OUI", "duedate": "2024-06-16T17:52:25+00:00", "coordonnees_geo": {"lon": 2.3704585433006, "lat": 48.849268481958}, "nom_arrondissement_communes": "Paris", "code_insee_commune": null}, {"stationcode": "21506", "name": "Maurice Payret-Dortail", "is_installed": "OUI", "capacity": 22, "numdocksavailable": 16, "numbikesavailable": 6, "mechanical": 1, "ebike": 5, "is_renting": "OUI", "is_returning": "OUI", "duedate": "2024-06-16T17:55:16+00:00", "coordonnees_geo": {"lon": 2.2233625128865246, "lat": 48.87811957063342}, "nom_arrondissement_communes": "Suresnes", "code_insee_commune": null}, {"stationcode": "4103", "name": "Archives - Rivoli", "is_installed": "OUI", "capacity": 25, "numdocksavailable": 17, "numbikesavailable": 7, "mechanical": 3, "ebike": 4, "is_renting": "OUI", "is_returning": "OUI", "duedate": "2024-06-16T17:55:21+00:00", "coordonnees_geo": {"lon": 2.3539767041802, "lat": 48.857346707443}, "nom_arrondissement_communes": "Paris", "code_insee_commune": null}, {"stationcode": "10011", "name": "Bourse du Travail", "is_installed": "OUI", "capacity": 17, "numdocksavailable": 3, "numbikesavailable": 12, "mechanical": 9, "ebike": 3, "is_renting": "OUI", "is_returning": "OUI", "duedate": "2024-06-16T17:55:53+00:00", "coordonnees_geo": {"lon": 2.3623438552022, "lat": 48.868976638826}, "nom_arrondissement_communes": "Paris", "code_insee_commune": null}, {"stationcode": "20029", "name": "Fr\u00e8res Flavien - Porte des Lilas", "is_installed": "OUI", "capacity": 23, "numdocksavailable": 21, "numbikesavailable": 2, "mechanical": 1, "ebike": 1, "is_renting": "OUI", "is_returning": "OUI", "duedate": "2024-06-16T17:55:22+00:00", "coordonnees_geo": {"lon": 2.41104629853209, "lat": 48.8780992764359}, "nom_arrondissement_communes": "Paris", "code_insee_commune": null}, {"stationcode": "22503", "name": "Joffre - Aigle", "is_installed": "OUI", "capacity": 20, "numdocksavailable": 12, "numbikesavailable": 8, "mechanical": 6, "ebike": 2, "is_renting": "OUI", "is_returning": "OUI", "duedate": "2024-06-16T17:55:00+00:00", "coordonnees_geo": {"lon": 2.245096, "lat": 48.904033}, "nom_arrondissement_communes": "La Garenne-Colombes", "code_insee_commune": null}, {"stationcode": "1102", "name": "Fran\u00e7aise - Etienne Marcel", "is_installed": "OUI", "capacity": 37, "numdocksavailable": 1, "numbikesavailable": 35, "mechanical": 34, "ebike": 1, "is_renting": "OUI", "is_returning": "OUI", "duedate": "2024-06-16T17:51:15+00:00", "coordonnees_geo": {"lon": 2.347587011754513, "lat": 48.864053304653766}, "nom_arrondissement_communes": "Paris", "code_insee_commune": null}, {"stationcode": "13017", "name": "Nationale - Vincent Auriol", "is_installed": "OUI", "capacity": 33, "numdocksavailable": 11, "numbikesavailable": 21, "mechanical": 9, "ebike": 12, "is_renting": "OUI", "is_returning": "OUI", "duedate": "2024-06-16T17:52:27+00:00", "coordonnees_geo": {"lon": 2.362354410392119, "lat": 48.83252708397293}, "nom_arrondissement_communes": "Paris", "code_insee_commune": null}, {"stationcode": "15111", "name": "Olivier de Serres - Leriche", "is_installed": "OUI", "capacity": 25, "numdocksavailable": 18, "numbikesavailable": 6, "mechanical": 4, "ebike": 2, "is_renting": "OUI", "is_returning": "OUI", "duedate": "2024-06-16T17:55:59+00:00", "coordonnees_geo": {"lon": 2.2957482933998112, "lat": 48.83460221715206}, "nom_arrondissement_communes": "Paris", "code_insee_commune": null}, {"stationcode": "12020", "name": "Cours de Vincennes - Soult", "is_installed": "OUI", "capacity": 45, "numdocksavailable": 40, "numbikesavailable": 5, "mechanical": 2, "ebike": 3, "is_renting": "OUI", "is_returning": "OUI", "duedate": "2024-06-16T17:51:10+00:00", "coordonnees_geo": {"lon": 2.4105220288038, "lat": 48.846918761569}, "nom_arrondissement_communes": "Paris", "code_insee_commune": null}, {"stationcode": "2021", "name": "Cl\u00e9ry - Montmartre", "is_installed": "OUI", "capacity": 44, "numdocksavailable": 26, "numbikesavailable": 18, "mechanical": 13, "ebike": 5, "is_renting": "OUI", "is_returning": "OUI", "duedate": "2024-06-16T17:55:58+00:00", "coordonnees_geo": {"lon": 2.3445211, "lat": 48.867458}, "nom_arrondissement_communes": "Paris", "code_insee_commune": null}, {"stationcode": "24006", "name": "Adolphe Lalyre - Armand Silvestre", "is_installed": "OUI", "capacity": 40, "numdocksavailable": 38, "numbikesavailable": 2, "mechanical": 2, "ebike": 0, "is_renting": "OUI", "is_returning": "OUI", "duedate": "2024-06-16T17:54:53+00:00", "coordonnees_geo": {"lon": 2.273416221141815, "lat": 48.90406266961591}, "nom_arrondissement_communes": "Courbevoie", "code_insee_commune": null}, {"stationcode": "3009", "name": "Temple - Haudriettes", "is_installed": "OUI", "capacity": 19, "numdocksavailable": 14, "numbikesavailable": 4, "mechanical": 2, "ebike": 2, "is_renting": "OUI", "is_returning": "OUI", "duedate": "2024-06-16T17:55:01+00:00", "coordonnees_geo": {"lon": 2.3566960206458, "lat": 48.861636880212}, "nom_arrondissement_communes": "Paris", "code_insee_commune": null}, {"stationcode": "14132", "name": "B\u00e9zout - G\u00e9n\u00e9ral Leclerc", "is_installed": "OUI", "capacity": 30, "numdocksavailable": 23, "numbikesavailable": 6, "mechanical": 0, "ebike": 6, "is_renting": "OUI", "is_returning": "OUI", "duedate": "2024-06-16T17:54:19+00:00", "coordonnees_geo": {"lon": 2.3285973072052, "lat": 48.82884804502439}, "nom_arrondissement_communes": "Paris", "code_insee_commune": null}, {"stationcode": "26005", "name": "H\u00f4tel de Ville d'Asni\u00e8res sur Seine", "is_installed": "OUI", "capacity": 30, "numdocksavailable": 7, "numbikesavailable": 22, "mechanical": 14, "ebike": 8, "is_renting": "OUI", "is_returning": "OUI", "duedate": "2024-06-16T17:55:40+00:00", "coordonnees_geo": {"lon": 2.288238108158112, "lat": 48.90999330025577}, "nom_arrondissement_communes": "Asni\u00e8res-sur-Seine", "code_insee_commune": null}, {"stationcode": "2005", "name": "Montmartre - Etienne Marcel", "is_installed": "OUI", "capacity": 16, "numdocksavailable": 7, "numbikesavailable": 8, "mechanical": 6, "ebike": 2, "is_renting": "OUI", "is_returning": "OUI", "duedate": "2024-06-16T17:54:37+00:00", "coordonnees_geo": {"lon": 2.3450684401448, "lat": 48.86502194581}, "nom_arrondissement_communes": "Paris", "code_insee_commune": null}, {"stationcode": "2002", "name": "Etienne Marcel - Montorgueil", "is_installed": "OUI", "capacity": 28, "numdocksavailable": 7, "numbikesavailable": 20, "mechanical": 17, "ebike": 3, "is_renting": "OUI", "is_returning": "OUI", "duedate": "2024-06-16T17:54:30+00:00", "coordonnees_geo": {"lon": 2.3461959511041637, "lat": 48.86450567259199}, "nom_arrondissement_communes": "Paris", "code_insee_commune": null}, {"stationcode": "31001", "name": "Lagny - Auguste Blanqui", "is_installed": "OUI", "capacity": 27, "numdocksavailable": 13, "numbikesavailable": 14, "mechanical": 11, "ebike": 3, "is_renting": "OUI", "is_returning": "OUI", "duedate": "2024-06-16T17:54:18+00:00", "coordonnees_geo": {"lon": 2.4218603968620305, "lat": 48.84922568052601}, "nom_arrondissement_communes": "Montreuil", "code_insee_commune": null}, {"stationcode": "21507", "name": "Gardenat-Lapostol - Velettes", "is_installed": "OUI", "capacity": 20, "numdocksavailable": 19, "numbikesavailable": 1, "mechanical": 0, "ebike": 1, "is_renting": "OUI", "is_returning": "OUI", "duedate": "2024-06-16T17:50:05+00:00", "coordonnees_geo": {"lon": 2.224185, "lat": 48.87387}, "nom_arrondissement_communes": "Suresnes", "code_insee_commune": null}, {"stationcode": "22306", "name": "Place du 17 Octobre", "is_installed": "OUI", "capacity": 20, "numdocksavailable": 17, "numbikesavailable": 1, "mechanical": 1, "ebike": 0, "is_renting": "OUI", "is_returning": "OUI", "duedate": "2024-06-16T17:52:46+00:00", "coordonnees_geo": {"lon": 2.2978286134199792, "lat": 48.91962690034779}, "nom_arrondissement_communes": "Gennevilliers", "code_insee_commune": null}, {"stationcode": "14023", "name": "Adolphe Pinard - Victor Hugo", "is_installed": "OUI", "capacity": 52, "numdocksavailable": 41, "numbikesavailable": 11, "mechanical": 7, "ebike": 4, "is_renting": "OUI", "is_returning": "OUI", "duedate": "2024-06-16T17:53:22+00:00", "coordonnees_geo": {"lon": 2.3077843710780144, "lat": 48.8236825874564}, "nom_arrondissement_communes": "Malakoff", "code_insee_commune": null}, {"stationcode": "3005", "name": "Sainte-Elisabeth - Turbigo", "is_installed": "OUI", "capacity": 33, "numdocksavailable": 33, "numbikesavailable": 0, "mechanical": 0, "ebike": 0, "is_renting": "NON", "is_returning": "NON", "duedate": "2024-06-02T06:46:29+00:00", "coordonnees_geo": {"lon": 2.3596492409706, "lat": 48.86610337431}, "nom_arrondissement_communes": "Paris", "code_insee_commune": null}, {"stationcode": "4015", "name": "Mairie du 4\u00e8me", "is_installed": "OUI", "capacity": 44, "numdocksavailable": 21, "numbikesavailable": 21, "mechanical": 14, "ebike": 7, "is_renting": "OUI", "is_returning": "OUI", "duedate": "2024-06-16T17:55:36+00:00", "coordonnees_geo": {"lon": 2.3563823103905, "lat": 48.855949910497}, "nom_arrondissement_communes": "Paris", "code_insee_commune": null}, {"stationcode": "3003", "name": "Fille du Calvaire - Turenne", "is_installed": "OUI", "capacity": 29, "numdocksavailable": 2, "numbikesavailable": 25, "mechanical": 13, "ebike": 12, "is_renting": "OUI", "is_returning": "OUI", "duedate": "2024-06-16T17:55:07+00:00", "coordonnees_geo": {"lon": 2.3649600148200993, "lat": 48.86210505412563}, "nom_arrondissement_communes": "Paris", "code_insee_commune": null}, {"stationcode": "48005", "name": "Eug\u00e8ne Varlin - Place de la Paix", "is_installed": "OUI", "capacity": 23, "numdocksavailable": 17, "numbikesavailable": 5, "mechanical": 2, "ebike": 3, "is_renting": "OUI", "is_returning": "OUI", "duedate": "2024-06-16T17:55:44+00:00", "coordonnees_geo": {"lon": 2.363093, "lat": 48.792862}, "nom_arrondissement_communes": "Villejuif", "code_insee_commune": null}, {"stationcode": "14133", "name": "Froidevaux - Boulard", "is_installed": "OUI", "capacity": 35, "numdocksavailable": 30, "numbikesavailable": 3, "mechanical": 1, "ebike": 2, "is_renting": "OUI", "is_returning": "OUI", "duedate": "2024-06-16T17:50:04+00:00", "coordonnees_geo": {"lon": 2.3294411972165, "lat": 48.835147319625}, "nom_arrondissement_communes": "Paris", "code_insee_commune": null}, {"stationcode": "4012", "name": "Tiron - Rivoli", "is_installed": "OUI", "capacity": 28, "numdocksavailable": 6, "numbikesavailable": 19, "mechanical": 16, "ebike": 3, "is_renting": "OUI", "is_returning": "OUI", "duedate": "2024-06-16T17:55:54+00:00", "coordonnees_geo": {"lon": 2.3579058051109, "lat": 48.855692253233}, "nom_arrondissement_communes": "Paris", "code_insee_commune": null}, {"stationcode": "41208", "name": "Alouettes - Mar\u00e9chal de Lattre de Tassigny", "is_installed": "OUI", "capacity": 22, "numdocksavailable": 14, "numbikesavailable": 7, "mechanical": 3, "ebike": 4, "is_renting": "OUI", "is_returning": "OUI", "duedate": "2024-06-16T17:54:45+00:00", "coordonnees_geo": {"lon": 2.4930700287222862, "lat": 48.85511009293948}, "nom_arrondissement_communes": "Fontenay-sous-Bois", "code_insee_commune": null}, {"stationcode": "42704", "name": "Mairie du Kremlin-Bic\u00eatre", "is_installed": "OUI", "capacity": 25, "numdocksavailable": 19, "numbikesavailable": 5, "mechanical": 0, "ebike": 5, "is_renting": "OUI", "is_returning": "OUI", "duedate": "2024-06-16T17:49:09+00:00", "coordonnees_geo": {"lon": 2.3570189997553825, "lat": 48.81191981537702}, "nom_arrondissement_communes": "Le Kremlin-Bic\u00eatre", "code_insee_commune": null}, {"stationcode": "10041", "name": "Gare du Nord - La Chapelle", "is_installed": "OUI", "capacity": 18, "numdocksavailable": 10, "numbikesavailable": 5, "mechanical": 2, "ebike": 3, "is_renting": "OUI", "is_returning": "OUI", "duedate": "2024-06-16T17:46:53+00:00", "coordonnees_geo": {"lon": 2.3561057075858, "lat": 48.884178287286}, "nom_arrondissement_communes": "Paris", "code_insee_commune": null}, {"stationcode": "4017", "name": "Place de l'H\u00f4tel de Ville", "is_installed": "OUI", "capacity": 14, "numdocksavailable": 10, "numbikesavailable": 4, "mechanical": 4, "ebike": 0, "is_renting": "OUI", "is_returning": "OUI", "duedate": "2024-06-16T17:54:16+00:00", "coordonnees_geo": {"lon": 2.351458, "lat": 48.8573314}, "nom_arrondissement_communes": "Paris", "code_insee_commune": null}, {"stationcode": "1014", "name": "Rivoli - Mus\u00e9e du Louvre", "is_installed": "OUI", "capacity": 24, "numdocksavailable": 13, "numbikesavailable": 7, "mechanical": 7, "ebike": 0, "is_renting": "OUI", "is_returning": "OUI", "duedate": "2024-06-16T17:54:39+00:00", "coordonnees_geo": {"lon": 2.33409583568573, "lat": 48.86364636851945}, "nom_arrondissement_communes": "Paris", "code_insee_commune": null}, {"stationcode": "12163", "name": "Hippodrome Paris-Vincennes", "is_installed": "OUI", "capacity": 42, "numdocksavailable": 41, "numbikesavailable": 0, "mechanical": 0, "ebike": 0, "is_renting": "OUI", "is_returning": "OUI", "duedate": "2024-06-16T17:47:56+00:00", "coordonnees_geo": {"lon": 2.446271181106568, "lat": 48.82048387758518}, "nom_arrondissement_communes": "Paris", "code_insee_commune": null}, {"stationcode": "3002", "name": "Saint-Gilles - Turenne", "is_installed": "OUI", "capacity": 18, "numdocksavailable": 2, "numbikesavailable": 16, "mechanical": 13, "ebike": 3, "is_renting": "OUI", "is_returning": "OUI", "duedate": "2024-06-16T17:52:23+00:00", "coordonnees_geo": {"lon": 2.3647149920992, "lat": 48.858158956779}, "nom_arrondissement_communes": "Paris", "code_insee_commune": null}, {"stationcode": "4101", "name": "Bastille - Beaumarchais", "is_installed": "OUI", "capacity": 23, "numdocksavailable": 4, "numbikesavailable": 17, "mechanical": 17, "ebike": 0, "is_renting": "OUI", "is_returning": "OUI", "duedate": "2024-06-16T17:54:09+00:00", "coordonnees_geo": {"lon": 2.3685702681541, "lat": 48.853833463852}, "nom_arrondissement_communes": "Paris", "code_insee_commune": null}, {"stationcode": "21509", "name": "Gardenat Lapostol - Franklin Roosevelt", "is_installed": "OUI", "capacity": 24, "numdocksavailable": 23, "numbikesavailable": 1, "mechanical": 0, "ebike": 1, "is_renting": "OUI", "is_returning": "OUI", "duedate": "2024-06-16T17:50:10+00:00", "coordonnees_geo": {"lon": 2.222505, "lat": 48.871839}, "nom_arrondissement_communes": "Suresnes", "code_insee_commune": null}, {"stationcode": "2004", "name": "Square Pierre Lazareff", "is_installed": "OUI", "capacity": 17, "numdocksavailable": 6, "numbikesavailable": 11, "mechanical": 7, "ebike": 4, "is_renting": "OUI", "is_returning": "OUI", "duedate": "2024-06-16T17:54:47+00:00", "coordonnees_geo": {"lon": 2.3483933508396, "lat": 48.867141720746}, "nom_arrondissement_communes": "Paris", "code_insee_commune": null}, {"stationcode": "19130", "name": "Place Paul Delouvrier", "is_installed": "OUI", "capacity": 26, "numdocksavailable": 11, "numbikesavailable": 15, "mechanical": 3, "ebike": 12, "is_renting": "OUI", "is_returning": "OUI", "duedate": "2024-06-16T17:55:47+00:00", "coordonnees_geo": {"lon": 2.3851288855075836, "lat": 48.89197621431365}, "nom_arrondissement_communes": "Paris", "code_insee_commune": null}, {"stationcode": "35012", "name": "Candale - Mehul", "is_installed": "OUI", "capacity": 25, "numdocksavailable": 14, "numbikesavailable": 10, "mechanical": 1, "ebike": 9, "is_renting": "OUI", "is_returning": "OUI", "duedate": "2024-06-16T17:55:42+00:00", "coordonnees_geo": {"lon": 2.414379715919495, "lat": 48.8893935006175}, "nom_arrondissement_communes": "Pantin", "code_insee_commune": null}, {"stationcode": "21505", "name": "\u00c9douard Vaillant - Place Jean Jaur\u00e8s", "is_installed": "OUI", "capacity": 24, "numdocksavailable": 21, "numbikesavailable": 3, "mechanical": 1, "ebike": 2, "is_renting": "OUI", "is_returning": "OUI", "duedate": "2024-06-16T17:53:02+00:00", "coordonnees_geo": {"lon": 2.2089037319128613, "lat": 48.86265537999924}, "nom_arrondissement_communes": "Suresnes", "code_insee_commune": null}, {"stationcode": "32019", "name": "Place du 8 mai 1945.", "is_installed": "OUI", "capacity": 30, "numdocksavailable": 12, "numbikesavailable": 16, "mechanical": 12, "ebike": 4, "is_renting": "OUI", "is_returning": "OUI", "duedate": "2024-06-16T17:52:52+00:00", "coordonnees_geo": {"lon": 2.3566243797541, "lat": 48.938882272105}, "nom_arrondissement_communes": "Saint-Denis", "code_insee_commune": null}, {"stationcode": "22506", "name": "Gare des Vall\u00e9es", "is_installed": "OUI", "capacity": 20, "numdocksavailable": 9, "numbikesavailable": 11, "mechanical": 5, "ebike": 6, "is_renting": "OUI", "is_returning": "OUI", "duedate": "2024-06-16T17:55:57+00:00", "coordonnees_geo": {"lon": 2.257726, "lat": 48.913179}, "nom_arrondissement_communes": "La Garenne-Colombes", "code_insee_commune": null}, {"stationcode": "1025", "name": "Oratoire - Rivoli", "is_installed": "OUI", "capacity": 18, "numdocksavailable": 7, "numbikesavailable": 11, "mechanical": 6, "ebike": 5, "is_renting": "OUI", "is_returning": "OUI", "duedate": "2024-06-16T17:55:45+00:00", "coordonnees_geo": {"lon": 2.3400047421455, "lat": 48.861342760889}, "nom_arrondissement_communes": "Paris", "code_insee_commune": null}, {"stationcode": "2008", "name": "Mairie du 2\u00e8me", "is_installed": "OUI", "capacity": 28, "numdocksavailable": 18, "numbikesavailable": 10, "mechanical": 4, "ebike": 6, "is_renting": "OUI", "is_returning": "OUI", "duedate": "2024-06-16T17:54:02+00:00", "coordonnees_geo": {"lon": 2.3404625437747044, "lat": 48.8672190355135}, "nom_arrondissement_communes": "Paris", "code_insee_commune": null}, {"stationcode": "1026", "name": "Place du Lieutenant Henri Karcher", "is_installed": "OUI", "capacity": 30, "numdocksavailable": 5, "numbikesavailable": 25, "mechanical": 19, "ebike": 6, "is_renting": "OUI", "is_returning": "OUI", "duedate": "2024-06-16T17:55:56+00:00", "coordonnees_geo": {"lon": 2.3400671035051346, "lat": 48.863490871724466}, "nom_arrondissement_communes": "Paris", "code_insee_commune": null}, {"stationcode": "18015", "name": "Custine - Ramey", "is_installed": "OUI", "capacity": 41, "numdocksavailable": 31, "numbikesavailable": 10, "mechanical": 2, "ebike": 8, "is_renting": "OUI", "is_returning": "OUI", "duedate": "2024-06-16T17:54:10+00:00", "coordonnees_geo": {"lon": 2.3469526693225, "lat": 48.888735896947}, "nom_arrondissement_communes": "Paris", "code_insee_commune": null}]