[{"stationcode": "21011", "name": "Silly - Louis Bl\u00e9riot", "is_installed": "OUI", "capacity": 23, "numdocksavailable": 13, "numbikesavailable": 10, "mechanical": 7, "ebike": 3, "is_renting": "OUI", "is_returning": "OUI", "duedate": "2024-06-16T04:47:57+00:00", "coordonnees_geo": {"lon": 2.2340199351310734, "lat": 48.83219045374266}, "nom_arrondissement_communes": "Boulogne-Billancourt", "code_insee_commune": null}, {"stationcode": "48012", "name": "Stalingrad - Henri Luisette", "is_installed": "OUI", "capacity": 26, "numdocksavailable": 0, "numbikesavailable": 26, "mechanical": 1, "ebike": 25, "is_renting": "OUI", "is_returning": "OUI", "duedate": "2024-06-16T04:51:40+00:00", "coordonnees_geo": {"lon": 2.366935946761926, "lat": 48.78363092456589}, "nom_arrondissement_communes": "Villejuif", "code_insee_commune": null}, {"stationcode": "23303", "name": "Gare de Robinson", "is_installed": "OUI", "capacity": 30, "numdocksavailable": 25, "numbikesavailable": 5, "mechanical": 4, "ebike": 1, "is_renting": "OUI", "is_returning": "OUI", "duedate": "2024-06-16T04:45:11+00:00", "coordonnees_geo": {"lon": 2.281828634440899, "lat": 48.7799259211605}, "nom_arrondissement_communes": "Sceaux", "code_insee_commune": null}, {"stationcode": "20048", "name": "Bagnolet - Place Saint-Blaise", "is_installed": "OUI", "capacity": 28, "numdocksavailable": 25, "numbikesavailable": 3, "mechanical": 1, "ebike": 2, "is_renting": "OUI", "is_returning": "OUI", "duedate": "2024-06-16T04:45:38+00:00", "coordonnees_geo": {"lon": 2.40334, "lat": 48.85973}, "nom_arrondissement_communes": "Paris", "code_insee_commune": null}, {"stationcode": "10166", "name": "Strasbourg - Saint-Denis", "is_installed": "OUI", "capacity": 16, "numdocksavailable": 12, "numbikesavailable": 3, "mechanical": 3, "ebike": 0, "is_renting": "OUI", "is_returning": "OUI", "duedate": "2024-06-16T04:48:41+00:00", "coordonnees_geo": {"lon": 2.3542908579111, "lat": 48.869601642433}, "nom_arrondissement_communes": "Paris", "code_insee_commune": null}, {"stationcode": "45004", "name": "R\u00e9publique - Louis Loucheur", "is_installed": "OUI", "capacity": 37, "numdocksavailable": 13, "numbikesavailable": 24, "mechanical": 12, "ebike": 12, "is_renting": "OUI", "is_returning": "OUI", "duedate": "2024-06-16T04:50:43+00:00", "coordonnees_geo": {"lon": 2.5101865455508, "lat": 48.823549261189}, "nom_arrondissement_communes": "Champigny-sur-Marne", "code_insee_commune": null}, {"stationcode": "23202", "name": "Henri Barbusse - Gabriel P\u00e9ri", "is_installed": "OUI", "capacity": 27, "numdocksavailable": 16, "numbikesavailable": 11, "mechanical": 0, "ebike": 11, "is_renting": "OUI", "is_returning": "OUI", "duedate": "2024-06-16T04:52:41+00:00", "coordonnees_geo": {"lon": 2.2874166362216, "lat": 48.801773795836}, "nom_arrondissement_communes": "Ch\u00e2tillon", "code_insee_commune": null}, {"stationcode": "6015", "name": "Andr\u00e9 Mazet - Saint-Andr\u00e9 des Arts", "is_installed": "OUI", "capacity": 55, "numdocksavailable": 32, "numbikesavailable": 23, "mechanical": 23, "ebike": 0, "is_renting": "OUI", "is_returning": "OUI", "duedate": "2024-06-16T04:53:13+00:00", "coordonnees_geo": {"lon": 2.3390958085656166, "lat": 48.85375581057431}, "nom_arrondissement_communes": "Paris", "code_insee_commune": null}, {"stationcode": "32605", "name": "Mairie", "is_installed": "OUI", "capacity": 20, "numdocksavailable": 9, "numbikesavailable": 11, "mechanical": 1, "ebike": 10, "is_renting": "OUI", "is_returning": "OUI", "duedate": "2024-06-16T04:52:18+00:00", "coordonnees_geo": {"lon": 2.4163350908311, "lat": 48.87914304162}, "nom_arrondissement_communes": "Les Lilas", "code_insee_commune": null}, {"stationcode": "17202", "name": "Mariotte - Batignolles", "is_installed": "OUI", "capacity": 20, "numdocksavailable": 14, "numbikesavailable": 6, "mechanical": 4, "ebike": 2, "is_renting": "OUI", "is_returning": "OUI", "duedate": "2024-06-16T04:52:15+00:00", "coordonnees_geo": {"lon": 2.321469503475, "lat": 48.884571659595}, "nom_arrondissement_communes": "Paris", "code_insee_commune": null}, {"stationcode": "32011", "name": "Stade de France - Francis de Pressens\u00e9", "is_installed": "OUI", "capacity": 44, "numdocksavailable": 34, "numbikesavailable": 8, "mechanical": 3, "ebike": 5, "is_renting": "OUI", "is_returning": "OUI", "duedate": "2024-06-16T04:52:23+00:00", "coordonnees_geo": {"lon": 2.3620655760169, "lat": 48.919141953558}, "nom_arrondissement_communes": "Saint-Denis", "code_insee_commune": null}, {"stationcode": "17020", "name": "Jouffroy d'Abbans - Malesherbes", "is_installed": "OUI", "capacity": 27, "numdocksavailable": 18, "numbikesavailable": 9, "mechanical": 1, "ebike": 8, "is_renting": "OUI", "is_returning": "OUI", "duedate": "2024-06-16T04:46:38+00:00", "coordonnees_geo": {"lon": 2.3070717, "lat": 48.8850134}, "nom_arrondissement_communes": "Paris", "code_insee_commune": null}, {"stationcode": "23206", "name": "B\u00e9ranger - F\u00e9lix Faure", "is_installed": "OUI", "capacity": 28, "numdocksavailable": 26, "numbikesavailable": 2, "mechanical": 1, "ebike": 1, "is_renting": "OUI", "is_returning": "OUI", "duedate": "2024-06-16T04:51:19+00:00", "coordonnees_geo": {"lon": 2.2848263373723436, "lat": 48.80404828621485}, "nom_arrondissement_communes": "Ch\u00e2tillon", "code_insee_commune": null}, {"stationcode": "42030", "name": "St\u00e9phanie Bouvard - Gambetta", "is_installed": "OUI", "capacity": 30, "numdocksavailable": 13, "numbikesavailable": 16, "mechanical": 11, "ebike": 5, "is_renting": "OUI", "is_returning": "OUI", "duedate": "2024-06-16T04:53:12+00:00", "coordonnees_geo": {"lon": 2.4024386957288, "lat": 48.814548138856}, "nom_arrondissement_communes": "Ivry-sur-Seine", "code_insee_commune": null}, {"stationcode": "5027", "name": "Gobelins - Port-Royal", "is_installed": "OUI", "capacity": 40, "numdocksavailable": 2, "numbikesavailable": 37, "mechanical": 28, "ebike": 9, "is_renting": "OUI", "is_returning": "OUI", "duedate": "2024-06-16T04:52:51+00:00", "coordonnees_geo": {"lon": 2.3515201359987, "lat": 48.837135900263}, "nom_arrondissement_communes": "Paris", "code_insee_commune": null}, {"stationcode": "42024", "name": "Danielle Casanova - Ledru-Rollin", "is_installed": "OUI", "capacity": 28, "numdocksavailable": 2, "numbikesavailable": 26, "mechanical": 13, "ebike": 13, "is_renting": "OUI", "is_returning": "OUI", "duedate": "2024-06-16T04:53:14+00:00", "coordonnees_geo": {"lon": 2.383259721100331, "lat": 48.815783497876815}, "nom_arrondissement_communes": "Ivry-sur-Seine", "code_insee_commune": null}, {"stationcode": "48001", "name": "Chastenet de G\u00e9ry - Marcel Paul", "is_installed": "OUI", "capacity": 25, "numdocksavailable": 10, "numbikesavailable": 14, "mechanical": 1, "ebike": 13, "is_renting": "OUI", "is_returning": "OUI", "duedate": "2024-06-16T04:52:07+00:00", "coordonnees_geo": {"lon": 2.3567359, "lat": 48.800123}, "nom_arrondissement_communes": "Villejuif", "code_insee_commune": null}, {"stationcode": "51008", "name": "Martyrs de Ch\u00e2teaubriant - Jean Grandel", "is_installed": "OUI", "capacity": 38, "numdocksavailable": 27, "numbikesavailable": 11, "mechanical": 7, "ebike": 4, "is_renting": "OUI", "is_returning": "OUI", "duedate": "2024-06-16T04:51:59+00:00", "coordonnees_geo": {"lon": 2.211214, "lat": 48.951432}, "nom_arrondissement_communes": "Argenteuil", "code_insee_commune": null}, {"stationcode": "34011", "name": "Clef des Champs - Albert Dhalenne", "is_installed": "OUI", "capacity": 28, "numdocksavailable": 20, "numbikesavailable": 7, "mechanical": 4, "ebike": 3, "is_renting": "OUI", "is_returning": "OUI", "duedate": "2024-06-15T18:01:46+00:00", "coordonnees_geo": {"lon": 2.330665, "lat": 48.914938}, "nom_arrondissement_communes": "Saint-Ouen-sur-Seine", "code_insee_commune": null}, {"stationcode": "21329", "name": "Gare - Aristide Briand", "is_installed": "OUI", "capacity": 29, "numdocksavailable": 6, "numbikesavailable": 21, "mechanical": 12, "ebike": 9, "is_renting": "OUI", "is_returning": "OUI", "duedate": "2024-06-16T04:54:15+00:00", "coordonnees_geo": {"lon": 2.2555950104387, "lat": 48.821410564722}, "nom_arrondissement_communes": "Issy-les-Moulineaux", "code_insee_commune": null}, {"stationcode": "8040", "name": "Pierre Charron - Champs-Elys\u00e9es", "is_installed": "OUI", "capacity": 32, "numdocksavailable": 29, "numbikesavailable": 1, "mechanical": 1, "ebike": 0, "is_renting": "OUI", "is_returning": "OUI", "duedate": "2024-06-16T04:49:12+00:00", "coordonnees_geo": {"lon": 2.3043501377106, "lat": 48.870103359864}, "nom_arrondissement_communes": "Paris", "code_insee_commune": null}, {"stationcode": "19121", "name": "Belleville -  Pr\u00e9 Saint-Gervais", "is_installed": "OUI", "capacity": 21, "numdocksavailable": 10, "numbikesavailable": 11, "mechanical": 0, "ebike": 11, "is_renting": "OUI", "is_returning": "OUI", "duedate": "2024-06-16T04:52:39+00:00", "coordonnees_geo": {"lon": 2.3930460959673, "lat": 48.875565910073}, "nom_arrondissement_communes": "Paris", "code_insee_commune": null}, {"stationcode": "25007", "name": "Bons Raisins - Voltaire", "is_installed": "OUI", "capacity": 24, "numdocksavailable": 20, "numbikesavailable": 3, "mechanical": 0, "ebike": 3, "is_renting": "OUI", "is_returning": "OUI", "duedate": "2024-06-16T04:52:14+00:00", "coordonnees_geo": {"lon": 2.1947155570850896, "lat": 48.87282451461399}, "nom_arrondissement_communes": "Rueil-Malmaison", "code_insee_commune": null}, {"stationcode": "19114", "name": "Manin - Secr\u00e9tan", "is_installed": "OUI", "capacity": 20, "numdocksavailable": 8, "numbikesavailable": 11, "mechanical": 1, "ebike": 10, "is_renting": "OUI", "is_returning": "OUI", "duedate": "2024-06-16T04:53:36+00:00", "coordonnees_geo": {"lon": 2.3787959, "lat": 48.8791665}, "nom_arrondissement_communes": "Paris", "code_insee_commune": null}, {"stationcode": "12123", "name": "Ch\u00e2teau de Vincennes", "is_installed": "OUI", "capacity": 52, "numdocksavailable": 45, "numbikesavailable": 6, "mechanical": 5, "ebike": 1, "is_renting": "OUI", "is_returning": "OUI", "duedate": "2024-06-16T04:53:07+00:00", "coordonnees_geo": {"lon": 2.439209537709179, "lat": 48.84423193255657}, "nom_arrondissement_communes": "Paris", "code_insee_commune": null}, {"stationcode": "21002", "name": "Place Denfert-Rochereau", "is_installed": "OUI", "capacity": 20, "numdocksavailable": 9, "numbikesavailable": 11, "mechanical": 4, "ebike": 7, "is_renting": "OUI", "is_returning": "OUI", "duedate": "2024-06-16T04:48:32+00:00", "coordonnees_geo": {"lon": 2.245987951755524, "lat": 48.843252536286684}, "nom_arrondissement_communes": "Boulogne-Billancourt", "code_insee_commune": null}, {"stationcode": "24004", "name": "Paix - Verdun", "is_installed": "OUI", "capacity": 35, "numdocksavailable": 15, "numbikesavailable": 20, "mechanical": 10, "ebike": 10, "is_renting": "OUI", "is_returning": "OUI", "duedate": "2024-06-16T04:54:04+00:00", "coordonnees_geo": {"lon": 2.261173, "lat": 48.900504}, "nom_arrondissement_communes": "Courbevoie", "code_insee_commune": null}, {"stationcode": "13116", "name": "Place du Docteur Yersin", "is_installed": "OUI", "capacity": 50, "numdocksavailable": 48, "numbikesavailable": 1, "mechanical": 1, "ebike": 0, "is_renting": "OUI", "is_returning": "OUI", "duedate": "2024-06-16T04:52:16+00:00", "coordonnees_geo": {"lon": 2.3725583776831627, "lat": 48.82010494991975}, "nom_arrondissement_communes": "Paris", "code_insee_commune": null}, {"stationcode": "48006", "name": "Maxime Gorki - Paul Vaillant-Couturier", "is_installed": "OUI", "capacity": 20, "numdocksavailable": 15, "numbikesavailable": 5, "mechanical": 1, "ebike": 4, "is_renting": "OUI", "is_returning": "OUI", "duedate": "2024-06-16T04:49:32+00:00", "coordonnees_geo": {"lon": 2.3683342337608337, "lat": 48.79673508795443}, "nom_arrondissement_communes": "Villejuif", "code_insee_commune": null}, {"stationcode": "18016", "name": "Francoeur - Caulaincourt", "is_installed": "OUI", "capacity": 34, "numdocksavailable": 22, "numbikesavailable": 12, "mechanical": 4, "ebike": 8, "is_renting": "OUI", "is_returning": "OUI", "duedate": "2024-06-16T04:51:22+00:00", "coordonnees_geo": {"lon": 2.342529706656933, "lat": 48.8899944409612}, "nom_arrondissement_communes": "Paris", "code_insee_commune": null}, {"stationcode": "19117", "name": "Euryale Dehaynin - Loire", "is_installed": "OUI", "capacity": 30, "numdocksavailable": 23, "numbikesavailable": 5, "mechanical": 2, "ebike": 3, "is_renting": "OUI", "is_returning": "OUI", "duedate": "2024-06-16T04:50:57+00:00", "coordonnees_geo": {"lon": 2.3774591088294987, "lat": 48.886248917304805}, "nom_arrondissement_communes": "Paris", "code_insee_commune": null}, {"stationcode": "21022", "name": "D\u00f4me - R\u00e9publique", "is_installed": "OUI", "capacity": 25, "numdocksavailable": 7, "numbikesavailable": 18, "mechanical": 14, "ebike": 4, "is_renting": "OUI", "is_returning": "OUI", "duedate": "2024-06-16T04:46:02+00:00", "coordonnees_geo": {"lon": 2.250257, "lat": 48.832681}, "nom_arrondissement_communes": "Boulogne-Billancourt", "code_insee_commune": null}, {"stationcode": "9025", "name": "Taitbout - Ch\u00e2teaudun", "is_installed": "OUI", "capacity": 39, "numdocksavailable": 35, "numbikesavailable": 4, "mechanical": 4, "ebike": 0, "is_renting": "OUI", "is_returning": "OUI", "duedate": "2024-06-16T04:54:21+00:00", "coordonnees_geo": {"lon": 2.335356677933531, "lat": 48.876383969379}, "nom_arrondissement_communes": "Paris", "code_insee_commune": null}, {"stationcode": "20003", "name": "Pyr\u00e9n\u00e9es - Cours de Vincennes", "is_installed": "OUI", "capacity": 21, "numdocksavailable": 15, "numbikesavailable": 5, "mechanical": 2, "ebike": 3, "is_renting": "OUI", "is_returning": "OUI", "duedate": "2024-06-16T04:49:05+00:00", "coordonnees_geo": {"lon": 2.4061721563339, "lat": 48.847796779935}, "nom_arrondissement_communes": "Paris", "code_insee_commune": null}, {"stationcode": "15041", "name": "Franquet - Labrouste", "is_installed": "OUI", "capacity": 37, "numdocksavailable": 15, "numbikesavailable": 21, "mechanical": 13, "ebike": 8, "is_renting": "OUI", "is_returning": "OUI", "duedate": "2024-06-16T04:54:05+00:00", "coordonnees_geo": {"lon": 2.306762784719467, "lat": 48.83287705011431}, "nom_arrondissement_communes": "Paris", "code_insee_commune": null}, {"stationcode": "11022", "name": "Roquette - Auguste Laurent", "is_installed": "OUI", "capacity": 16, "numdocksavailable": 2, "numbikesavailable": 12, "mechanical": 10, "ebike": 2, "is_renting": "OUI", "is_returning": "OUI", "duedate": "2024-06-16T04:45:35+00:00", "coordonnees_geo": {"lon": 2.381797702650783, "lat": 48.858001906023354}, "nom_arrondissement_communes": "Paris", "code_insee_commune": null}, {"stationcode": "13028", "name": "Gouthi\u00e8re - Poterne des Peupliers", "is_installed": "OUI", "capacity": 33, "numdocksavailable": 3, "numbikesavailable": 28, "mechanical": 18, "ebike": 10, "is_renting": "OUI", "is_returning": "OUI", "duedate": "2024-06-16T04:54:33+00:00", "coordonnees_geo": {"lon": 2.351342, "lat": 48.820507}, "nom_arrondissement_communes": "Paris", "code_insee_commune": null}, {"stationcode": "14004", "name": "Port Royal - H\u00f4pital Cochin", "is_installed": "OUI", "capacity": 23, "numdocksavailable": 17, "numbikesavailable": 5, "mechanical": 1, "ebike": 4, "is_renting": "OUI", "is_returning": "OUI", "duedate": "2024-06-16T04:53:02+00:00", "coordonnees_geo": {"lon": 2.3406994164846, "lat": 48.838608030238}, "nom_arrondissement_communes": "Paris", "code_insee_commune": null}, {"stationcode": "14027", "name": "Gergovie - Al\u00e9sia", "is_installed": "OUI", "capacity": 36, "numdocksavailable": 17, "numbikesavailable": 19, "mechanical": 6, "ebike": 13, "is_renting": "OUI", "is_returning": "OUI", "duedate": "2024-06-16T04:52:13+00:00", "coordonnees_geo": {"lon": 2.318882101207347, "lat": 48.83088717455243}, "nom_arrondissement_communes": "Paris", "code_insee_commune": null}, {"stationcode": "41605", "name": "G\u00e9n\u00e9ral De Gaulle - Vivien", "is_installed": "OUI", "capacity": 22, "numdocksavailable": 6, "numbikesavailable": 16, "mechanical": 5, "ebike": 11, "is_renting": "OUI", "is_returning": "OUI", "duedate": "2024-06-16T04:53:35+00:00", "coordonnees_geo": {"lon": 2.4189166724681854, "lat": 48.83607420090204}, "nom_arrondissement_communes": "Saint-Mand\u00e9", "code_insee_commune": null}, {"stationcode": "30003", "name": "Moscou - Edouard Vaillant", "is_installed": "OUI", "capacity": 30, "numdocksavailable": 1, "numbikesavailable": 26, "mechanical": 15, "ebike": 11, "is_renting": "OUI", "is_returning": "OUI", "duedate": "2024-06-16T04:52:12+00:00", "coordonnees_geo": {"lon": 2.4689837335263, "lat": 48.90755810177}, "nom_arrondissement_communes": "Bobigny", "code_insee_commune": null}, {"stationcode": "13120", "name": "Pierre Joseph Desault", "is_installed": "OUI", "capacity": 19, "numdocksavailable": 4, "numbikesavailable": 14, "mechanical": 14, "ebike": 0, "is_renting": "OUI", "is_returning": "OUI", "duedate": "2024-06-16T04:54:00+00:00", "coordonnees_geo": {"lon": 2.378775402903557, "lat": 48.82110230800372}, "nom_arrondissement_communes": "Paris", "code_insee_commune": null}, {"stationcode": "16025", "name": "Jean de la Fontaine - Boulainvilliers", "is_installed": "OUI", "capacity": 68, "numdocksavailable": 33, "numbikesavailable": 32, "mechanical": 21, "ebike": 11, "is_renting": "OUI", "is_returning": "OUI", "duedate": "2024-06-16T04:53:00+00:00", "coordonnees_geo": {"lon": 2.2758664190769196, "lat": 48.85264791461651}, "nom_arrondissement_communes": "Paris", "code_insee_commune": null}, {"stationcode": "14035", "name": "Maine - Jean Zay", "is_installed": "OUI", "capacity": 50, "numdocksavailable": 31, "numbikesavailable": 18, "mechanical": 11, "ebike": 7, "is_renting": "OUI", "is_returning": "OUI", "duedate": "2024-06-16T04:52:28+00:00", "coordonnees_geo": {"lon": 2.3225428909063, "lat": 48.837925263898}, "nom_arrondissement_communes": "Paris", "code_insee_commune": null}, {"stationcode": "14009", "name": "Tombe Issoire - Ren\u00e9 Coty", "is_installed": "OUI", "capacity": 36, "numdocksavailable": 7, "numbikesavailable": 27, "mechanical": 11, "ebike": 16, "is_renting": "OUI", "is_returning": "OUI", "duedate": "2024-06-16T04:52:01+00:00", "coordonnees_geo": {"lon": 2.3343613743782, "lat": 48.830512876709}, "nom_arrondissement_communes": "Paris", "code_insee_commune": null}, {"stationcode": "17117", "name": "Pereire - Saussure", "is_installed": "OUI", "capacity": 32, "numdocksavailable": 14, "numbikesavailable": 18, "mechanical": 7, "ebike": 11, "is_renting": "OUI", "is_returning": "OUI", "duedate": "2024-06-16T04:54:07+00:00", "coordonnees_geo": {"lon": 2.3101296275854, "lat": 48.888229075478}, "nom_arrondissement_communes": "Paris", "code_insee_commune": null}, {"stationcode": "18021", "name": "Marcadet - Ramey", "is_installed": "OUI", "capacity": 21, "numdocksavailable": 14, "numbikesavailable": 7, "mechanical": 5, "ebike": 2, "is_renting": "OUI", "is_returning": "OUI", "duedate": "2024-06-16T04:53:15+00:00", "coordonnees_geo": {"lon": 2.3449019, "lat": 48.890875}, "nom_arrondissement_communes": "Paris", "code_insee_commune": null}, {"stationcode": "16116", "name": "George Sand - Jean de La Fontaine", "is_installed": "OUI", "capacity": 29, "numdocksavailable": 6, "numbikesavailable": 23, "mechanical": 18, "ebike": 5, "is_renting": "OUI", "is_returning": "OUI", "duedate": "2024-06-16T04:53:31+00:00", "coordonnees_geo": {"lon": 2.268257387525699, "lat": 48.84986918764119}, "nom_arrondissement_communes": "Paris", "code_insee_commune": null}, {"stationcode": "25004", "name": "Marcel Pourtout - \u00c9douard Manet", "is_installed": "OUI", "capacity": 24, "numdocksavailable": 6, "numbikesavailable": 18, "mechanical": 15, "ebike": 3, "is_renting": "OUI", "is_returning": "OUI", "duedate": "2024-06-16T04:51:08+00:00", "coordonnees_geo": {"lon": 2.1655967831611638, "lat": 48.87555620763429}, "nom_arrondissement_communes": "Rueil-Malmaison", "code_insee_commune": null}, {"stationcode": "12022", "name": "Sahel - G\u00e9n\u00e9ral Michel Bizot", "is_installed": "OUI", "capacity": 33, "numdocksavailable": 14, "numbikesavailable": 18, "mechanical": 12, "ebike": 6, "is_renting": "OUI", "is_returning": "OUI", "duedate": "2024-06-16T04:53:41+00:00", "coordonnees_geo": {"lon": 2.4044444784522057, "lat": 48.840872964793355}, "nom_arrondissement_communes": "Paris", "code_insee_commune": null}, {"stationcode": "14005", "name": "Ren\u00e9 Coty - Place Denfert-Rochereau", "is_installed": "OUI", "capacity": 36, "numdocksavailable": 7, "numbikesavailable": 29, "mechanical": 20, "ebike": 9, "is_renting": "OUI", "is_returning": "OUI", "duedate": "2024-06-16T04:52:45+00:00", "coordonnees_geo": {"lon": 2.3329411447048, "lat": 48.833056477316}, "nom_arrondissement_communes": "Paris", "code_insee_commune": null}, {"stationcode": "31105", "name": "Lavoisier - Missak Manouchian", "is_installed": "OUI", "capacity": 18, "numdocksavailable": 0, "numbikesavailable": 18, "mechanical": 10, "ebike": 8, "is_renting": "OUI", "is_returning": "OUI", "duedate": "2024-06-16T04:50:00+00:00", "coordonnees_geo": {"lon": 2.495676465332508, "lat": 48.86286468896063}, "nom_arrondissement_communes": "Rosny-sous-Bois", "code_insee_commune": null}, {"stationcode": "5033", "name": "Saint-S\u00e9verin - Saint-Michel", "is_installed": "OUI", "capacity": 30, "numdocksavailable": 11, "numbikesavailable": 19, "mechanical": 19, "ebike": 0, "is_renting": "OUI", "is_returning": "OUI", "duedate": "2024-06-16T04:49:39+00:00", "coordonnees_geo": {"lon": 2.3440927639604, "lat": 48.852731305488}, "nom_arrondissement_communes": "Paris", "code_insee_commune": null}, {"stationcode": "42205", "name": "Place Aristide Briand", "is_installed": "OUI", "capacity": 35, "numdocksavailable": 0, "numbikesavailable": 34, "mechanical": 15, "ebike": 19, "is_renting": "OUI", "is_returning": "OUI", "duedate": "2024-06-16T04:52:12+00:00", "coordonnees_geo": {"lon": 2.413003742694855, "lat": 48.82189236575831}, "nom_arrondissement_communes": "Charenton-le-Pont", "code_insee_commune": null}, {"stationcode": "30004", "name": "Jean Jaur\u00e8s - Place de la Lib\u00e9ration", "is_installed": "OUI", "capacity": 30, "numdocksavailable": 1, "numbikesavailable": 28, "mechanical": 11, "ebike": 17, "is_renting": "OUI", "is_returning": "OUI", "duedate": "2024-06-16T04:52:24+00:00", "coordonnees_geo": {"lon": 2.4391458057475, "lat": 48.90617751921}, "nom_arrondissement_communes": "Bobigny", "code_insee_commune": null}, {"stationcode": "8046", "name": "Marceau - Pr\u00e9sident Wilson", "is_installed": "OUI", "capacity": 32, "numdocksavailable": 22, "numbikesavailable": 9, "mechanical": 8, "ebike": 1, "is_renting": "OUI", "is_returning": "OUI", "duedate": "2024-06-16T04:49:25+00:00", "coordonnees_geo": {"lon": 2.3002513, "lat": 48.8652359}, "nom_arrondissement_communes": "Paris", "code_insee_commune": null}, {"stationcode": "17110", "name": "Legendre - Nollet", "is_installed": "OUI", "capacity": 30, "numdocksavailable": 26, "numbikesavailable": 4, "mechanical": 2, "ebike": 2, "is_renting": "OUI", "is_returning": "OUI", "duedate": "2024-06-16T04:49:12+00:00", "coordonnees_geo": {"lon": 2.320293079881375, "lat": 48.887742186754224}, "nom_arrondissement_communes": "Paris", "code_insee_commune": null}, {"stationcode": "20110", "name": "Gambetta - Tourelles", "is_installed": "OUI", "capacity": 20, "numdocksavailable": 14, "numbikesavailable": 5, "mechanical": 0, "ebike": 5, "is_renting": "OUI", "is_returning": "OUI", "duedate": "2024-06-16T04:51:12+00:00", "coordonnees_geo": {"lon": 2.4059921130538, "lat": 48.875337902264}, "nom_arrondissement_communes": "Paris", "code_insee_commune": null}, {"stationcode": "17006", "name": "Guy M\u00f4quet - Compoint", "is_installed": "OUI", "capacity": 36, "numdocksavailable": 22, "numbikesavailable": 12, "mechanical": 4, "ebike": 8, "is_renting": "OUI", "is_returning": "OUI", "duedate": "2024-06-16T04:52:08+00:00", "coordonnees_geo": {"lon": 2.32321947813034, "lat": 48.89213559044868}, "nom_arrondissement_communes": "Paris", "code_insee_commune": null}, {"stationcode": "18101", "name": "Championnet.", "is_installed": "OUI", "capacity": 22, "numdocksavailable": 7, "numbikesavailable": 15, "mechanical": 9, "ebike": 6, "is_renting": "OUI", "is_returning": "OUI", "duedate": "2024-06-16T04:53:51+00:00", "coordonnees_geo": {"lon": 2.3498166, "lat": 48.8953643}, "nom_arrondissement_communes": "Paris", "code_insee_commune": null}, {"stationcode": "6028", "name": "Quatre Vents - Carrefour de l'Od\u00e9on", "is_installed": "OUI", "capacity": 37, "numdocksavailable": 31, "numbikesavailable": 3, "mechanical": 2, "ebike": 1, "is_renting": "OUI", "is_returning": "OUI", "duedate": "2024-06-16T04:51:42+00:00", "coordonnees_geo": {"lon": 2.338161695134053, "lat": 48.851751374458864}, "nom_arrondissement_communes": "Paris", "code_insee_commune": null}, {"stationcode": "20005", "name": "Reynaldo Hahn - Lagny", "is_installed": "OUI", "capacity": 19, "numdocksavailable": 11, "numbikesavailable": 7, "mechanical": 4, "ebike": 3, "is_renting": "OUI", "is_returning": "OUI", "duedate": "2024-06-16T04:46:35+00:00", "coordonnees_geo": {"lon": 2.412330328844772, "lat": 48.849266043601794}, "nom_arrondissement_communes": "Paris", "code_insee_commune": null}, {"stationcode": "10031", "name": "Louis Blanc - Aqueduc", "is_installed": "OUI", "capacity": 37, "numdocksavailable": 10, "numbikesavailable": 25, "mechanical": 15, "ebike": 10, "is_renting": "OUI", "is_returning": "OUI", "duedate": "2024-06-16T04:53:45+00:00", "coordonnees_geo": {"lon": 2.3635615780949593, "lat": 48.88203018259946}, "nom_arrondissement_communes": "Paris", "code_insee_commune": null}, {"stationcode": "11016", "name": "Philippe-Auguste", "is_installed": "OUI", "capacity": 48, "numdocksavailable": 42, "numbikesavailable": 6, "mechanical": 2, "ebike": 4, "is_renting": "OUI", "is_returning": "OUI", "duedate": "2024-06-16T04:49:22+00:00", "coordonnees_geo": {"lon": 2.3932945355773, "lat": 48.851853488265}, "nom_arrondissement_communes": "Paris", "code_insee_commune": null}, {"stationcode": "21205", "name": "Arthur Auger - Jean Jaur\u00e8s", "is_installed": "OUI", "capacity": 26, "numdocksavailable": 15, "numbikesavailable": 10, "mechanical": 2, "ebike": 8, "is_renting": "OUI", "is_returning": "OUI", "duedate": "2024-06-16T04:53:03+00:00", "coordonnees_geo": {"lon": 2.3069277405738835, "lat": 48.813736445585235}, "nom_arrondissement_communes": "Montrouge", "code_insee_commune": null}, {"stationcode": "16023", "name": "Passy - Place du Costa Rica", "is_installed": "OUI", "capacity": 33, "numdocksavailable": 29, "numbikesavailable": 4, "mechanical": 0, "ebike": 4, "is_renting": "OUI", "is_returning": "OUI", "duedate": "2024-06-16T04:53:49+00:00", "coordonnees_geo": {"lon": 2.2839655, "lat": 48.8584893}, "nom_arrondissement_communes": "Paris", "code_insee_commune": null}, {"stationcode": "24007", "name": "Jean-Baptiste Charcot - Sainte-Genevi\u00e8ve", "is_installed": "OUI", "capacity": 21, "numdocksavailable": 3, "numbikesavailable": 18, "mechanical": 7, "ebike": 11, "is_renting": "OUI", "is_returning": "OUI", "duedate": "2024-06-16T04:48:46+00:00", "coordonnees_geo": {"lon": 2.278892956674099, "lat": 48.90310883721567}, "nom_arrondissement_communes": "Courbevoie", "code_insee_commune": null}, {"stationcode": "15114", "name": "Pasteur - Cotentin", "is_installed": "OUI", "capacity": 33, "numdocksavailable": 28, "numbikesavailable": 4, "mechanical": 1, "ebike": 3, "is_renting": "OUI", "is_returning": "OUI", "duedate": "2024-06-16T04:53:23+00:00", "coordonnees_geo": {"lon": 2.316356, "lat": 48.8389284}, "nom_arrondissement_communes": "Paris", "code_insee_commune": null}, {"stationcode": "11029", "name": "M\u00e9nilmontant - Oberkampf", "is_installed": "OUI", "capacity": 40, "numdocksavailable": 33, "numbikesavailable": 5, "mechanical": 1, "ebike": 4, "is_renting": "OUI", "is_returning": "OUI", "duedate": "2024-06-16T04:53:53+00:00", "coordonnees_geo": {"lon": 2.3830134404158, "lat": 48.866617658681}, "nom_arrondissement_communes": "Paris", "code_insee_commune": null}, {"stationcode": "19014", "name": "Lorraine - Jean Jaur\u00e8s", "is_installed": "OUI", "capacity": 19, "numdocksavailable": 0, "numbikesavailable": 19, "mechanical": 7, "ebike": 12, "is_renting": "OUI", "is_returning": "OUI", "duedate": "2024-06-16T04:49:26+00:00", "coordonnees_geo": {"lon": 2.3825772, "lat": 48.8863865}, "nom_arrondissement_communes": "Paris", "code_insee_commune": null}, {"stationcode": "15014", "name": "Volontaires - Vaugirard", "is_installed": "OUI", "capacity": 34, "numdocksavailable": 1, "numbikesavailable": 33, "mechanical": 18, "ebike": 15, "is_renting": "OUI", "is_returning": "OUI", "duedate": "2024-06-16T04:53:58+00:00", "coordonnees_geo": {"lon": 2.30808901725357, "lat": 48.84132050184004}, "nom_arrondissement_communes": "Paris", "code_insee_commune": null}, {"stationcode": "13055", "name": "M.- A. Lagroua Weill-Hall\u00e9 -  F. Dolto", "is_installed": "OUI", "capacity": 60, "numdocksavailable": 11, "numbikesavailable": 48, "mechanical": 40, "ebike": 8, "is_renting": "OUI", "is_returning": "OUI", "duedate": "2024-06-16T04:52:17+00:00", "coordonnees_geo": {"lon": 2.380220606266108, "lat": 48.828595283857425}, "nom_arrondissement_communes": "Paris", "code_insee_commune": null}, {"stationcode": "22014", "name": "Victor Hugo - Bineau", "is_installed": "OUI", "capacity": 25, "numdocksavailable": 7, "numbikesavailable": 18, "mechanical": 9, "ebike": 9, "is_renting": "OUI", "is_returning": "OUI", "duedate": "2024-06-16T04:53:56+00:00", "coordonnees_geo": {"lon": 2.2783890366554265, "lat": 48.88758225888669}, "nom_arrondissement_communes": "Neuilly-sur-Seine", "code_insee_commune": null}, {"stationcode": "21027", "name": "Fief - R\u00e9publique", "is_installed": "OUI", "capacity": 25, "numdocksavailable": 7, "numbikesavailable": 18, "mechanical": 9, "ebike": 9, "is_renting": "OUI", "is_returning": "OUI", "duedate": "2024-06-16T04:54:19+00:00", "coordonnees_geo": {"lon": 2.255771979689598, "lat": 48.83170888166024}, "nom_arrondissement_communes": "Boulogne-Billancourt", "code_insee_commune": null}, {"stationcode": "15044", "name": "Dantzig - Lefebvre", "is_installed": "OUI", "capacity": 33, "numdocksavailable": 25, "numbikesavailable": 8, "mechanical": 0, "ebike": 8, "is_renting": "OUI", "is_returning": "OUI", "duedate": "2024-06-16T04:54:14+00:00", "coordonnees_geo": {"lon": 2.295934036374092, "lat": 48.83013921586756}, "nom_arrondissement_communes": "Paris", "code_insee_commune": null}, {"stationcode": "12040", "name": "Porte de Charenton", "is_installed": "OUI", "capacity": 67, "numdocksavailable": 36, "numbikesavailable": 28, "mechanical": 13, "ebike": 15, "is_renting": "OUI", "is_returning": "OUI", "duedate": "2024-06-16T04:54:16+00:00", "coordonnees_geo": {"lon": 2.3989107459783554, "lat": 48.83124010585643}, "nom_arrondissement_communes": "Paris", "code_insee_commune": null}, {"stationcode": "25002", "name": "H\u00f4tel de Ville de Rueil-Malmaison", "is_installed": "OUI", "capacity": 20, "numdocksavailable": 11, "numbikesavailable": 8, "mechanical": 3, "ebike": 5, "is_renting": "OUI", "is_returning": "OUI", "duedate": "2024-06-16T04:51:53+00:00", "coordonnees_geo": {"lon": 2.181724, "lat": 48.878194}, "nom_arrondissement_communes": "Rueil-Malmaison", "code_insee_commune": null}, {"stationcode": "13023", "name": "Bobillot - Moulin des Pr\u00e9s", "is_installed": "OUI", "capacity": 28, "numdocksavailable": 21, "numbikesavailable": 7, "mechanical": 3, "ebike": 4, "is_renting": "OUI", "is_returning": "OUI", "duedate": "2024-06-16T04:54:23+00:00", "coordonnees_geo": {"lon": 2.353020646317, "lat": 48.828657346203}, "nom_arrondissement_communes": "Paris", "code_insee_commune": null}, {"stationcode": "6005", "name": "Montparnasse -  Square Ozanam", "is_installed": "OUI", "capacity": 49, "numdocksavailable": 33, "numbikesavailable": 16, "mechanical": 16, "ebike": 0, "is_renting": "OUI", "is_returning": "OUI", "duedate": "2024-06-16T04:48:20+00:00", "coordonnees_geo": {"lon": 2.3265242949128, "lat": 48.843310567822}, "nom_arrondissement_communes": "Paris", "code_insee_commune": null}, {"stationcode": "20011", "name": "Pyr\u00e9n\u00e9es - Dagorno", "is_installed": "OUI", "capacity": 20, "numdocksavailable": 17, "numbikesavailable": 3, "mechanical": 1, "ebike": 2, "is_renting": "OUI", "is_returning": "OUI", "duedate": "2024-06-16T04:53:12+00:00", "coordonnees_geo": {"lon": 2.4051643162965775, "lat": 48.855425770695085}, "nom_arrondissement_communes": "Paris", "code_insee_commune": null}, {"stationcode": "6020", "name": "Place Saint-Andr\u00e9 des Arts", "is_installed": "OUI", "capacity": 37, "numdocksavailable": 10, "numbikesavailable": 27, "mechanical": 24, "ebike": 3, "is_renting": "OUI", "is_returning": "OUI", "duedate": "2024-06-16T04:54:00+00:00", "coordonnees_geo": {"lon": 2.3426544293761, "lat": 48.852886173881}, "nom_arrondissement_communes": "Paris", "code_insee_commune": null}, {"stationcode": "21016", "name": "Point du Jour - Jean Jaur\u00e8s", "is_installed": "OUI", "capacity": 40, "numdocksavailable": 28, "numbikesavailable": 11, "mechanical": 5, "ebike": 6, "is_renting": "OUI", "is_returning": "OUI", "duedate": "2024-06-16T04:53:39+00:00", "coordonnees_geo": {"lon": 2.245911467014621, "lat": 48.828753141436465}, "nom_arrondissement_communes": "Boulogne-Billancourt", "code_insee_commune": null}, {"stationcode": "19123", "name": "Metz - Marne", "is_installed": "OUI", "capacity": 33, "numdocksavailable": 21, "numbikesavailable": 10, "mechanical": 6, "ebike": 4, "is_renting": "OUI", "is_returning": "OUI", "duedate": "2024-06-16T04:53:22+00:00", "coordonnees_geo": {"lon": 2.3865705, "lat": 48.891163}, "nom_arrondissement_communes": "Paris", "code_insee_commune": null}, {"stationcode": "21107", "name": "Bertrand Sincholle - Henri Barbusse", "is_installed": "OUI", "capacity": 23, "numdocksavailable": 2, "numbikesavailable": 19, "mechanical": 15, "ebike": 4, "is_renting": "OUI", "is_returning": "OUI", "duedate": "2024-06-16T04:52:52+00:00", "coordonnees_geo": {"lon": 2.3042294383049016, "lat": 48.89925982394349}, "nom_arrondissement_communes": "Clichy", "code_insee_commune": null}, {"stationcode": "5031", "name": "Lac\u00e9p\u00e8de - Linn\u00e9", "is_installed": "OUI", "capacity": 54, "numdocksavailable": 4, "numbikesavailable": 47, "mechanical": 37, "ebike": 10, "is_renting": "OUI", "is_returning": "OUI", "duedate": "2024-06-16T04:53:40+00:00", "coordonnees_geo": {"lon": 2.354651279747486, "lat": 48.8437035476636}, "nom_arrondissement_communes": "Paris", "code_insee_commune": null}, {"stationcode": "12017", "name": "Saint-Mand\u00e9 - Docteur Arnold Netter", "is_installed": "OUI", "capacity": 39, "numdocksavailable": 24, "numbikesavailable": 15, "mechanical": 9, "ebike": 6, "is_renting": "OUI", "is_returning": "OUI", "duedate": "2024-06-16T04:46:26+00:00", "coordonnees_geo": {"lon": 2.404946386814118, "lat": 48.84462585769668}, "nom_arrondissement_communes": "Paris", "code_insee_commune": null}, {"stationcode": "14025", "name": "Jacquier - Didot", "is_installed": "OUI", "capacity": 30, "numdocksavailable": 22, "numbikesavailable": 4, "mechanical": 1, "ebike": 3, "is_renting": "OUI", "is_returning": "OUI", "duedate": "2024-06-16T04:53:18+00:00", "coordonnees_geo": {"lon": 2.318179272115231, "lat": 48.82953336292279}, "nom_arrondissement_communes": "Paris", "code_insee_commune": null}, {"stationcode": "6009", "name": "Guynemer - Jardin du Luxembourg", "is_installed": "OUI", "capacity": 36, "numdocksavailable": 10, "numbikesavailable": 24, "mechanical": 21, "ebike": 3, "is_renting": "OUI", "is_returning": "OUI", "duedate": "2024-06-16T04:51:57+00:00", "coordonnees_geo": {"lon": 2.3325478, "lat": 48.8466127}, "nom_arrondissement_communes": "Paris", "code_insee_commune": null}, {"stationcode": "42027", "name": "Verdun - Pierre et Marie Curie", "is_installed": "OUI", "capacity": 26, "numdocksavailable": 17, "numbikesavailable": 9, "mechanical": 1, "ebike": 8, "is_renting": "OUI", "is_returning": "OUI", "duedate": "2024-06-16T04:53:37+00:00", "coordonnees_geo": {"lon": 2.3707106709480286, "lat": 48.812822398263286}, "nom_arrondissement_communes": "Ivry-sur-Seine", "code_insee_commune": null}, {"stationcode": "16104", "name": "Paul Valery - Victor Hugo", "is_installed": "OUI", "capacity": 35, "numdocksavailable": 33, "numbikesavailable": 2, "mechanical": 1, "ebike": 1, "is_renting": "OUI", "is_returning": "OUI", "duedate": "2024-06-16T04:45:51+00:00", "coordonnees_geo": {"lon": 2.2887128591537476, "lat": 48.87137406080164}, "nom_arrondissement_communes": "Paris", "code_insee_commune": null}, {"stationcode": "20033", "name": "Etienne Dolet - Place Maurice Chevalier", "is_installed": "OUI", "capacity": 33, "numdocksavailable": 27, "numbikesavailable": 5, "mechanical": 5, "ebike": 0, "is_renting": "OUI", "is_returning": "OUI", "duedate": "2024-06-16T04:48:28+00:00", "coordonnees_geo": {"lon": 2.3851405311143026, "lat": 48.86798303359366}, "nom_arrondissement_communes": "Paris", "code_insee_commune": null}, {"stationcode": "30005", "name": "Convention - Campus de Bobigny", "is_installed": "OUI", "capacity": 32, "numdocksavailable": 16, "numbikesavailable": 15, "mechanical": 11, "ebike": 4, "is_renting": "OUI", "is_returning": "OUI", "duedate": "2024-06-16T04:48:57+00:00", "coordonnees_geo": {"lon": 2.4172238067445, "lat": 48.914920058264}, "nom_arrondissement_communes": "Bobigny", "code_insee_commune": null}, {"stationcode": "21510", "name": "Fontaine du Tertre - Calvaire", "is_installed": "OUI", "capacity": 24, "numdocksavailable": 21, "numbikesavailable": 3, "mechanical": 0, "ebike": 3, "is_renting": "OUI", "is_returning": "OUI", "duedate": "2024-06-16T04:54:23+00:00", "coordonnees_geo": {"lon": 2.2187778, "lat": 48.8702539}, "nom_arrondissement_communes": "Suresnes", "code_insee_commune": null}, {"stationcode": "11040", "name": "Temple - Jean-Pierre Timbaud", "is_installed": "OUI", "capacity": 36, "numdocksavailable": 33, "numbikesavailable": 3, "mechanical": 1, "ebike": 2, "is_renting": "OUI", "is_returning": "OUI", "duedate": "2024-06-16T04:50:19+00:00", "coordonnees_geo": {"lon": 2.3660597205162, "lat": 48.86446597201}, "nom_arrondissement_communes": "Paris", "code_insee_commune": null}, {"stationcode": "16500", "name": "Parc des Champions", "is_installed": "NON", "capacity": 0, "numdocksavailable": 0, "numbikesavailable": 0, "mechanical": 0, "ebike": 0, "is_renting": "NON", "is_returning": "NON", "duedate": "2024-06-14T12:00:01+00:00", "coordonnees_geo": {"lon": 2.2850941051957, "lat": 48.86319787273}, "nom_arrondissement_communes": "Paris", "code_insee_commune": null}, {"stationcode": "21112", "name": "Claude Debussy - Marc Bloch", "is_installed": "OUI", "capacity": 56, "numdocksavailable": 12, "numbikesavailable": 43, "mechanical": 33, "ebike": 10, "is_renting": "OUI", "is_returning": "OUI", "duedate": "2024-06-16T04:54:32+00:00", "coordonnees_geo": {"lon": 2.3117771744728, "lat": 48.910388180512}, "nom_arrondissement_communes": "Clichy", "code_insee_commune": null}, {"stationcode": "22703", "name": "Place Jean Mermoz", "is_installed": "OUI", "capacity": 30, "numdocksavailable": 1, "numbikesavailable": 27, "mechanical": 16, "ebike": 11, "is_renting": "OUI", "is_returning": "OUI", "duedate": "2024-06-16T04:54:31+00:00", "coordonnees_geo": {"lon": 2.2718348, "lat": 48.9220937}, "nom_arrondissement_communes": "Bois-Colombes", "code_insee_commune": null}, {"stationcode": "24010", "name": "Charles de Gaulle - Rue de l'Alma", "is_installed": "OUI", "capacity": 28, "numdocksavailable": 15, "numbikesavailable": 13, "mechanical": 1, "ebike": 12, "is_renting": "OUI", "is_returning": "OUI", "duedate": "2024-06-16T04:52:26+00:00", "coordonnees_geo": {"lon": 2.252313240191, "lat": 48.896620592993}, "nom_arrondissement_communes": "Courbevoie", "code_insee_commune": null}, {"stationcode": "10001", "name": "Ren\u00e9 Boulanger - Lancry", "is_installed": "OUI", "capacity": 62, "numdocksavailable": 33, "numbikesavailable": 27, "mechanical": 23, "ebike": 4, "is_renting": "OUI", "is_returning": "OUI", "duedate": "2024-06-16T04:53:28+00:00", "coordonnees_geo": {"lon": 2.3600032, "lat": 48.8685433}, "nom_arrondissement_communes": "Paris", "code_insee_commune": null}, {"stationcode": "41101", "name": "Paul Doumer - Stalingrad", "is_installed": "OUI", "capacity": 24, "numdocksavailable": 18, "numbikesavailable": 6, "mechanical": 2, "ebike": 4, "is_renting": "OUI", "is_returning": "OUI", "duedate": "2024-06-16T04:49:31+00:00", "coordonnees_geo": {"lon": 2.3368880152702, "lat": 48.806518992199}, "nom_arrondissement_communes": "Arcueil", "code_insee_commune": null}]