[{"stationcode": "5002", "name": "Sommerard - Saint-Jacques", "is_installed": "OUI", "capacity": 34, "numdocksavailable": 2, "numbikesavailable": 32, "mechanical": 30, "ebike": 2, "is_renting": "OUI", "is_returning": "OUI", "duedate": "2024-06-14T14:47:21+00:00", "coordonnees_geo": {"lon": 2.345015835298588, "lat": 48.850310432924466}, "nom_arrondissement_communes": "Paris", "code_insee_commune": null}, {"stationcode": "15028", "name": "Grenelle - Dr Finlay", "is_installed": "OUI", "capacity": 71, "numdocksavailable": 48, "numbikesavailable": 20, "mechanical": 20, "ebike": 0, "is_renting": "OUI", "is_returning": "OUI", "duedate": "2024-06-14T14:49:42+00:00", "coordonnees_geo": {"lon": 2.2919502854347233, "lat": 48.851315406715976}, "nom_arrondissement_communes": "Paris", "code_insee_commune": null}, {"stationcode": "8102", "name": "Lamennais - Washington", "is_installed": "OUI", "capacity": 26, "numdocksavailable": 17, "numbikesavailable": 8, "mechanical": 5, "ebike": 3, "is_renting": "OUI", "is_returning": "OUI", "duedate": "2024-06-14T14:48:48+00:00", "coordonnees_geo": {"lon": 2.303444892168045, "lat": 48.87352990026496}, "nom_arrondissement_communes": "Paris", "code_insee_commune": null}, {"stationcode": "21111", "name": "Professeur Ren\u00e9 Leriche - G\u00e9n\u00e9ral Leclerc", "is_installed": "OUI", "capacity": 50, "numdocksavailable": 43, "numbikesavailable": 4, "mechanical": 2, "ebike": 2, "is_renting": "OUI", "is_returning": "OUI", "duedate": "2024-06-14T14:49:26+00:00", "coordonnees_geo": {"lon": 2.307887971401215, "lat": 48.90782845483013}, "nom_arrondissement_communes": "Clichy", "code_insee_commune": null}, {"stationcode": "2010", "name": "Uz\u00e8s - Montmartre", "is_installed": "OUI", "capacity": 29, "numdocksavailable": 15, "numbikesavailable": 12, "mechanical": 11, "ebike": 1, "is_renting": "OUI", "is_returning": "OUI", "duedate": "2024-06-14T14:48:50+00:00", "coordonnees_geo": {"lon": 2.3431010171771054, "lat": 48.870790980240706}, "nom_arrondissement_communes": "Paris", "code_insee_commune": null}, {"stationcode": "11114", "name": "Ledru-Rollin - Charonne", "is_installed": "OUI", "capacity": 32, "numdocksavailable": 1, "numbikesavailable": 30, "mechanical": 25, "ebike": 5, "is_renting": "OUI", "is_returning": "OUI", "duedate": "2024-06-14T14:48:37+00:00", "coordonnees_geo": {"lon": 2.3772463581947094, "lat": 48.85345855607243}, "nom_arrondissement_communes": "Paris", "code_insee_commune": null}, {"stationcode": "34002", "name": "Capitaine Glarner - Gabriel P\u00e9ri", "is_installed": "OUI", "capacity": 27, "numdocksavailable": 13, "numbikesavailable": 10, "mechanical": 4, "ebike": 6, "is_renting": "OUI", "is_returning": "OUI", "duedate": "2024-06-14T14:43:17+00:00", "coordonnees_geo": {"lon": 2.3304807533425724, "lat": 48.902449900418745}, "nom_arrondissement_communes": "Saint-Ouen-sur-Seine", "code_insee_commune": null}, {"stationcode": "13026", "name": "Place Jean Delay", "is_installed": "OUI", "capacity": 35, "numdocksavailable": 35, "numbikesavailable": 0, "mechanical": 0, "ebike": 0, "is_renting": "OUI", "is_returning": "OUI", "duedate": "2024-06-14T14:32:01+00:00", "coordonnees_geo": {"lon": 2.354336, "lat": 48.823316}, "nom_arrondissement_communes": "Paris", "code_insee_commune": null}, {"stationcode": "23002", "name": "Pont de Levallois-b\u00e9con", "is_installed": "OUI", "capacity": 50, "numdocksavailable": 33, "numbikesavailable": 17, "mechanical": 16, "ebike": 1, "is_renting": "OUI", "is_returning": "OUI", "duedate": "2024-06-14T14:49:45+00:00", "coordonnees_geo": {"lon": 2.2791311, "lat": 48.8984179}, "nom_arrondissement_communes": "Levallois-Perret", "code_insee_commune": null}, {"stationcode": "14139", "name": "Pierre Larousse - Raymond Losserand", "is_installed": "OUI", "capacity": 30, "numdocksavailable": 28, "numbikesavailable": 2, "mechanical": 0, "ebike": 2, "is_renting": "OUI", "is_returning": "OUI", "duedate": "2024-06-14T14:46:48+00:00", "coordonnees_geo": {"lon": 2.3119183257222176, "lat": 48.83059564231877}, "nom_arrondissement_communes": "Paris", "code_insee_commune": null}, {"stationcode": "15055", "name": "Vasco de Gama", "is_installed": "OUI", "capacity": 54, "numdocksavailable": 12, "numbikesavailable": 42, "mechanical": 32, "ebike": 10, "is_renting": "OUI", "is_returning": "OUI", "duedate": "2024-06-14T14:49:57+00:00", "coordonnees_geo": {"lon": 2.283664085650799, "lat": 48.83671783466264}, "nom_arrondissement_communes": "Paris", "code_insee_commune": null}, {"stationcode": "14130", "name": "Jonquoy - Didot", "is_installed": "OUI", "capacity": 30, "numdocksavailable": 26, "numbikesavailable": 4, "mechanical": 2, "ebike": 2, "is_renting": "OUI", "is_returning": "OUI", "duedate": "2024-06-14T14:48:53+00:00", "coordonnees_geo": {"lon": 2.31648076325655, "lat": 48.82890454823947}, "nom_arrondissement_communes": "Paris", "code_insee_commune": null}, {"stationcode": "10015", "name": "Lucien Sampaix - R\u00e9collets", "is_installed": "OUI", "capacity": 46, "numdocksavailable": 40, "numbikesavailable": 5, "mechanical": 3, "ebike": 2, "is_renting": "OUI", "is_returning": "OUI", "duedate": "2024-06-14T14:49:54+00:00", "coordonnees_geo": {"lon": 2.3621229082345963, "lat": 48.874330377560476}, "nom_arrondissement_communes": "Paris", "code_insee_commune": null}, {"stationcode": "41207", "name": "Place du G\u00e9n\u00e9ral de Gaulle", "is_installed": "OUI", "capacity": 28, "numdocksavailable": 20, "numbikesavailable": 8, "mechanical": 3, "ebike": 5, "is_renting": "OUI", "is_returning": "OUI", "duedate": "2024-06-14T14:45:00+00:00", "coordonnees_geo": {"lon": 2.4877332, "lat": 48.8525288}, "nom_arrondissement_communes": "Fontenay-sous-Bois", "code_insee_commune": null}, {"stationcode": "12011", "name": "Charenton - Place du Col Bourgoin", "is_installed": "OUI", "capacity": 35, "numdocksavailable": 2, "numbikesavailable": 32, "mechanical": 29, "ebike": 3, "is_renting": "OUI", "is_returning": "OUI", "duedate": "2024-06-14T14:49:45+00:00", "coordonnees_geo": {"lon": 2.3825789350545, "lat": 48.844867319554}, "nom_arrondissement_communes": "Paris", "code_insee_commune": null}, {"stationcode": "21019", "name": "Edouard Vaillant - Paul-Adolphe Souriau", "is_installed": "OUI", "capacity": 28, "numdocksavailable": 21, "numbikesavailable": 7, "mechanical": 7, "ebike": 0, "is_renting": "OUI", "is_returning": "OUI", "duedate": "2024-06-14T14:49:56+00:00", "coordonnees_geo": {"lon": 2.2479459643363957, "lat": 48.83484585882868}, "nom_arrondissement_communes": "Boulogne-Billancourt", "code_insee_commune": null}, {"stationcode": "12032", "name": "Porte Dor\u00e9e", "is_installed": "OUI", "capacity": 36, "numdocksavailable": 22, "numbikesavailable": 13, "mechanical": 10, "ebike": 3, "is_renting": "OUI", "is_returning": "OUI", "duedate": "2024-06-14T14:49:45+00:00", "coordonnees_geo": {"lon": 2.4077132, "lat": 48.8354337}, "nom_arrondissement_communes": "Paris", "code_insee_commune": null}, {"stationcode": "15038", "name": "Place Adolphe Cherioux - Vaugirard", "is_installed": "OUI", "capacity": 63, "numdocksavailable": 51, "numbikesavailable": 11, "mechanical": 7, "ebike": 4, "is_renting": "OUI", "is_returning": "OUI", "duedate": "2024-06-14T14:50:08+00:00", "coordonnees_geo": {"lon": 2.3010657727718353, "lat": 48.83959442800459}, "nom_arrondissement_communes": "Paris", "code_insee_commune": null}, {"stationcode": "21032", "name": "S\u00e8vres-Gallieni", "is_installed": "OUI", "capacity": 27, "numdocksavailable": 13, "numbikesavailable": 12, "mechanical": 11, "ebike": 1, "is_renting": "OUI", "is_returning": "OUI", "duedate": "2024-06-14T14:49:01+00:00", "coordonnees_geo": {"lon": 2.2281519323587, "lat": 48.837809408957}, "nom_arrondissement_communes": "Boulogne-Billancourt", "code_insee_commune": null}, {"stationcode": "6018", "name": "Michelet - Assas", "is_installed": "OUI", "capacity": 18, "numdocksavailable": 6, "numbikesavailable": 11, "mechanical": 6, "ebike": 5, "is_renting": "OUI", "is_returning": "OUI", "duedate": "2024-06-14T14:49:59+00:00", "coordonnees_geo": {"lon": 2.3350211977959, "lat": 48.842741502832}, "nom_arrondissement_communes": "Paris", "code_insee_commune": null}, {"stationcode": "31019", "name": "Vincennes - Douy-Delcupe", "is_installed": "OUI", "capacity": 38, "numdocksavailable": 38, "numbikesavailable": 0, "mechanical": 0, "ebike": 0, "is_renting": "OUI", "is_returning": "OUI", "duedate": "2024-06-14T14:49:22+00:00", "coordonnees_geo": {"lon": 2.436049282550812, "lat": 48.85493692155721}, "nom_arrondissement_communes": "Montreuil", "code_insee_commune": null}, {"stationcode": "32014", "name": "Place du Cornillon - Stade de France", "is_installed": "OUI", "capacity": 34, "numdocksavailable": 21, "numbikesavailable": 13, "mechanical": 10, "ebike": 3, "is_renting": "OUI", "is_returning": "OUI", "duedate": "2024-06-14T14:49:45+00:00", "coordonnees_geo": {"lon": 2.3644426837563515, "lat": 48.92540695835961}, "nom_arrondissement_communes": "Saint-Denis", "code_insee_commune": null}, {"stationcode": "17027", "name": "Place du Mar\u00e9chal Juin - P\u00e9reire", "is_installed": "OUI", "capacity": 46, "numdocksavailable": 37, "numbikesavailable": 5, "mechanical": 2, "ebike": 3, "is_renting": "OUI", "is_returning": "OUI", "duedate": "2024-06-14T14:44:29+00:00", "coordonnees_geo": {"lon": 2.298286, "lat": 48.885263}, "nom_arrondissement_communes": "Paris", "code_insee_commune": null}, {"stationcode": "31016", "name": "Lucie Aubrac - Franklin", "is_installed": "OUI", "capacity": 36, "numdocksavailable": 31, "numbikesavailable": 5, "mechanical": 2, "ebike": 3, "is_renting": "OUI", "is_returning": "OUI", "duedate": "2024-06-14T14:50:11+00:00", "coordonnees_geo": {"lon": 2.4435862898826604, "lat": 48.86223916006812}, "nom_arrondissement_communes": "Montreuil", "code_insee_commune": null}, {"stationcode": "2009", "name": "Filles Saint-Thomas - Place de la Bourse", "is_installed": "OUI", "capacity": 58, "numdocksavailable": 15, "numbikesavailable": 43, "mechanical": 26, "ebike": 17, "is_renting": "OUI", "is_returning": "OUI", "duedate": "2024-06-14T14:48:18+00:00", "coordonnees_geo": {"lon": 2.3397543845203, "lat": 48.868899890853}, "nom_arrondissement_communes": "Paris", "code_insee_commune": null}, {"stationcode": "44102", "name": "Verdun - Adrien Damalix", "is_installed": "OUI", "capacity": 26, "numdocksavailable": 20, "numbikesavailable": 5, "mechanical": 3, "ebike": 2, "is_renting": "OUI", "is_returning": "OUI", "duedate": "2024-06-14T14:47:33+00:00", "coordonnees_geo": {"lon": 2.4215328320860863, "lat": 48.8222334178559}, "nom_arrondissement_communes": "Saint-Maurice", "code_insee_commune": null}, {"stationcode": "9115", "name": "Milton - Manuel", "is_installed": "OUI", "capacity": 22, "numdocksavailable": 21, "numbikesavailable": 1, "mechanical": 0, "ebike": 1, "is_renting": "OUI", "is_returning": "OUI", "duedate": "2024-06-14T14:48:09+00:00", "coordonnees_geo": {"lon": 2.341181, "lat": 48.878249}, "nom_arrondissement_communes": "Paris", "code_insee_commune": null}, {"stationcode": "19039", "name": "Edouard Pailleron - Simon Bolivar", "is_installed": "OUI", "capacity": 24, "numdocksavailable": 21, "numbikesavailable": 3, "mechanical": 1, "ebike": 2, "is_renting": "OUI", "is_returning": "OUI", "duedate": "2024-06-14T14:49:55+00:00", "coordonnees_geo": {"lon": 2.374839261174202, "lat": 48.87979886049996}, "nom_arrondissement_communes": "Paris", "code_insee_commune": null}, {"stationcode": "16032", "name": "Eglise d'Auteuil", "is_installed": "OUI", "capacity": 21, "numdocksavailable": 20, "numbikesavailable": 1, "mechanical": 0, "ebike": 1, "is_renting": "OUI", "is_returning": "OUI", "duedate": "2024-06-14T14:48:49+00:00", "coordonnees_geo": {"lon": 2.26848387135299, "lat": 48.84749841771691}, "nom_arrondissement_communes": "Paris", "code_insee_commune": null}, {"stationcode": "17122", "name": "Bridaine - Lamand\u00e9", "is_installed": "OUI", "capacity": 29, "numdocksavailable": 26, "numbikesavailable": 3, "mechanical": 1, "ebike": 2, "is_renting": "OUI", "is_returning": "OUI", "duedate": "2024-06-14T14:49:40+00:00", "coordonnees_geo": {"lon": 2.3206239, "lat": 48.8862074}, "nom_arrondissement_communes": "Paris", "code_insee_commune": null}, {"stationcode": "9023", "name": "Laffitte - Italiens", "is_installed": "OUI", "capacity": 33, "numdocksavailable": 18, "numbikesavailable": 15, "mechanical": 6, "ebike": 9, "is_renting": "OUI", "is_returning": "OUI", "duedate": "2024-06-14T14:46:33+00:00", "coordonnees_geo": {"lon": 2.3372015478451, "lat": 48.871815737396}, "nom_arrondissement_communes": "Paris", "code_insee_commune": null}, {"stationcode": "14122", "name": "Colonel Monteil - Brune", "is_installed": "OUI", "capacity": 19, "numdocksavailable": 17, "numbikesavailable": 2, "mechanical": 1, "ebike": 1, "is_renting": "OUI", "is_returning": "OUI", "duedate": "2024-06-14T14:48:09+00:00", "coordonnees_geo": {"lon": 2.3092747998272, "lat": 48.82650293311}, "nom_arrondissement_communes": "Paris", "code_insee_commune": null}, {"stationcode": "16123", "name": "Mahatma Gandhi", "is_installed": "OUI", "capacity": 26, "numdocksavailable": 18, "numbikesavailable": 7, "mechanical": 4, "ebike": 3, "is_renting": "OUI", "is_returning": "OUI", "duedate": "2024-06-14T14:49:15+00:00", "coordonnees_geo": {"lon": 2.264205, "lat": 48.876356}, "nom_arrondissement_communes": "Paris", "code_insee_commune": null}, {"stationcode": "31007", "name": "Paris - D\u00e9sir\u00e9 Pr\u00e9aux", "is_installed": "OUI", "capacity": 49, "numdocksavailable": 30, "numbikesavailable": 17, "mechanical": 6, "ebike": 11, "is_renting": "OUI", "is_returning": "OUI", "duedate": "2024-06-14T14:49:16+00:00", "coordonnees_geo": {"lon": 2.4323049187660217, "lat": 48.85742876694898}, "nom_arrondissement_communes": "Montreuil", "code_insee_commune": null}, {"stationcode": "15108", "name": "Lourmel - Marie Skobtsov", "is_installed": "OUI", "capacity": 22, "numdocksavailable": 1, "numbikesavailable": 21, "mechanical": 16, "ebike": 5, "is_renting": "OUI", "is_returning": "OUI", "duedate": "2024-06-14T14:47:33+00:00", "coordonnees_geo": {"lon": 2.287283, "lat": 48.844974}, "nom_arrondissement_communes": "Paris", "code_insee_commune": null}, {"stationcode": "6016", "name": "Danton - Serpente", "is_installed": "OUI", "capacity": 22, "numdocksavailable": 8, "numbikesavailable": 12, "mechanical": 9, "ebike": 3, "is_renting": "OUI", "is_returning": "OUI", "duedate": "2024-06-14T14:49:51+00:00", "coordonnees_geo": {"lon": 2.3414132371545, "lat": 48.852297362582}, "nom_arrondissement_communes": "Paris", "code_insee_commune": null}, {"stationcode": "17046", "name": "Mac-Mahon - Brey", "is_installed": "OUI", "capacity": 25, "numdocksavailable": 19, "numbikesavailable": 6, "mechanical": 1, "ebike": 5, "is_renting": "OUI", "is_returning": "OUI", "duedate": "2024-06-14T14:47:53+00:00", "coordonnees_geo": {"lon": 2.294512536052928, "lat": 48.877532084130166}, "nom_arrondissement_communes": "Paris", "code_insee_commune": null}, {"stationcode": "17121", "name": "Square des Epinettes", "is_installed": "OUI", "capacity": 20, "numdocksavailable": 17, "numbikesavailable": 3, "mechanical": 1, "ebike": 2, "is_renting": "OUI", "is_returning": "OUI", "duedate": "2024-06-14T14:49:09+00:00", "coordonnees_geo": {"lon": 2.325953990221024, "lat": 48.89383909781389}, "nom_arrondissement_communes": "Paris", "code_insee_commune": null}, {"stationcode": "10020", "name": "Chabrol - d'Hauteville", "is_installed": "OUI", "capacity": 11, "numdocksavailable": 7, "numbikesavailable": 4, "mechanical": 1, "ebike": 3, "is_renting": "OUI", "is_returning": "OUI", "duedate": "2024-06-14T14:47:04+00:00", "coordonnees_geo": {"lon": 2.3513179644942284, "lat": 48.87701838803332}, "nom_arrondissement_communes": "Paris", "code_insee_commune": null}, {"stationcode": "18113", "name": "Lepic - Arm\u00e9e d'Orient", "is_installed": "OUI", "capacity": 24, "numdocksavailable": 22, "numbikesavailable": 2, "mechanical": 0, "ebike": 2, "is_renting": "OUI", "is_returning": "OUI", "duedate": "2024-06-14T14:49:06+00:00", "coordonnees_geo": {"lon": 2.334307730197907, "lat": 48.88753640381415}, "nom_arrondissement_communes": "Paris", "code_insee_commune": null}, {"stationcode": "18109", "name": "Pajol - Riquet", "is_installed": "OUI", "capacity": 47, "numdocksavailable": 41, "numbikesavailable": 6, "mechanical": 1, "ebike": 5, "is_renting": "OUI", "is_returning": "OUI", "duedate": "2024-06-14T14:49:52+00:00", "coordonnees_geo": {"lon": 2.3628534749150276, "lat": 48.88960028134536}, "nom_arrondissement_communes": "Paris", "code_insee_commune": null}, {"stationcode": "18029", "name": "Emile Blemont - Poteau", "is_installed": "OUI", "capacity": 39, "numdocksavailable": 37, "numbikesavailable": 2, "mechanical": 1, "ebike": 1, "is_renting": "OUI", "is_returning": "OUI", "duedate": "2024-06-14T14:48:09+00:00", "coordonnees_geo": {"lon": 2.3415122, "lat": 48.8943782}, "nom_arrondissement_communes": "Paris", "code_insee_commune": null}, {"stationcode": "20118", "name": "Orteaux - Mouraud", "is_installed": "OUI", "capacity": 24, "numdocksavailable": 19, "numbikesavailable": 5, "mechanical": 1, "ebike": 4, "is_renting": "OUI", "is_returning": "OUI", "duedate": "2024-06-14T14:49:09+00:00", "coordonnees_geo": {"lon": 2.408762907764669, "lat": 48.85558642847872}, "nom_arrondissement_communes": "Paris", "code_insee_commune": null}, {"stationcode": "20023", "name": "Pelleport - Belgrand", "is_installed": "OUI", "capacity": 15, "numdocksavailable": 11, "numbikesavailable": 4, "mechanical": 1, "ebike": 3, "is_renting": "OUI", "is_returning": "OUI", "duedate": "2024-06-14T14:48:36+00:00", "coordonnees_geo": {"lon": 2.403980836377493, "lat": 48.86500081847653}, "nom_arrondissement_communes": "Paris", "code_insee_commune": null}, {"stationcode": "14002", "name": "Edgar Quinet - Raspail", "is_installed": "OUI", "capacity": 46, "numdocksavailable": 11, "numbikesavailable": 33, "mechanical": 2, "ebike": 31, "is_renting": "OUI", "is_returning": "OUI", "duedate": "2024-06-14T14:50:11+00:00", "coordonnees_geo": {"lon": 2.32971478253603, "lat": 48.83940266673835}, "nom_arrondissement_communes": "Paris", "code_insee_commune": null}, {"stationcode": "15035", "name": "Place Etienne Pernet", "is_installed": "OUI", "capacity": 43, "numdocksavailable": 28, "numbikesavailable": 13, "mechanical": 12, "ebike": 1, "is_renting": "OUI", "is_returning": "OUI", "duedate": "2024-06-14T14:50:07+00:00", "coordonnees_geo": {"lon": 2.2921819612383847, "lat": 48.84243457133779}, "nom_arrondissement_communes": "Paris", "code_insee_commune": null}, {"stationcode": "18049", "name": "Porte d'Aubervilliers", "is_installed": "OUI", "capacity": 55, "numdocksavailable": 46, "numbikesavailable": 6, "mechanical": 1, "ebike": 5, "is_renting": "OUI", "is_returning": "OUI", "duedate": "2024-06-14T14:47:04+00:00", "coordonnees_geo": {"lon": 2.3689722642302513, "lat": 48.89859661942376}, "nom_arrondissement_communes": "Paris", "code_insee_commune": null}, {"stationcode": "31703", "name": "Sadi Carnot - Fran\u00e7ois Mitterrand", "is_installed": "OUI", "capacity": 27, "numdocksavailable": 21, "numbikesavailable": 6, "mechanical": 1, "ebike": 5, "is_renting": "OUI", "is_returning": "OUI", "duedate": "2024-06-14T14:49:26+00:00", "coordonnees_geo": {"lon": 2.4241617321968083, "lat": 48.87532687671517}, "nom_arrondissement_communes": "Bagnolet", "code_insee_commune": null}, {"stationcode": "35003", "name": "Gabrielle Josserand - Edouard Vaillant", "is_installed": "OUI", "capacity": 25, "numdocksavailable": 14, "numbikesavailable": 9, "mechanical": 7, "ebike": 2, "is_renting": "OUI", "is_returning": "OUI", "duedate": "2024-06-14T14:50:05+00:00", "coordonnees_geo": {"lon": 2.3933270573616032, "lat": 48.90271566255436}, "nom_arrondissement_communes": "Pantin", "code_insee_commune": null}, {"stationcode": "21014", "name": "Hameau Fleuri - March\u00e9", "is_installed": "OUI", "capacity": 22, "numdocksavailable": 16, "numbikesavailable": 6, "mechanical": 6, "ebike": 0, "is_renting": "OUI", "is_returning": "OUI", "duedate": "2024-06-14T14:49:42+00:00", "coordonnees_geo": {"lon": 2.2412404417991643, "lat": 48.831448892608314}, "nom_arrondissement_communes": "Boulogne-Billancourt", "code_insee_commune": null}, {"stationcode": "11006", "name": "Ledru-Rollin - Place du P\u00e8re Chaillet", "is_installed": "OUI", "capacity": 37, "numdocksavailable": 6, "numbikesavailable": 31, "mechanical": 28, "ebike": 3, "is_renting": "OUI", "is_returning": "OUI", "duedate": "2024-06-14T14:46:38+00:00", "coordonnees_geo": {"lon": 2.379020587761426, "lat": 48.856433706943704}, "nom_arrondissement_communes": "Paris", "code_insee_commune": null}, {"stationcode": "47005", "name": "Ecole V\u00e9t\u00e9rinaire", "is_installed": "OUI", "capacity": 36, "numdocksavailable": 9, "numbikesavailable": 27, "mechanical": 26, "ebike": 1, "is_renting": "OUI", "is_returning": "OUI", "duedate": "2024-06-14T14:49:56+00:00", "coordonnees_geo": {"lon": 2.4224362157778994, "lat": 48.81488859822486}, "nom_arrondissement_communes": "Maisons-Alfort", "code_insee_commune": null}, {"stationcode": "14112", "name": "M\u00e9chain - Faubourg Saint-Jacques", "is_installed": "OUI", "capacity": 16, "numdocksavailable": 14, "numbikesavailable": 1, "mechanical": 1, "ebike": 0, "is_renting": "OUI", "is_returning": "OUI", "duedate": "2024-06-14T14:49:42+00:00", "coordonnees_geo": {"lon": 2.33798034198275, "lat": 48.83586772099485}, "nom_arrondissement_communes": "Paris", "code_insee_commune": null}, {"stationcode": "9026", "name": "Jean-Baptiste Pigalle - La Bruyere", "is_installed": "OUI", "capacity": 17, "numdocksavailable": 12, "numbikesavailable": 5, "mechanical": 1, "ebike": 4, "is_renting": "OUI", "is_returning": "OUI", "duedate": "2024-06-14T14:50:12+00:00", "coordonnees_geo": {"lon": 2.333709173337285, "lat": 48.87939826447722}, "nom_arrondissement_communes": "Paris", "code_insee_commune": null}, {"stationcode": "18033", "name": "Belliard - Damr\u00e9mont", "is_installed": "OUI", "capacity": 34, "numdocksavailable": 32, "numbikesavailable": 1, "mechanical": 1, "ebike": 0, "is_renting": "OUI", "is_returning": "OUI", "duedate": "2024-06-14T14:49:46+00:00", "coordonnees_geo": {"lon": 2.338023450388167, "lat": 48.89669238777841}, "nom_arrondissement_communes": "Paris", "code_insee_commune": null}, {"stationcode": "21310", "name": "Kl\u00e9ber - Gouverneur G\u00e9n\u00e9ral Ebou\u00e9", "is_installed": "OUI", "capacity": 24, "numdocksavailable": 2, "numbikesavailable": 22, "mechanical": 13, "ebike": 9, "is_renting": "OUI", "is_returning": "OUI", "duedate": "2024-06-14T14:48:21+00:00", "coordonnees_geo": {"lon": 2.2723413258790965, "lat": 48.826885843069796}, "nom_arrondissement_communes": "Issy-les-Moulineaux", "code_insee_commune": null}, {"stationcode": "23007", "name": "Pr\u00e9sident Wilson - Jean Jaures", "is_installed": "OUI", "capacity": 27, "numdocksavailable": 16, "numbikesavailable": 10, "mechanical": 5, "ebike": 5, "is_renting": "OUI", "is_returning": "OUI", "duedate": "2024-06-14T14:49:05+00:00", "coordonnees_geo": {"lon": 2.2920683026313786, "lat": 48.89034054052266}, "nom_arrondissement_communes": "Levallois-Perret", "code_insee_commune": null}, {"stationcode": "32015", "name": "Gare RER de Saint-Denis", "is_installed": "OUI", "capacity": 40, "numdocksavailable": 29, "numbikesavailable": 8, "mechanical": 3, "ebike": 5, "is_renting": "OUI", "is_returning": "OUI", "duedate": "2024-06-14T14:47:03+00:00", "coordonnees_geo": {"lon": 2.3471488058567047, "lat": 48.93554324248177}, "nom_arrondissement_communes": "Saint-Denis", "code_insee_commune": null}, {"stationcode": "5121", "name": "Square Ren\u00e9 Viviani - Montebello", "is_installed": "OUI", "capacity": 34, "numdocksavailable": 8, "numbikesavailable": 23, "mechanical": 19, "ebike": 4, "is_renting": "OUI", "is_returning": "OUI", "duedate": "2024-06-14T14:47:21+00:00", "coordonnees_geo": {"lon": 2.347842156887055, "lat": 48.851904891406384}, "nom_arrondissement_communes": "Paris", "code_insee_commune": null}, {"stationcode": "16043", "name": "Place de Passy", "is_installed": "OUI", "capacity": 15, "numdocksavailable": 12, "numbikesavailable": 3, "mechanical": 0, "ebike": 3, "is_renting": "OUI", "is_returning": "OUI", "duedate": "2024-06-14T14:40:34+00:00", "coordonnees_geo": {"lon": 2.277500546942199, "lat": 48.85780291711202}, "nom_arrondissement_communes": "Paris", "code_insee_commune": null}, {"stationcode": "20116", "name": "Haies - R\u00e9union", "is_installed": "OUI", "capacity": 16, "numdocksavailable": 15, "numbikesavailable": 1, "mechanical": 0, "ebike": 1, "is_renting": "OUI", "is_returning": "OUI", "duedate": "2024-06-14T14:47:12+00:00", "coordonnees_geo": {"lon": 2.402426162238911, "lat": 48.85386896766491}, "nom_arrondissement_communes": "Paris", "code_insee_commune": null}, {"stationcode": "6107", "name": "Place Alphonse Deville", "is_installed": "OUI", "capacity": 23, "numdocksavailable": 3, "numbikesavailable": 19, "mechanical": 17, "ebike": 2, "is_renting": "OUI", "is_returning": "OUI", "duedate": "2024-06-14T14:49:44+00:00", "coordonnees_geo": {"lon": 2.3275961726904, "lat": 48.850188262662}, "nom_arrondissement_communes": "Paris", "code_insee_commune": null}, {"stationcode": "16029", "name": "Maison de Radio - France", "is_installed": "OUI", "capacity": 47, "numdocksavailable": 22, "numbikesavailable": 22, "mechanical": 21, "ebike": 1, "is_renting": "OUI", "is_returning": "OUI", "duedate": "2024-06-14T14:49:50+00:00", "coordonnees_geo": {"lon": 2.277785539627075, "lat": 48.85132886434057}, "nom_arrondissement_communes": "Paris", "code_insee_commune": null}, {"stationcode": "9017", "name": "Lallier - Trudaine", "is_installed": "OUI", "capacity": 29, "numdocksavailable": 25, "numbikesavailable": 3, "mechanical": 0, "ebike": 3, "is_renting": "OUI", "is_returning": "OUI", "duedate": "2024-06-14T14:48:30+00:00", "coordonnees_geo": {"lon": 2.3408224806189537, "lat": 48.88109246617963}, "nom_arrondissement_communes": "Paris", "code_insee_commune": null}, {"stationcode": "18008", "name": "Square L\u00e9on", "is_installed": "OUI", "capacity": 33, "numdocksavailable": 27, "numbikesavailable": 5, "mechanical": 1, "ebike": 4, "is_renting": "OUI", "is_returning": "OUI", "duedate": "2024-06-14T14:49:40+00:00", "coordonnees_geo": {"lon": 2.353205569088459, "lat": 48.88667396788626}, "nom_arrondissement_communes": "Paris", "code_insee_commune": null}, {"stationcode": "7008", "name": "Villersexel - Saint-Germain", "is_installed": "OUI", "capacity": 16, "numdocksavailable": 10, "numbikesavailable": 6, "mechanical": 5, "ebike": 1, "is_renting": "OUI", "is_returning": "OUI", "duedate": "2024-06-14T14:43:22+00:00", "coordonnees_geo": {"lon": 2.3237934708595, "lat": 48.858297001218}, "nom_arrondissement_communes": "Paris", "code_insee_commune": null}, {"stationcode": "16112", "name": "Chernoviz - Raynouard", "is_installed": "OUI", "capacity": 37, "numdocksavailable": 34, "numbikesavailable": 3, "mechanical": 0, "ebike": 3, "is_renting": "OUI", "is_returning": "OUI", "duedate": "2024-06-14T14:49:24+00:00", "coordonnees_geo": {"lon": 2.282173218142987, "lat": 48.8569864146289}, "nom_arrondissement_communes": "Paris", "code_insee_commune": null}, {"stationcode": "42703", "name": "Fontainebleau - Edmond Michelet", "is_installed": "OUI", "capacity": 45, "numdocksavailable": 39, "numbikesavailable": 6, "mechanical": 2, "ebike": 4, "is_renting": "OUI", "is_returning": "OUI", "duedate": "2024-06-14T14:48:34+00:00", "coordonnees_geo": {"lon": 2.3626908659935, "lat": 48.80956436844049}, "nom_arrondissement_communes": "Le Kremlin-Bic\u00eatre", "code_insee_commune": null}, {"stationcode": "14030", "name": "Pernety - Raymond Losserand", "is_installed": "OUI", "capacity": 32, "numdocksavailable": 20, "numbikesavailable": 11, "mechanical": 6, "ebike": 5, "is_renting": "OUI", "is_returning": "OUI", "duedate": "2024-06-14T14:44:00+00:00", "coordonnees_geo": {"lon": 2.317609339387, "lat": 48.834254627953}, "nom_arrondissement_communes": "Paris", "code_insee_commune": null}, {"stationcode": "15003", "name": "Gare Montparnasse - Vaugirard", "is_installed": "OUI", "capacity": 66, "numdocksavailable": 1, "numbikesavailable": 64, "mechanical": 15, "ebike": 49, "is_renting": "OUI", "is_returning": "OUI", "duedate": "2024-06-14T14:48:57+00:00", "coordonnees_geo": {"lon": 2.31951002690117, "lat": 48.8418071798797}, "nom_arrondissement_communes": "Paris", "code_insee_commune": null}, {"stationcode": "6032", "name": "Sabot - Rennes", "is_installed": "OUI", "capacity": 26, "numdocksavailable": 21, "numbikesavailable": 5, "mechanical": 4, "ebike": 1, "is_renting": "OUI", "is_returning": "OUI", "duedate": "2024-06-14T14:49:51+00:00", "coordonnees_geo": {"lon": 2.331552766263485, "lat": 48.852575112948415}, "nom_arrondissement_communes": "Paris", "code_insee_commune": null}, {"stationcode": "7020", "name": "Champ de Mars - Cler", "is_installed": "OUI", "capacity": 40, "numdocksavailable": 21, "numbikesavailable": 18, "mechanical": 17, "ebike": 1, "is_renting": "OUI", "is_returning": "OUI", "duedate": "2024-06-14T14:48:58+00:00", "coordonnees_geo": {"lon": 2.306646779179573, "lat": 48.856691550115315}, "nom_arrondissement_communes": "Paris", "code_insee_commune": null}, {"stationcode": "10036", "name": "Aqueduc - Villette", "is_installed": "OUI", "capacity": 28, "numdocksavailable": 20, "numbikesavailable": 6, "mechanical": 1, "ebike": 5, "is_renting": "OUI", "is_returning": "OUI", "duedate": "2024-06-14T14:50:10+00:00", "coordonnees_geo": {"lon": 2.367198803315, "lat": 48.883886063895}, "nom_arrondissement_communes": "Paris", "code_insee_commune": null}, {"stationcode": "23304", "name": "Mairie de Sceaux", "is_installed": "OUI", "capacity": 33, "numdocksavailable": 31, "numbikesavailable": 2, "mechanical": 1, "ebike": 1, "is_renting": "OUI", "is_returning": "OUI", "duedate": "2024-06-14T14:47:14+00:00", "coordonnees_geo": {"lon": 2.2887361764861, "lat": 48.778916905132}, "nom_arrondissement_communes": "Sceaux", "code_insee_commune": null}, {"stationcode": "6017", "name": "S\u00e9nat - Cond\u00e9", "is_installed": "OUI", "capacity": 33, "numdocksavailable": 2, "numbikesavailable": 31, "mechanical": 15, "ebike": 16, "is_renting": "OUI", "is_returning": "OUI", "duedate": "2024-06-14T14:49:43+00:00", "coordonnees_geo": {"lon": 2.337939441204071, "lat": 48.84954227788459}, "nom_arrondissement_communes": "Paris", "code_insee_commune": null}, {"stationcode": "1117", "name": "Pont Neuf - Rivoli", "is_installed": "OUI", "capacity": 27, "numdocksavailable": 5, "numbikesavailable": 20, "mechanical": 16, "ebike": 4, "is_renting": "OUI", "is_returning": "OUI", "duedate": "2024-06-14T14:49:53+00:00", "coordonnees_geo": {"lon": 2.344057559967, "lat": 48.860089892617}, "nom_arrondissement_communes": "Paris", "code_insee_commune": null}, {"stationcode": "20137", "name": "Borr\u00e9go - Gambetta", "is_installed": "OUI", "capacity": 25, "numdocksavailable": 24, "numbikesavailable": 1, "mechanical": 0, "ebike": 1, "is_renting": "OUI", "is_returning": "OUI", "duedate": "2024-06-14T14:44:38+00:00", "coordonnees_geo": {"lon": 2.4014145880937576, "lat": 48.87330497045532}, "nom_arrondissement_communes": "Paris", "code_insee_commune": null}, {"stationcode": "23903", "name": "Stade Gaston Bouillant", "is_installed": "OUI", "capacity": 30, "numdocksavailable": 9, "numbikesavailable": 21, "mechanical": 14, "ebike": 7, "is_renting": "OUI", "is_returning": "OUI", "duedate": "2024-06-14T14:47:44+00:00", "coordonnees_geo": {"lon": 2.3279571813836, "lat": 48.939958667023}, "nom_arrondissement_communes": "Villeneuve-la-Garenne", "code_insee_commune": null}, {"stationcode": "21311", "name": "Parvis Corentin Celton", "is_installed": "OUI", "capacity": 55, "numdocksavailable": 9, "numbikesavailable": 45, "mechanical": 43, "ebike": 2, "is_renting": "OUI", "is_returning": "OUI", "duedate": "2024-06-14T14:50:10+00:00", "coordonnees_geo": {"lon": 2.2784319519996648, "lat": 48.82747252522725}, "nom_arrondissement_communes": "Issy-les-Moulineaux", "code_insee_commune": null}, {"stationcode": "12041", "name": "Bois de Vincennes.", "is_installed": "OUI", "capacity": 60, "numdocksavailable": 32, "numbikesavailable": 27, "mechanical": 25, "ebike": 2, "is_renting": "OUI", "is_returning": "OUI", "duedate": "2024-06-14T14:50:11+00:00", "coordonnees_geo": {"lon": 2.4132221, "lat": 48.8338064}, "nom_arrondissement_communes": "Saint-Mand\u00e9", "code_insee_commune": null}, {"stationcode": "15059", "name": "Parc Andr\u00e9 Citro\u00ebn", "is_installed": "OUI", "capacity": 65, "numdocksavailable": 16, "numbikesavailable": 49, "mechanical": 47, "ebike": 2, "is_renting": "OUI", "is_returning": "OUI", "duedate": "2024-06-14T14:48:02+00:00", "coordonnees_geo": {"lon": 2.2780618071556096, "lat": 48.840639944296655}, "nom_arrondissement_communes": "Paris", "code_insee_commune": null}, {"stationcode": "23403", "name": "Chateau", "is_installed": "OUI", "capacity": 22, "numdocksavailable": 7, "numbikesavailable": 14, "mechanical": 8, "ebike": 6, "is_renting": "OUI", "is_returning": "OUI", "duedate": "2024-06-14T14:47:47+00:00", "coordonnees_geo": {"lon": 2.3135878035462, "lat": 48.774661399959}, "nom_arrondissement_communes": "Bourg-la-Reine", "code_insee_commune": null}, {"stationcode": "4013", "name": "Vieille du Temple - Francs Bourgeois", "is_installed": "OUI", "capacity": 29, "numdocksavailable": 4, "numbikesavailable": 24, "mechanical": 22, "ebike": 2, "is_renting": "OUI", "is_returning": "OUI", "duedate": "2024-06-14T14:49:17+00:00", "coordonnees_geo": {"lon": 2.35821794718504, "lat": 48.858256413365815}, "nom_arrondissement_communes": "Paris", "code_insee_commune": null}, {"stationcode": "4011", "name": "H\u00f4tel de Ville - Pont-Marie", "is_installed": "OUI", "capacity": 36, "numdocksavailable": 23, "numbikesavailable": 13, "mechanical": 6, "ebike": 7, "is_renting": "OUI", "is_returning": "OUI", "duedate": "2024-06-14T14:50:03+00:00", "coordonnees_geo": {"lon": 2.3569472506642, "lat": 48.853899645527}, "nom_arrondissement_communes": "Paris", "code_insee_commune": null}, {"stationcode": "45001", "name": "H\u00f4tel de Ville de Champigny sur Marne", "is_installed": "OUI", "capacity": 21, "numdocksavailable": 2, "numbikesavailable": 19, "mechanical": 11, "ebike": 8, "is_renting": "OUI", "is_returning": "OUI", "duedate": "2024-06-14T14:47:26+00:00", "coordonnees_geo": {"lon": 2.5096759200096, "lat": 48.813810628405}, "nom_arrondissement_communes": "Champigny-sur-Marne", "code_insee_commune": null}, {"stationcode": "31023", "name": "Place Fran\u00e7ois Mitterand", "is_installed": "OUI", "capacity": 34, "numdocksavailable": 29, "numbikesavailable": 5, "mechanical": 1, "ebike": 4, "is_renting": "OUI", "is_returning": "OUI", "duedate": "2024-06-14T14:41:57+00:00", "coordonnees_geo": {"lon": 2.442958317697048, "lat": 48.86492782016328}, "nom_arrondissement_communes": "Montreuil", "code_insee_commune": null}, {"stationcode": "9118", "name": "Faubourg Poissonniere - Delta", "is_installed": "OUI", "capacity": 36, "numdocksavailable": 34, "numbikesavailable": 1, "mechanical": 0, "ebike": 1, "is_renting": "OUI", "is_returning": "OUI", "duedate": "2024-06-14T14:43:35+00:00", "coordonnees_geo": {"lon": 2.3497482016682625, "lat": 48.882555807626765}, "nom_arrondissement_communes": "Paris", "code_insee_commune": null}, {"stationcode": "10163", "name": "Gare du Nord - Demarquay", "is_installed": "OUI", "capacity": 30, "numdocksavailable": 28, "numbikesavailable": 2, "mechanical": 1, "ebike": 1, "is_renting": "OUI", "is_returning": "OUI", "duedate": "2024-06-14T14:49:43+00:00", "coordonnees_geo": {"lon": 2.358411, "lat": 48.881154}, "nom_arrondissement_communes": "Paris", "code_insee_commune": null}, {"stationcode": "2001", "name": "Greneta - Sebastopol", "is_installed": "OUI", "capacity": 32, "numdocksavailable": 4, "numbikesavailable": 26, "mechanical": 19, "ebike": 7, "is_renting": "OUI", "is_returning": "OUI", "duedate": "2024-06-14T14:50:06+00:00", "coordonnees_geo": {"lon": 2.3516669869423, "lat": 48.865242333228}, "nom_arrondissement_communes": "Paris", "code_insee_commune": null}, {"stationcode": "7016", "name": "Surcouf - Universit\u00e9", "is_installed": "OUI", "capacity": 58, "numdocksavailable": 52, "numbikesavailable": 0, "mechanical": 0, "ebike": 0, "is_renting": "NON", "is_returning": "NON", "duedate": "2024-06-14T14:46:31+00:00", "coordonnees_geo": {"lon": 2.3094535509142, "lat": 48.861273016278}, "nom_arrondissement_communes": "Paris", "code_insee_commune": null}, {"stationcode": "10010", "name": "Place Jacques Bonsergent", "is_installed": "OUI", "capacity": 33, "numdocksavailable": 1, "numbikesavailable": 28, "mechanical": 25, "ebike": 3, "is_renting": "OUI", "is_returning": "OUI", "duedate": "2024-06-14T18:50:01+00:00", "coordonnees_geo": {"lon": 2.3612049221992, "lat": 48.870948218595}, "nom_arrondissement_communes": "Paris", "code_insee_commune": null}, {"stationcode": "16043", "name": "Place de Passy", "is_installed": "OUI", "capacity": 15, "numdocksavailable": 7, "numbikesavailable": 8, "mechanical": 4, "ebike": 4, "is_renting": "OUI", "is_returning": "OUI", "duedate": "2024-06-14T18:48:07+00:00", "coordonnees_geo": {"lon": 2.277500546942199, "lat": 48.85780291711202}, "nom_arrondissement_communes": "Paris", "code_insee_commune": null}, {"stationcode": "20116", "name": "Haies - R\u00e9union", "is_installed": "OUI", "capacity": 16, "numdocksavailable": 12, "numbikesavailable": 4, "mechanical": 0, "ebike": 4, "is_renting": "OUI", "is_returning": "OUI", "duedate": "2024-06-14T18:49:00+00:00", "coordonnees_geo": {"lon": 2.402426162238911, "lat": 48.85386896766491}, "nom_arrondissement_communes": "Paris", "code_insee_commune": null}, {"stationcode": "16027", "name": "Mozart - Jasmin", "is_installed": "OUI", "capacity": 62, "numdocksavailable": 54, "numbikesavailable": 8, "mechanical": 4, "ebike": 4, "is_renting": "OUI", "is_returning": "OUI", "duedate": "2024-06-14T18:49:54+00:00", "coordonnees_geo": {"lon": 2.268483570651513, "lat": 48.85286124871689}, "nom_arrondissement_communes": "Paris", "code_insee_commune": null}, {"stationcode": "6107", "name": "Place Alphonse Deville", "is_installed": "OUI", "capacity": 23, "numdocksavailable": 10, "numbikesavailable": 11, "mechanical": 8, "ebike": 3, "is_renting": "OUI", "is_returning": "OUI", "duedate": "2024-06-14T18:48:27+00:00", "coordonnees_geo": {"lon": 2.3275961726904, "lat": 48.850188262662}, "nom_arrondissement_communes": "Paris", "code_insee_commune": null}, {"stationcode": "18017", "name": "Caulaincourt - Place Constantin Pecqueur", "is_installed": "OUI", "capacity": 44, "numdocksavailable": 29, "numbikesavailable": 14, "mechanical": 0, "ebike": 14, "is_renting": "OUI", "is_returning": "OUI", "duedate": "2024-06-14T18:49:42+00:00", "coordonnees_geo": {"lon": 2.33817871442611, "lat": 48.8896779050281}, "nom_arrondissement_communes": "Paris", "code_insee_commune": null}, {"stationcode": "32004", "name": "Wilson - Landy", "is_installed": "OUI", "capacity": 40, "numdocksavailable": 31, "numbikesavailable": 8, "mechanical": 3, "ebike": 5, "is_renting": "OUI", "is_returning": "OUI", "duedate": "2024-06-14T18:50:06+00:00", "coordonnees_geo": {"lon": 2.357633225619793, "lat": 48.91516726221354}, "nom_arrondissement_communes": "Saint-Denis", "code_insee_commune": null}, {"stationcode": "14030", "name": "Pernety - Raymond Losserand", "is_installed": "OUI", "capacity": 32, "numdocksavailable": 27, "numbikesavailable": 4, "mechanical": 4, "ebike": 0, "is_renting": "OUI", "is_returning": "OUI", "duedate": "2024-06-14T18:48:50+00:00", "coordonnees_geo": {"lon": 2.317609339387, "lat": 48.834254627953}, "nom_arrondissement_communes": "Paris", "code_insee_commune": null}, {"stationcode": "20201", "name": "Eug\u00e8ne Reisz - Davout", "is_installed": "OUI", "capacity": 20, "numdocksavailable": 17, "numbikesavailable": 2, "mechanical": 1, "ebike": 1, "is_renting": "OUI", "is_returning": "OUI", "duedate": "2024-06-14T18:47:10+00:00", "coordonnees_geo": {"lon": 2.410396970808506, "lat": 48.85631874632638}, "nom_arrondissement_communes": "Paris", "code_insee_commune": null}, {"stationcode": "15003", "name": "Gare Montparnasse - Vaugirard", "is_installed": "OUI", "capacity": 66, "numdocksavailable": 15, "numbikesavailable": 50, "mechanical": 26, "ebike": 24, "is_renting": "OUI", "is_returning": "OUI", "duedate": "2024-06-14T18:50:21+00:00", "coordonnees_geo": {"lon": 2.31951002690117, "lat": 48.8418071798797}, "nom_arrondissement_communes": "Paris", "code_insee_commune": null}]