[{"stationcode": "12016", "name": "Saint-Mande - Picpus", "is_installed": "OUI", "capacity": 35, "numdocksavailable": 25, "numbikesavailable": 9, "mechanical": 6, "ebike": 3, "is_renting": "OUI", "is_returning": "OUI", "duedate": "2024-06-16T06:52:04+00:00", "coordonnees_geo": {"lon": 2.4015686296482, "lat": 48.845127728278}, "nom_arrondissement_communes": "Paris", "code_insee_commune": null}, {"stationcode": "23301", "name": "Les Blagis", "is_installed": "OUI", "capacity": 27, "numdocksavailable": 2, "numbikesavailable": 25, "mechanical": 20, "ebike": 5, "is_renting": "OUI", "is_returning": "OUI", "duedate": "2024-06-16T06:53:51+00:00", "coordonnees_geo": {"lon": 2.302526, "lat": 48.785205}, "nom_arrondissement_communes": "Sceaux", "code_insee_commune": null}, {"stationcode": "42210", "name": "Victor Hugo - Paul Eluard", "is_installed": "OUI", "capacity": 32, "numdocksavailable": 5, "numbikesavailable": 27, "mechanical": 21, "ebike": 6, "is_renting": "OUI", "is_returning": "OUI", "duedate": "2024-06-16T06:50:04+00:00", "coordonnees_geo": {"lon": 2.4114319673051, "lat": 48.819602554907}, "nom_arrondissement_communes": "Charenton-le-Pont", "code_insee_commune": null}, {"stationcode": "44008", "name": "Youri Gagarine - Commune de Paris", "is_installed": "OUI", "capacity": 33, "numdocksavailable": 7, "numbikesavailable": 25, "mechanical": 9, "ebike": 16, "is_renting": "OUI", "is_returning": "OUI", "duedate": "2024-06-16T06:54:36+00:00", "coordonnees_geo": {"lon": 2.3939734697342, "lat": 48.782427463041}, "nom_arrondissement_communes": "Vitry-sur-Seine", "code_insee_commune": null}, {"stationcode": "21011", "name": "Silly - Louis Bl\u00e9riot", "is_installed": "OUI", "capacity": 23, "numdocksavailable": 15, "numbikesavailable": 8, "mechanical": 7, "ebike": 1, "is_renting": "OUI", "is_returning": "OUI", "duedate": "2024-06-16T06:51:32+00:00", "coordonnees_geo": {"lon": 2.2340199351310734, "lat": 48.83219045374266}, "nom_arrondissement_communes": "Boulogne-Billancourt", "code_insee_commune": null}, {"stationcode": "20140", "name": "Paganini - Davout", "is_installed": "OUI", "capacity": 22, "numdocksavailable": 13, "numbikesavailable": 8, "mechanical": 8, "ebike": 0, "is_renting": "OUI", "is_returning": "OUI", "duedate": "2024-06-16T06:54:40+00:00", "coordonnees_geo": {"lon": 2.412021, "lat": 48.85135}, "nom_arrondissement_communes": "Paris", "code_insee_commune": null}, {"stationcode": "23303", "name": "Gare de Robinson", "is_installed": "OUI", "capacity": 30, "numdocksavailable": 24, "numbikesavailable": 6, "mechanical": 4, "ebike": 2, "is_renting": "OUI", "is_returning": "OUI", "duedate": "2024-06-16T06:52:05+00:00", "coordonnees_geo": {"lon": 2.281828634440899, "lat": 48.7799259211605}, "nom_arrondissement_communes": "Sceaux", "code_insee_commune": null}, {"stationcode": "26012", "name": "Jardin Mod\u00e8le - Pierre Boudou", "is_installed": "OUI", "capacity": 18, "numdocksavailable": 9, "numbikesavailable": 9, "mechanical": 3, "ebike": 6, "is_renting": "OUI", "is_returning": "OUI", "duedate": "2024-06-16T06:54:23+00:00", "coordonnees_geo": {"lon": 2.3057010525935, "lat": 48.914866710946}, "nom_arrondissement_communes": "Asni\u00e8res-sur-Seine", "code_insee_commune": null}, {"stationcode": "10166", "name": "Strasbourg - Saint-Denis", "is_installed": "OUI", "capacity": 16, "numdocksavailable": 13, "numbikesavailable": 2, "mechanical": 2, "ebike": 0, "is_renting": "OUI", "is_returning": "OUI", "duedate": "2024-06-16T06:51:29+00:00", "coordonnees_geo": {"lon": 2.3542908579111, "lat": 48.869601642433}, "nom_arrondissement_communes": "Paris", "code_insee_commune": null}, {"stationcode": "23202", "name": "Henri Barbusse - Gabriel P\u00e9ri", "is_installed": "OUI", "capacity": 27, "numdocksavailable": 15, "numbikesavailable": 12, "mechanical": 0, "ebike": 12, "is_renting": "OUI", "is_returning": "OUI", "duedate": "2024-06-16T06:51:16+00:00", "coordonnees_geo": {"lon": 2.2874166362216, "lat": 48.801773795836}, "nom_arrondissement_communes": "Ch\u00e2tillon", "code_insee_commune": null}, {"stationcode": "13049", "name": "Vincent Auriol - Louise Weiss", "is_installed": "OUI", "capacity": 22, "numdocksavailable": 11, "numbikesavailable": 10, "mechanical": 9, "ebike": 1, "is_renting": "OUI", "is_returning": "OUI", "duedate": "2024-06-16T06:51:58+00:00", "coordonnees_geo": {"lon": 2.3703888058662, "lat": 48.834001935501}, "nom_arrondissement_communes": "Paris", "code_insee_commune": null}, {"stationcode": "6015", "name": "Andr\u00e9 Mazet - Saint-Andr\u00e9 des Arts", "is_installed": "OUI", "capacity": 55, "numdocksavailable": 32, "numbikesavailable": 23, "mechanical": 23, "ebike": 0, "is_renting": "OUI", "is_returning": "OUI", "duedate": "2024-06-16T06:54:39+00:00", "coordonnees_geo": {"lon": 2.3390958085656166, "lat": 48.85375581057431}, "nom_arrondissement_communes": "Paris", "code_insee_commune": null}, {"stationcode": "17202", "name": "Mariotte - Batignolles", "is_installed": "OUI", "capacity": 20, "numdocksavailable": 15, "numbikesavailable": 5, "mechanical": 4, "ebike": 1, "is_renting": "OUI", "is_returning": "OUI", "duedate": "2024-06-16T06:53:49+00:00", "coordonnees_geo": {"lon": 2.321469503475, "lat": 48.884571659595}, "nom_arrondissement_communes": "Paris", "code_insee_commune": null}, {"stationcode": "32011", "name": "Stade de France - Francis de Pressens\u00e9", "is_installed": "OUI", "capacity": 44, "numdocksavailable": 32, "numbikesavailable": 10, "mechanical": 3, "ebike": 7, "is_renting": "OUI", "is_returning": "OUI", "duedate": "2024-06-16T06:53:06+00:00", "coordonnees_geo": {"lon": 2.3620655760169, "lat": 48.919141953558}, "nom_arrondissement_communes": "Saint-Denis", "code_insee_commune": null}, {"stationcode": "17020", "name": "Jouffroy d'Abbans - Malesherbes", "is_installed": "OUI", "capacity": 27, "numdocksavailable": 17, "numbikesavailable": 10, "mechanical": 2, "ebike": 8, "is_renting": "OUI", "is_returning": "OUI", "duedate": "2024-06-16T06:52:53+00:00", "coordonnees_geo": {"lon": 2.3070717, "lat": 48.8850134}, "nom_arrondissement_communes": "Paris", "code_insee_commune": null}, {"stationcode": "23206", "name": "B\u00e9ranger - F\u00e9lix Faure", "is_installed": "OUI", "capacity": 28, "numdocksavailable": 26, "numbikesavailable": 2, "mechanical": 1, "ebike": 1, "is_renting": "OUI", "is_returning": "OUI", "duedate": "2024-06-16T06:47:59+00:00", "coordonnees_geo": {"lon": 2.2848263373723436, "lat": 48.80404828621485}, "nom_arrondissement_communes": "Ch\u00e2tillon", "code_insee_commune": null}, {"stationcode": "18010", "name": "Riquet - Marx Dormoy", "is_installed": "OUI", "capacity": 26, "numdocksavailable": 26, "numbikesavailable": 0, "mechanical": 0, "ebike": 0, "is_renting": "NON", "is_returning": "NON", "duedate": "2023-08-08T15:42:30+00:00", "coordonnees_geo": {"lon": 2.3601756244898, "lat": 48.89021003702}, "nom_arrondissement_communes": "Paris", "code_insee_commune": null}, {"stationcode": "20142", "name": "M\u00fbriers - P\u00e8re Lachaise", "is_installed": "OUI", "capacity": 20, "numdocksavailable": 16, "numbikesavailable": 3, "mechanical": 1, "ebike": 2, "is_renting": "OUI", "is_returning": "OUI", "duedate": "2024-06-16T06:49:04+00:00", "coordonnees_geo": {"lon": 2.39164982067019, "lat": 48.864130509668044}, "nom_arrondissement_communes": "Paris", "code_insee_commune": null}, {"stationcode": "48001", "name": "Chastenet de G\u00e9ry - Marcel Paul", "is_installed": "OUI", "capacity": 25, "numdocksavailable": 11, "numbikesavailable": 13, "mechanical": 1, "ebike": 12, "is_renting": "OUI", "is_returning": "OUI", "duedate": "2024-06-16T06:52:28+00:00", "coordonnees_geo": {"lon": 2.3567359, "lat": 48.800123}, "nom_arrondissement_communes": "Villejuif", "code_insee_commune": null}, {"stationcode": "18135", "name": "Ney - Porte de Montmartre", "is_installed": "OUI", "capacity": 24, "numdocksavailable": 18, "numbikesavailable": 5, "mechanical": 0, "ebike": 5, "is_renting": "OUI", "is_returning": "OUI", "duedate": "2024-06-16T06:50:17+00:00", "coordonnees_geo": {"lon": 2.3364872, "lat": 48.897918}, "nom_arrondissement_communes": "Paris", "code_insee_commune": null}, {"stationcode": "21329", "name": "Gare - Aristide Briand", "is_installed": "OUI", "capacity": 29, "numdocksavailable": 5, "numbikesavailable": 22, "mechanical": 12, "ebike": 10, "is_renting": "OUI", "is_returning": "OUI", "duedate": "2024-06-16T06:54:32+00:00", "coordonnees_geo": {"lon": 2.2555950104387, "lat": 48.821410564722}, "nom_arrondissement_communes": "Issy-les-Moulineaux", "code_insee_commune": null}, {"stationcode": "15203", "name": "Porte de Versailles", "is_installed": "OUI", "capacity": 28, "numdocksavailable": 3, "numbikesavailable": 25, "mechanical": 20, "ebike": 5, "is_renting": "OUI", "is_returning": "OUI", "duedate": "2024-06-16T06:53:46+00:00", "coordonnees_geo": {"lon": 2.2875617349045, "lat": 48.832324016657}, "nom_arrondissement_communes": "Paris", "code_insee_commune": null}, {"stationcode": "12123", "name": "Ch\u00e2teau de Vincennes", "is_installed": "OUI", "capacity": 52, "numdocksavailable": 46, "numbikesavailable": 5, "mechanical": 3, "ebike": 2, "is_renting": "OUI", "is_returning": "OUI", "duedate": "2024-06-16T06:51:30+00:00", "coordonnees_geo": {"lon": 2.439209537709179, "lat": 48.84423193255657}, "nom_arrondissement_communes": "Paris", "code_insee_commune": null}, {"stationcode": "19006", "name": "Mathis - Flandre", "is_installed": "OUI", "capacity": 55, "numdocksavailable": 33, "numbikesavailable": 22, "mechanical": 8, "ebike": 14, "is_renting": "OUI", "is_returning": "OUI", "duedate": "2024-06-16T06:54:33+00:00", "coordonnees_geo": {"lon": 2.3762554675340652, "lat": 48.8906429898976}, "nom_arrondissement_communes": "Paris", "code_insee_commune": null}, {"stationcode": "21002", "name": "Place Denfert-Rochereau", "is_installed": "OUI", "capacity": 20, "numdocksavailable": 13, "numbikesavailable": 7, "mechanical": 4, "ebike": 3, "is_renting": "OUI", "is_returning": "OUI", "duedate": "2024-06-16T06:47:19+00:00", "coordonnees_geo": {"lon": 2.245987951755524, "lat": 48.843252536286684}, "nom_arrondissement_communes": "Boulogne-Billancourt", "code_insee_commune": null}, {"stationcode": "13024", "name": "Bobillot - Tolbiac", "is_installed": "OUI", "capacity": 33, "numdocksavailable": 5, "numbikesavailable": 26, "mechanical": 14, "ebike": 12, "is_renting": "OUI", "is_returning": "OUI", "duedate": "2024-06-16T06:52:48+00:00", "coordonnees_geo": {"lon": 2.350204177200794, "lat": 48.8255961335041}, "nom_arrondissement_communes": "Paris", "code_insee_commune": null}, {"stationcode": "24004", "name": "Paix - Verdun", "is_installed": "OUI", "capacity": 35, "numdocksavailable": 14, "numbikesavailable": 21, "mechanical": 10, "ebike": 11, "is_renting": "OUI", "is_returning": "OUI", "duedate": "2024-06-16T06:54:22+00:00", "coordonnees_geo": {"lon": 2.261173, "lat": 48.900504}, "nom_arrondissement_communes": "Courbevoie", "code_insee_commune": null}, {"stationcode": "24005", "name": "Edith Cavell - Volta", "is_installed": "OUI", "capacity": 33, "numdocksavailable": 29, "numbikesavailable": 4, "mechanical": 1, "ebike": 3, "is_renting": "OUI", "is_returning": "OUI", "duedate": "2024-06-16T06:47:26+00:00", "coordonnees_geo": {"lon": 2.269354350864887, "lat": 48.901616564286975}, "nom_arrondissement_communes": "Courbevoie", "code_insee_commune": null}, {"stationcode": "31104", "name": "Mairie de Rosny-sous-Bois", "is_installed": "OUI", "capacity": 30, "numdocksavailable": 20, "numbikesavailable": 9, "mechanical": 7, "ebike": 2, "is_renting": "OUI", "is_returning": "OUI", "duedate": "2024-06-16T06:50:33+00:00", "coordonnees_geo": {"lon": 2.4865807592869, "lat": 48.871256519012}, "nom_arrondissement_communes": "Rosny-sous-Bois", "code_insee_commune": null}, {"stationcode": "15069", "name": "F\u00e9lix Faure - Convention", "is_installed": "OUI", "capacity": 44, "numdocksavailable": 9, "numbikesavailable": 33, "mechanical": 31, "ebike": 2, "is_renting": "OUI", "is_returning": "OUI", "duedate": "2024-06-16T06:53:52+00:00", "coordonnees_geo": {"lon": 2.288386600849503, "lat": 48.841249336041045}, "nom_arrondissement_communes": "Paris", "code_insee_commune": null}, {"stationcode": "11111", "name": "L\u00e9on Frot - Charonne", "is_installed": "OUI", "capacity": 19, "numdocksavailable": 9, "numbikesavailable": 9, "mechanical": 9, "ebike": 0, "is_renting": "OUI", "is_returning": "OUI", "duedate": "2024-06-16T06:52:17+00:00", "coordonnees_geo": {"lon": 2.387217085372007, "lat": 48.854963800335234}, "nom_arrondissement_communes": "Paris", "code_insee_commune": null}, {"stationcode": "13006", "name": "Dum\u00e9ril - Jeanne d'Arc", "is_installed": "OUI", "capacity": 40, "numdocksavailable": 1, "numbikesavailable": 38, "mechanical": 31, "ebike": 7, "is_renting": "OUI", "is_returning": "OUI", "duedate": "2024-06-16T06:52:21+00:00", "coordonnees_geo": {"lon": 2.357108449556404, "lat": 48.83815160808658}, "nom_arrondissement_communes": "Paris", "code_insee_commune": null}, {"stationcode": "18016", "name": "Francoeur - Caulaincourt", "is_installed": "OUI", "capacity": 34, "numdocksavailable": 25, "numbikesavailable": 9, "mechanical": 4, "ebike": 5, "is_renting": "OUI", "is_returning": "OUI", "duedate": "2024-06-16T06:51:44+00:00", "coordonnees_geo": {"lon": 2.342529706656933, "lat": 48.8899944409612}, "nom_arrondissement_communes": "Paris", "code_insee_commune": null}, {"stationcode": "19117", "name": "Euryale Dehaynin - Loire", "is_installed": "OUI", "capacity": 30, "numdocksavailable": 24, "numbikesavailable": 4, "mechanical": 1, "ebike": 3, "is_renting": "OUI", "is_returning": "OUI", "duedate": "2024-06-16T06:51:06+00:00", "coordonnees_geo": {"lon": 2.3774591088294987, "lat": 48.886248917304805}, "nom_arrondissement_communes": "Paris", "code_insee_commune": null}, {"stationcode": "34010", "name": "H\u00f4tel de Ville de Saint-Ouen", "is_installed": "OUI", "capacity": 48, "numdocksavailable": 21, "numbikesavailable": 26, "mechanical": 17, "ebike": 9, "is_renting": "OUI", "is_returning": "OUI", "duedate": "2024-06-16T06:53:50+00:00", "coordonnees_geo": {"lon": 2.3340076807601, "lat": 48.911380185786}, "nom_arrondissement_communes": "Saint-Ouen-sur-Seine", "code_insee_commune": null}, {"stationcode": "9025", "name": "Taitbout - Ch\u00e2teaudun", "is_installed": "OUI", "capacity": 39, "numdocksavailable": 37, "numbikesavailable": 2, "mechanical": 2, "ebike": 0, "is_renting": "OUI", "is_returning": "OUI", "duedate": "2024-06-16T06:53:34+00:00", "coordonnees_geo": {"lon": 2.335356677933531, "lat": 48.876383969379}, "nom_arrondissement_communes": "Paris", "code_insee_commune": null}, {"stationcode": "20003", "name": "Pyr\u00e9n\u00e9es - Cours de Vincennes", "is_installed": "OUI", "capacity": 21, "numdocksavailable": 13, "numbikesavailable": 7, "mechanical": 2, "ebike": 5, "is_renting": "OUI", "is_returning": "OUI", "duedate": "2024-06-16T06:53:07+00:00", "coordonnees_geo": {"lon": 2.4061721563339, "lat": 48.847796779935}, "nom_arrondissement_communes": "Paris", "code_insee_commune": null}, {"stationcode": "13028", "name": "Gouthi\u00e8re - Poterne des Peupliers", "is_installed": "OUI", "capacity": 33, "numdocksavailable": 5, "numbikesavailable": 25, "mechanical": 20, "ebike": 5, "is_renting": "OUI", "is_returning": "OUI", "duedate": "2024-06-16T06:54:31+00:00", "coordonnees_geo": {"lon": 2.351342, "lat": 48.820507}, "nom_arrondissement_communes": "Paris", "code_insee_commune": null}, {"stationcode": "48002", "name": "LCL Campus - Place Oscar Niemeyer", "is_installed": "OUI", "capacity": 37, "numdocksavailable": 15, "numbikesavailable": 20, "mechanical": 5, "ebike": 15, "is_renting": "OUI", "is_returning": "OUI", "duedate": "2024-06-16T06:54:38+00:00", "coordonnees_geo": {"lon": 2.363983690738678, "lat": 48.805342480621576}, "nom_arrondissement_communes": "Villejuif", "code_insee_commune": null}, {"stationcode": "20012", "name": "Buzenval - Vignoles", "is_installed": "OUI", "capacity": 17, "numdocksavailable": 12, "numbikesavailable": 4, "mechanical": 3, "ebike": 1, "is_renting": "OUI", "is_returning": "OUI", "duedate": "2024-06-16T06:53:14+00:00", "coordonnees_geo": {"lon": 2.400004081428051, "lat": 48.85385817168762}, "nom_arrondissement_communes": "Paris", "code_insee_commune": null}, {"stationcode": "35013", "name": "Guillaume Tell - Parc Henri Barbusse", "is_installed": "OUI", "capacity": 20, "numdocksavailable": 12, "numbikesavailable": 8, "mechanical": 1, "ebike": 7, "is_renting": "OUI", "is_returning": "OUI", "duedate": "2024-06-16T06:51:07+00:00", "coordonnees_geo": {"lon": 2.4198862910270695, "lat": 48.88958925894009}, "nom_arrondissement_communes": "Pantin", "code_insee_commune": null}, {"stationcode": "20020", "name": "Pyr\u00e9n\u00e9es - Charles Renouvier", "is_installed": "OUI", "capacity": 29, "numdocksavailable": 23, "numbikesavailable": 6, "mechanical": 2, "ebike": 4, "is_renting": "OUI", "is_returning": "OUI", "duedate": "2024-06-16T06:54:42+00:00", "coordonnees_geo": {"lon": 2.400421852042113, "lat": 48.86095933229224}, "nom_arrondissement_communes": "Paris", "code_insee_commune": null}, {"stationcode": "12008", "name": "Hector Malot - Daumesnil", "is_installed": "OUI", "capacity": 54, "numdocksavailable": 37, "numbikesavailable": 16, "mechanical": 14, "ebike": 2, "is_renting": "OUI", "is_returning": "OUI", "duedate": "2024-06-16T06:49:57+00:00", "coordonnees_geo": {"lon": 2.3770876228809357, "lat": 48.84693552991762}, "nom_arrondissement_communes": "Paris", "code_insee_commune": null}, {"stationcode": "12102", "name": "Bercy - Traversi\u00e9re", "is_installed": "OUI", "capacity": 30, "numdocksavailable": 10, "numbikesavailable": 19, "mechanical": 18, "ebike": 1, "is_renting": "OUI", "is_returning": "OUI", "duedate": "2024-06-16T06:54:38+00:00", "coordonnees_geo": {"lon": 2.3703800886869, "lat": 48.846192642574}, "nom_arrondissement_communes": "Paris", "code_insee_commune": null}, {"stationcode": "15024", "name": "Suffren - La Motte-Piquet", "is_installed": "OUI", "capacity": 23, "numdocksavailable": 16, "numbikesavailable": 5, "mechanical": 2, "ebike": 3, "is_renting": "OUI", "is_returning": "OUI", "duedate": "2024-06-16T06:52:41+00:00", "coordonnees_geo": {"lon": 2.3012199997902, "lat": 48.850881230919}, "nom_arrondissement_communes": "Paris", "code_insee_commune": null}, {"stationcode": "12119", "name": "Dom-P\u00e9rignon - Gravelle", "is_installed": "OUI", "capacity": 50, "numdocksavailable": 2, "numbikesavailable": 45, "mechanical": 24, "ebike": 21, "is_renting": "OUI", "is_returning": "OUI", "duedate": "2024-06-16T06:50:59+00:00", "coordonnees_geo": {"lon": 2.409880310297, "lat": 48.825481574435}, "nom_arrondissement_communes": "Paris", "code_insee_commune": null}, {"stationcode": "43007", "name": "H\u00f4tel de Ville de Vincennes", "is_installed": "OUI", "capacity": 27, "numdocksavailable": 19, "numbikesavailable": 8, "mechanical": 3, "ebike": 5, "is_renting": "OUI", "is_returning": "OUI", "duedate": "2024-06-16T06:50:29+00:00", "coordonnees_geo": {"lon": 2.4398955702781677, "lat": 48.84827609706963}, "nom_arrondissement_communes": "Vincennes", "code_insee_commune": null}, {"stationcode": "20032", "name": "Square des Amandiers", "is_installed": "OUI", "capacity": 12, "numdocksavailable": 6, "numbikesavailable": 6, "mechanical": 5, "ebike": 1, "is_renting": "OUI", "is_returning": "OUI", "duedate": "2024-06-16T06:51:13+00:00", "coordonnees_geo": {"lon": 2.3891324177384377, "lat": 48.86615630668046}, "nom_arrondissement_communes": "Paris", "code_insee_commune": null}, {"stationcode": "13036", "name": "Olympiades", "is_installed": "OUI", "capacity": 36, "numdocksavailable": 27, "numbikesavailable": 8, "mechanical": 1, "ebike": 7, "is_renting": "OUI", "is_returning": "OUI", "duedate": "2024-06-16T06:50:38+00:00", "coordonnees_geo": {"lon": 2.3650860786438, "lat": 48.826764665199}, "nom_arrondissement_communes": "Paris", "code_insee_commune": null}, {"stationcode": "14035", "name": "Maine - Jean Zay", "is_installed": "OUI", "capacity": 50, "numdocksavailable": 30, "numbikesavailable": 19, "mechanical": 11, "ebike": 8, "is_renting": "OUI", "is_returning": "OUI", "duedate": "2024-06-16T06:54:19+00:00", "coordonnees_geo": {"lon": 2.3225428909063, "lat": 48.837925263898}, "nom_arrondissement_communes": "Paris", "code_insee_commune": null}, {"stationcode": "17117", "name": "Pereire - Saussure", "is_installed": "OUI", "capacity": 32, "numdocksavailable": 14, "numbikesavailable": 18, "mechanical": 8, "ebike": 10, "is_renting": "OUI", "is_returning": "OUI", "duedate": "2024-06-16T06:53:40+00:00", "coordonnees_geo": {"lon": 2.3101296275854, "lat": 48.888229075478}, "nom_arrondissement_communes": "Paris", "code_insee_commune": null}, {"stationcode": "16017", "name": "Siam - La Pompe", "is_installed": "OUI", "capacity": 16, "numdocksavailable": 13, "numbikesavailable": 3, "mechanical": 0, "ebike": 3, "is_renting": "OUI", "is_returning": "OUI", "duedate": "2024-06-16T06:44:43+00:00", "coordonnees_geo": {"lon": 2.275346568555312, "lat": 48.861720329027264}, "nom_arrondissement_communes": "Paris", "code_insee_commune": null}, {"stationcode": "18021", "name": "Marcadet - Ramey", "is_installed": "OUI", "capacity": 21, "numdocksavailable": 16, "numbikesavailable": 5, "mechanical": 4, "ebike": 1, "is_renting": "OUI", "is_returning": "OUI", "duedate": "2024-06-16T06:53:30+00:00", "coordonnees_geo": {"lon": 2.3449019, "lat": 48.890875}, "nom_arrondissement_communes": "Paris", "code_insee_commune": null}, {"stationcode": "16116", "name": "George Sand - Jean de La Fontaine", "is_installed": "OUI", "capacity": 29, "numdocksavailable": 7, "numbikesavailable": 22, "mechanical": 17, "ebike": 5, "is_renting": "OUI", "is_returning": "OUI", "duedate": "2024-06-16T06:53:17+00:00", "coordonnees_geo": {"lon": 2.268257387525699, "lat": 48.84986918764119}, "nom_arrondissement_communes": "Paris", "code_insee_commune": null}, {"stationcode": "7023", "name": "Bourdonnais - Tour Eiffel", "is_installed": "OUI", "capacity": 60, "numdocksavailable": 18, "numbikesavailable": 40, "mechanical": 36, "ebike": 4, "is_renting": "OUI", "is_returning": "OUI", "duedate": "2024-06-16T06:53:55+00:00", "coordonnees_geo": {"lon": 2.295599598447, "lat": 48.860897797941}, "nom_arrondissement_communes": "Paris", "code_insee_commune": null}, {"stationcode": "15045", "name": "Porte de la Plaine", "is_installed": "OUI", "capacity": 35, "numdocksavailable": 34, "numbikesavailable": 1, "mechanical": 0, "ebike": 1, "is_renting": "OUI", "is_returning": "OUI", "duedate": "2024-06-16T06:53:05+00:00", "coordonnees_geo": {"lon": 2.2924277186393742, "lat": 48.82805169605981}, "nom_arrondissement_communes": "Paris", "code_insee_commune": null}, {"stationcode": "25004", "name": "Marcel Pourtout - \u00c9douard Manet", "is_installed": "OUI", "capacity": 24, "numdocksavailable": 6, "numbikesavailable": 18, "mechanical": 15, "ebike": 3, "is_renting": "OUI", "is_returning": "OUI", "duedate": "2024-06-16T06:53:02+00:00", "coordonnees_geo": {"lon": 2.1655967831611638, "lat": 48.87555620763429}, "nom_arrondissement_communes": "Rueil-Malmaison", "code_insee_commune": null}, {"stationcode": "14005", "name": "Ren\u00e9 Coty - Place Denfert-Rochereau", "is_installed": "OUI", "capacity": 36, "numdocksavailable": 10, "numbikesavailable": 26, "mechanical": 18, "ebike": 8, "is_renting": "OUI", "is_returning": "OUI", "duedate": "2024-06-16T06:50:48+00:00", "coordonnees_geo": {"lon": 2.3329411447048, "lat": 48.833056477316}, "nom_arrondissement_communes": "Paris", "code_insee_commune": null}, {"stationcode": "15027", "name": "Duhamel - Andr\u00e9 Gide", "is_installed": "OUI", "capacity": 20, "numdocksavailable": 13, "numbikesavailable": 7, "mechanical": 1, "ebike": 6, "is_renting": "OUI", "is_returning": "OUI", "duedate": "2024-06-16T06:49:47+00:00", "coordonnees_geo": {"lon": 2.312707121097412, "lat": 48.8365662244334}, "nom_arrondissement_communes": "Paris", "code_insee_commune": null}, {"stationcode": "31105", "name": "Lavoisier - Missak Manouchian", "is_installed": "OUI", "capacity": 18, "numdocksavailable": 2, "numbikesavailable": 16, "mechanical": 9, "ebike": 7, "is_renting": "OUI", "is_returning": "OUI", "duedate": "2024-06-16T06:46:40+00:00", "coordonnees_geo": {"lon": 2.495676465332508, "lat": 48.86286468896063}, "nom_arrondissement_communes": "Rosny-sous-Bois", "code_insee_commune": null}, {"stationcode": "42205", "name": "Place Aristide Briand", "is_installed": "OUI", "capacity": 35, "numdocksavailable": 0, "numbikesavailable": 34, "mechanical": 16, "ebike": 18, "is_renting": "OUI", "is_returning": "OUI", "duedate": "2024-06-16T06:52:34+00:00", "coordonnees_geo": {"lon": 2.413003742694855, "lat": 48.82189236575831}, "nom_arrondissement_communes": "Charenton-le-Pont", "code_insee_commune": null}, {"stationcode": "30004", "name": "Jean Jaur\u00e8s - Place de la Lib\u00e9ration", "is_installed": "OUI", "capacity": 30, "numdocksavailable": 1, "numbikesavailable": 28, "mechanical": 11, "ebike": 17, "is_renting": "OUI", "is_returning": "OUI", "duedate": "2024-06-16T06:52:43+00:00", "coordonnees_geo": {"lon": 2.4391458057475, "lat": 48.90617751921}, "nom_arrondissement_communes": "Bobigny", "code_insee_commune": null}, {"stationcode": "43004", "name": "Montreuil - R\u00e9publique", "is_installed": "OUI", "capacity": 25, "numdocksavailable": 21, "numbikesavailable": 3, "mechanical": 1, "ebike": 2, "is_renting": "OUI", "is_returning": "OUI", "duedate": "2024-06-16T06:54:38+00:00", "coordonnees_geo": {"lon": 2.4345204234123234, "lat": 48.85026349463687}, "nom_arrondissement_communes": "Vincennes", "code_insee_commune": null}, {"stationcode": "22701", "name": "G\u00e9n\u00e9ral Leclerc - R\u00e9publique", "is_installed": "OUI", "capacity": 30, "numdocksavailable": 5, "numbikesavailable": 25, "mechanical": 16, "ebike": 9, "is_renting": "OUI", "is_returning": "OUI", "duedate": "2024-06-16T06:50:47+00:00", "coordonnees_geo": {"lon": 2.2682306702811, "lat": 48.915885074177}, "nom_arrondissement_communes": "Bois-Colombes", "code_insee_commune": null}, {"stationcode": "20110", "name": "Gambetta - Tourelles", "is_installed": "OUI", "capacity": 20, "numdocksavailable": 12, "numbikesavailable": 7, "mechanical": 0, "ebike": 7, "is_renting": "OUI", "is_returning": "OUI", "duedate": "2024-06-16T06:53:50+00:00", "coordonnees_geo": {"lon": 2.4059921130538, "lat": 48.875337902264}, "nom_arrondissement_communes": "Paris", "code_insee_commune": null}, {"stationcode": "20014", "name": "Charonne - Alexandre Dumas", "is_installed": "OUI", "capacity": 35, "numdocksavailable": 28, "numbikesavailable": 5, "mechanical": 2, "ebike": 3, "is_renting": "OUI", "is_returning": "OUI", "duedate": "2024-06-16T06:51:36+00:00", "coordonnees_geo": {"lon": 2.3948693275452, "lat": 48.856077415056}, "nom_arrondissement_communes": "Paris", "code_insee_commune": null}, {"stationcode": "8007", "name": "Rome - Provence", "is_installed": "OUI", "capacity": 30, "numdocksavailable": 15, "numbikesavailable": 15, "mechanical": 14, "ebike": 1, "is_renting": "OUI", "is_returning": "OUI", "duedate": "2024-06-16T06:53:45+00:00", "coordonnees_geo": {"lon": 2.325570111724113, "lat": 48.874230055580306}, "nom_arrondissement_communes": "Paris", "code_insee_commune": null}, {"stationcode": "21218", "name": "Gabriel P\u00e9ri - Place de la Lib\u00e9ration", "is_installed": "OUI", "capacity": 18, "numdocksavailable": 6, "numbikesavailable": 11, "mechanical": 3, "ebike": 8, "is_renting": "OUI", "is_returning": "OUI", "duedate": "2024-06-16T06:45:32+00:00", "coordonnees_geo": {"lon": 2.3117361743705, "lat": 48.819828421929}, "nom_arrondissement_communes": "Montrouge", "code_insee_commune": null}, {"stationcode": "17006", "name": "Guy M\u00f4quet - Compoint", "is_installed": "OUI", "capacity": 36, "numdocksavailable": 23, "numbikesavailable": 11, "mechanical": 4, "ebike": 7, "is_renting": "OUI", "is_returning": "OUI", "duedate": "2024-06-16T06:54:27+00:00", "coordonnees_geo": {"lon": 2.32321947813034, "lat": 48.89213559044868}, "nom_arrondissement_communes": "Paris", "code_insee_commune": null}, {"stationcode": "18101", "name": "Championnet.", "is_installed": "OUI", "capacity": 22, "numdocksavailable": 7, "numbikesavailable": 15, "mechanical": 8, "ebike": 7, "is_renting": "OUI", "is_returning": "OUI", "duedate": "2024-06-16T06:54:12+00:00", "coordonnees_geo": {"lon": 2.3498166, "lat": 48.8953643}, "nom_arrondissement_communes": "Paris", "code_insee_commune": null}, {"stationcode": "20005", "name": "Reynaldo Hahn - Lagny", "is_installed": "OUI", "capacity": 19, "numdocksavailable": 11, "numbikesavailable": 8, "mechanical": 5, "ebike": 3, "is_renting": "OUI", "is_returning": "OUI", "duedate": "2024-06-16T06:53:54+00:00", "coordonnees_geo": {"lon": 2.412330328844772, "lat": 48.849266043601794}, "nom_arrondissement_communes": "Paris", "code_insee_commune": null}, {"stationcode": "21207", "name": "Verdier - R\u00e9publique", "is_installed": "OUI", "capacity": 29, "numdocksavailable": 23, "numbikesavailable": 6, "mechanical": 1, "ebike": 5, "is_renting": "OUI", "is_returning": "OUI", "duedate": "2024-06-16T06:53:43+00:00", "coordonnees_geo": {"lon": 2.31739372015, "lat": 48.815403766277}, "nom_arrondissement_communes": "Montrouge", "code_insee_commune": null}, {"stationcode": "10031", "name": "Louis Blanc - Aqueduc", "is_installed": "OUI", "capacity": 37, "numdocksavailable": 7, "numbikesavailable": 28, "mechanical": 16, "ebike": 12, "is_renting": "OUI", "is_returning": "OUI", "duedate": "2024-06-16T06:54:04+00:00", "coordonnees_geo": {"lon": 2.3635615780949593, "lat": 48.88203018259946}, "nom_arrondissement_communes": "Paris", "code_insee_commune": null}, {"stationcode": "12122", "name": "Bois de Vincennes - Polygone", "is_installed": "OUI", "capacity": 51, "numdocksavailable": 49, "numbikesavailable": 2, "mechanical": 1, "ebike": 1, "is_renting": "OUI", "is_returning": "OUI", "duedate": "2024-06-16T06:53:05+00:00", "coordonnees_geo": {"lon": 2.431421081436563, "lat": 48.83544491617421}, "nom_arrondissement_communes": "Paris", "code_insee_commune": null}, {"stationcode": "21205", "name": "Arthur Auger - Jean Jaur\u00e8s", "is_installed": "OUI", "capacity": 26, "numdocksavailable": 20, "numbikesavailable": 5, "mechanical": 1, "ebike": 4, "is_renting": "OUI", "is_returning": "OUI", "duedate": "2024-06-16T06:53:24+00:00", "coordonnees_geo": {"lon": 2.3069277405738835, "lat": 48.813736445585235}, "nom_arrondissement_communes": "Montrouge", "code_insee_commune": null}, {"stationcode": "16023", "name": "Passy - Place du Costa Rica", "is_installed": "OUI", "capacity": 33, "numdocksavailable": 31, "numbikesavailable": 2, "mechanical": 0, "ebike": 2, "is_renting": "OUI", "is_returning": "OUI", "duedate": "2024-06-16T06:46:14+00:00", "coordonnees_geo": {"lon": 2.2839655, "lat": 48.8584893}, "nom_arrondissement_communes": "Paris", "code_insee_commune": null}, {"stationcode": "11029", "name": "M\u00e9nilmontant - Oberkampf", "is_installed": "OUI", "capacity": 40, "numdocksavailable": 32, "numbikesavailable": 6, "mechanical": 2, "ebike": 4, "is_renting": "OUI", "is_returning": "OUI", "duedate": "2024-06-16T06:50:04+00:00", "coordonnees_geo": {"lon": 2.3830134404158, "lat": 48.866617658681}, "nom_arrondissement_communes": "Paris", "code_insee_commune": null}, {"stationcode": "15014", "name": "Volontaires - Vaugirard", "is_installed": "OUI", "capacity": 34, "numdocksavailable": 0, "numbikesavailable": 34, "mechanical": 19, "ebike": 15, "is_renting": "OUI", "is_returning": "OUI", "duedate": "2024-06-16T06:54:18+00:00", "coordonnees_geo": {"lon": 2.30808901725357, "lat": 48.84132050184004}, "nom_arrondissement_communes": "Paris", "code_insee_commune": null}, {"stationcode": "13055", "name": "M.- A. Lagroua Weill-Hall\u00e9 -  F. Dolto", "is_installed": "OUI", "capacity": 60, "numdocksavailable": 14, "numbikesavailable": 45, "mechanical": 40, "ebike": 5, "is_renting": "OUI", "is_returning": "OUI", "duedate": "2024-06-16T06:50:38+00:00", "coordonnees_geo": {"lon": 2.380220606266108, "lat": 48.828595283857425}, "nom_arrondissement_communes": "Paris", "code_insee_commune": null}, {"stationcode": "22014", "name": "Victor Hugo - Bineau", "is_installed": "OUI", "capacity": 25, "numdocksavailable": 7, "numbikesavailable": 18, "mechanical": 9, "ebike": 9, "is_renting": "OUI", "is_returning": "OUI", "duedate": "2024-06-16T06:48:56+00:00", "coordonnees_geo": {"lon": 2.2783890366554265, "lat": 48.88758225888669}, "nom_arrondissement_communes": "Neuilly-sur-Seine", "code_insee_commune": null}, {"stationcode": "25002", "name": "H\u00f4tel de Ville de Rueil-Malmaison", "is_installed": "OUI", "capacity": 20, "numdocksavailable": 9, "numbikesavailable": 11, "mechanical": 3, "ebike": 8, "is_renting": "OUI", "is_returning": "OUI", "duedate": "2024-06-16T06:52:13+00:00", "coordonnees_geo": {"lon": 2.181724, "lat": 48.878194}, "nom_arrondissement_communes": "Rueil-Malmaison", "code_insee_commune": null}, {"stationcode": "15113", "name": "Arsonval - Falgui\u00e8re", "is_installed": "OUI", "capacity": 25, "numdocksavailable": 10, "numbikesavailable": 14, "mechanical": 4, "ebike": 10, "is_renting": "OUI", "is_returning": "OUI", "duedate": "2024-06-16T06:50:42+00:00", "coordonnees_geo": {"lon": 2.313117867297474, "lat": 48.84040040365445}, "nom_arrondissement_communes": "Paris", "code_insee_commune": null}, {"stationcode": "16022", "name": "Jean Bologne - Passy", "is_installed": "OUI", "capacity": 19, "numdocksavailable": 18, "numbikesavailable": 1, "mechanical": 1, "ebike": 0, "is_renting": "OUI", "is_returning": "OUI", "duedate": "2024-06-16T06:50:54+00:00", "coordonnees_geo": {"lon": 2.280027395306772, "lat": 48.857566889784465}, "nom_arrondissement_communes": "Paris", "code_insee_commune": null}, {"stationcode": "20011", "name": "Pyr\u00e9n\u00e9es - Dagorno", "is_installed": "OUI", "capacity": 20, "numdocksavailable": 16, "numbikesavailable": 4, "mechanical": 0, "ebike": 4, "is_renting": "OUI", "is_returning": "OUI", "duedate": "2024-06-16T06:53:32+00:00", "coordonnees_geo": {"lon": 2.4051643162965775, "lat": 48.855425770695085}, "nom_arrondissement_communes": "Paris", "code_insee_commune": null}, {"stationcode": "6020", "name": "Place Saint-Andr\u00e9 des Arts", "is_installed": "OUI", "capacity": 37, "numdocksavailable": 12, "numbikesavailable": 25, "mechanical": 23, "ebike": 2, "is_renting": "OUI", "is_returning": "OUI", "duedate": "2024-06-16T06:53:36+00:00", "coordonnees_geo": {"lon": 2.3426544293761, "lat": 48.852886173881}, "nom_arrondissement_communes": "Paris", "code_insee_commune": null}, {"stationcode": "21007", "name": "Rond-Point Rhin et Danube", "is_installed": "OUI", "capacity": 53, "numdocksavailable": 46, "numbikesavailable": 6, "mechanical": 4, "ebike": 2, "is_renting": "OUI", "is_returning": "OUI", "duedate": "2024-06-16T06:53:26+00:00", "coordonnees_geo": {"lon": 2.2280225157737736, "lat": 48.840452820991764}, "nom_arrondissement_communes": "Boulogne-Billancourt", "code_insee_commune": null}, {"stationcode": "21016", "name": "Point du Jour - Jean Jaur\u00e8s", "is_installed": "OUI", "capacity": 40, "numdocksavailable": 27, "numbikesavailable": 12, "mechanical": 6, "ebike": 6, "is_renting": "OUI", "is_returning": "OUI", "duedate": "2024-06-16T06:52:17+00:00", "coordonnees_geo": {"lon": 2.245911467014621, "lat": 48.828753141436465}, "nom_arrondissement_communes": "Boulogne-Billancourt", "code_insee_commune": null}, {"stationcode": "11018", "name": "Saint-Maur - R\u00e9publique", "is_installed": "OUI", "capacity": 38, "numdocksavailable": 19, "numbikesavailable": 18, "mechanical": 17, "ebike": 1, "is_renting": "OUI", "is_returning": "OUI", "duedate": "2024-06-16T06:52:38+00:00", "coordonnees_geo": {"lon": 2.3783174157143, "lat": 48.864185861455}, "nom_arrondissement_communes": "Paris", "code_insee_commune": null}, {"stationcode": "19123", "name": "Metz - Marne", "is_installed": "OUI", "capacity": 33, "numdocksavailable": 20, "numbikesavailable": 11, "mechanical": 6, "ebike": 5, "is_renting": "OUI", "is_returning": "OUI", "duedate": "2024-06-16T06:54:17+00:00", "coordonnees_geo": {"lon": 2.3865705, "lat": 48.891163}, "nom_arrondissement_communes": "Paris", "code_insee_commune": null}, {"stationcode": "21107", "name": "Bertrand Sincholle - Henri Barbusse", "is_installed": "OUI", "capacity": 23, "numdocksavailable": 8, "numbikesavailable": 13, "mechanical": 11, "ebike": 2, "is_renting": "OUI", "is_returning": "OUI", "duedate": "2024-06-16T06:54:09+00:00", "coordonnees_geo": {"lon": 2.3042294383049016, "lat": 48.89925982394349}, "nom_arrondissement_communes": "Clichy", "code_insee_commune": null}, {"stationcode": "22007", "name": "Commandant Charcot - Bretteville", "is_installed": "OUI", "capacity": 36, "numdocksavailable": 21, "numbikesavailable": 14, "mechanical": 5, "ebike": 9, "is_renting": "OUI", "is_returning": "OUI", "duedate": "2024-06-16T06:52:37+00:00", "coordonnees_geo": {"lon": 2.2558460757136345, "lat": 48.87530570765423}, "nom_arrondissement_communes": "Neuilly-sur-Seine", "code_insee_commune": null}, {"stationcode": "12039", "name": "G\u00e9n\u00e9ral Michel Bizot - Claude Decaen", "is_installed": "OUI", "capacity": 38, "numdocksavailable": 11, "numbikesavailable": 27, "mechanical": 26, "ebike": 1, "is_renting": "OUI", "is_returning": "OUI", "duedate": "2024-06-16T06:54:22+00:00", "coordonnees_geo": {"lon": 2.400927788127704, "lat": 48.83481262982544}, "nom_arrondissement_communes": "Paris", "code_insee_commune": null}, {"stationcode": "12017", "name": "Saint-Mand\u00e9 - Docteur Arnold Netter", "is_installed": "OUI", "capacity": 39, "numdocksavailable": 23, "numbikesavailable": 16, "mechanical": 9, "ebike": 7, "is_renting": "OUI", "is_returning": "OUI", "duedate": "2024-06-16T06:52:20+00:00", "coordonnees_geo": {"lon": 2.404946386814118, "lat": 48.84462585769668}, "nom_arrondissement_communes": "Paris", "code_insee_commune": null}, {"stationcode": "14025", "name": "Jacquier - Didot", "is_installed": "OUI", "capacity": 30, "numdocksavailable": 25, "numbikesavailable": 1, "mechanical": 0, "ebike": 1, "is_renting": "OUI", "is_returning": "OUI", "duedate": "2024-06-16T06:53:38+00:00", "coordonnees_geo": {"lon": 2.318179272115231, "lat": 48.82953336292279}, "nom_arrondissement_communes": "Paris", "code_insee_commune": null}, {"stationcode": "6009", "name": "Guynemer - Jardin du Luxembourg", "is_installed": "OUI", "capacity": 36, "numdocksavailable": 9, "numbikesavailable": 25, "mechanical": 21, "ebike": 4, "is_renting": "OUI", "is_returning": "OUI", "duedate": "2024-06-16T06:49:48+00:00", "coordonnees_geo": {"lon": 2.3325478, "lat": 48.8466127}, "nom_arrondissement_communes": "Paris", "code_insee_commune": null}, {"stationcode": "16104", "name": "Paul Valery - Victor Hugo", "is_installed": "OUI", "capacity": 35, "numdocksavailable": 32, "numbikesavailable": 3, "mechanical": 1, "ebike": 2, "is_renting": "OUI", "is_returning": "OUI", "duedate": "2024-06-16T06:52:07+00:00", "coordonnees_geo": {"lon": 2.2887128591537476, "lat": 48.87137406080164}, "nom_arrondissement_communes": "Paris", "code_insee_commune": null}, {"stationcode": "20033", "name": "Etienne Dolet - Place Maurice Chevalier", "is_installed": "OUI", "capacity": 33, "numdocksavailable": 29, "numbikesavailable": 3, "mechanical": 3, "ebike": 0, "is_renting": "OUI", "is_returning": "OUI", "duedate": "2024-06-16T06:48:27+00:00", "coordonnees_geo": {"lon": 2.3851405311143026, "lat": 48.86798303359366}, "nom_arrondissement_communes": "Paris", "code_insee_commune": null}, {"stationcode": "8044", "name": "Alfred de Vigny - Place du G\u00e9n\u00e9ral Brocard", "is_installed": "OUI", "capacity": 33, "numdocksavailable": 31, "numbikesavailable": 2, "mechanical": 0, "ebike": 2, "is_renting": "OUI", "is_returning": "OUI", "duedate": "2024-06-16T06:48:18+00:00", "coordonnees_geo": {"lon": 2.305254448220567, "lat": 48.87836138361425}, "nom_arrondissement_communes": "Paris", "code_insee_commune": null}, {"stationcode": "1201", "name": "Perrault - Place du Louvre", "is_installed": "OUI", "capacity": 28, "numdocksavailable": 13, "numbikesavailable": 12, "mechanical": 11, "ebike": 1, "is_renting": "OUI", "is_returning": "OUI", "duedate": "2024-06-16T06:48:32+00:00", "coordonnees_geo": {"lon": 2.3412468419093, "lat": 48.860273568996}, "nom_arrondissement_communes": "Paris", "code_insee_commune": null}, {"stationcode": "21033", "name": "S\u00e8vres - Mar\u00e9chal Juin", "is_installed": "OUI", "capacity": 18, "numdocksavailable": 6, "numbikesavailable": 10, "mechanical": 7, "ebike": 3, "is_renting": "OUI", "is_returning": "OUI", "duedate": "2024-06-16T05:51:56+00:00", "coordonnees_geo": {"lon": 2.2292812, "lat": 48.8324305}, "nom_arrondissement_communes": "Boulogne-Billancourt", "code_insee_commune": null}]