[{"stationcode": "20134", "name": "Lieutenant Chaur\u00e9 - Etienne Marey", "is_installed": "OUI", "capacity": 20, "numdocksavailable": 18, "numbikesavailable": 1, "mechanical": 0, "ebike": 1, "is_renting": "OUI", "is_returning": "OUI", "duedate": "2024-06-14T16:43:03+00:00", "coordonnees_geo": {"lon": 2.405970990657807, "lat": 48.86746195408435}, "nom_arrondissement_communes": "Paris", "code_insee_commune": null}, {"stationcode": "14136", "name": "Auguste Cain - Jean Moulin", "is_installed": "OUI", "capacity": 40, "numdocksavailable": 35, "numbikesavailable": 3, "mechanical": 2, "ebike": 1, "is_renting": "OUI", "is_returning": "OUI", "duedate": "2024-06-14T16:50:16+00:00", "coordonnees_geo": {"lon": 2.3210415244102482, "lat": 48.82577028927573}, "nom_arrondissement_communes": "Paris", "code_insee_commune": null}, {"stationcode": "10014", "name": "Marseille - Beaurepaire", "is_installed": "OUI", "capacity": 55, "numdocksavailable": 16, "numbikesavailable": 37, "mechanical": 21, "ebike": 16, "is_renting": "OUI", "is_returning": "OUI", "duedate": "2024-06-14T16:49:50+00:00", "coordonnees_geo": {"lon": 2.3639265082738348, "lat": 48.871624306962985}, "nom_arrondissement_communes": "Paris", "code_insee_commune": null}, {"stationcode": "22006", "name": "Pierret - Madrid", "is_installed": "OUI", "capacity": 28, "numdocksavailable": 23, "numbikesavailable": 5, "mechanical": 1, "ebike": 4, "is_renting": "OUI", "is_returning": "OUI", "duedate": "2024-06-14T16:50:15+00:00", "coordonnees_geo": {"lon": 2.260125767248034, "lat": 48.882976576876565}, "nom_arrondissement_communes": "Neuilly-sur-Seine", "code_insee_commune": null}, {"stationcode": "17028", "name": "Reims - Raymond Pitet", "is_installed": "OUI", "capacity": 37, "numdocksavailable": 28, "numbikesavailable": 8, "mechanical": 6, "ebike": 2, "is_renting": "OUI", "is_returning": "OUI", "duedate": "2024-06-14T16:49:50+00:00", "coordonnees_geo": {"lon": 2.296319, "lat": 48.8888}, "nom_arrondissement_communes": "Paris", "code_insee_commune": null}, {"stationcode": "21301", "name": "Saint-Vincent - Verdun", "is_installed": "OUI", "capacity": 34, "numdocksavailable": 15, "numbikesavailable": 19, "mechanical": 10, "ebike": 9, "is_renting": "OUI", "is_returning": "OUI", "duedate": "2024-06-14T16:48:30+00:00", "coordonnees_geo": {"lon": 2.254007756710053, "lat": 48.819211549234495}, "nom_arrondissement_communes": "Issy-les-Moulineaux", "code_insee_commune": null}, {"stationcode": "42302", "name": "Aristide Briand - Gare de Bagneux", "is_installed": "OUI", "capacity": 22, "numdocksavailable": 13, "numbikesavailable": 8, "mechanical": 3, "ebike": 5, "is_renting": "OUI", "is_returning": "OUI", "duedate": "2024-06-14T16:49:05+00:00", "coordonnees_geo": {"lon": 2.321148812770844, "lat": 48.79387269664978}, "nom_arrondissement_communes": "Cachan", "code_insee_commune": null}, {"stationcode": "9032", "name": "Mathurins - Auber", "is_installed": "OUI", "capacity": 36, "numdocksavailable": 22, "numbikesavailable": 13, "mechanical": 8, "ebike": 5, "is_renting": "OUI", "is_returning": "OUI", "duedate": "2024-06-14T16:49:56+00:00", "coordonnees_geo": {"lon": 2.3294984212276, "lat": 48.872988840744}, "nom_arrondissement_communes": "Paris", "code_insee_commune": null}, {"stationcode": "11042", "name": "Grand Prieur\u00e9 - Crussol", "is_installed": "OUI", "capacity": 49, "numdocksavailable": 29, "numbikesavailable": 16, "mechanical": 14, "ebike": 2, "is_renting": "OUI", "is_returning": "OUI", "duedate": "2024-06-14T16:48:41+00:00", "coordonnees_geo": {"lon": 2.3692265531829, "lat": 48.864660627935}, "nom_arrondissement_communes": "Paris", "code_insee_commune": null}, {"stationcode": "1013", "name": "Place du Palais Royal", "is_installed": "OUI", "capacity": 67, "numdocksavailable": 43, "numbikesavailable": 24, "mechanical": 23, "ebike": 1, "is_renting": "OUI", "is_returning": "OUI", "duedate": "2024-06-14T16:49:31+00:00", "coordonnees_geo": {"lon": 2.3384822532535, "lat": 48.862382970647}, "nom_arrondissement_communes": "Paris", "code_insee_commune": null}, {"stationcode": "8025", "name": "Miromesnil - La Bo\u00e9tie", "is_installed": "OUI", "capacity": 35, "numdocksavailable": 33, "numbikesavailable": 0, "mechanical": 0, "ebike": 0, "is_renting": "OUI", "is_returning": "OUI", "duedate": "2024-06-14T16:50:08+00:00", "coordonnees_geo": {"lon": 2.3158480972052, "lat": 48.873722412917}, "nom_arrondissement_communes": "Paris", "code_insee_commune": null}, {"stationcode": "42301", "name": "Gare Arcueil - Cachan", "is_installed": "OUI", "capacity": 26, "numdocksavailable": 21, "numbikesavailable": 5, "mechanical": 4, "ebike": 1, "is_renting": "OUI", "is_returning": "OUI", "duedate": "2024-06-14T16:49:58+00:00", "coordonnees_geo": {"lon": 2.328171, "lat": 48.799824}, "nom_arrondissement_communes": "Arcueil", "code_insee_commune": null}, {"stationcode": "42504", "name": "Gare RER de Gentilly", "is_installed": "OUI", "capacity": 30, "numdocksavailable": 22, "numbikesavailable": 7, "mechanical": 1, "ebike": 6, "is_renting": "OUI", "is_returning": "OUI", "duedate": "2024-06-14T16:49:00+00:00", "coordonnees_geo": {"lon": 2.3410347104072575, "lat": 48.814280450380224}, "nom_arrondissement_communes": "Gentilly", "code_insee_commune": null}, {"stationcode": "26013", "name": "Quai du docteur Dervaux", "is_installed": "OUI", "capacity": 26, "numdocksavailable": 18, "numbikesavailable": 8, "mechanical": 6, "ebike": 2, "is_renting": "OUI", "is_returning": "OUI", "duedate": "2024-06-14T16:41:22+00:00", "coordonnees_geo": {"lon": 2.297998, "lat": 48.910482}, "nom_arrondissement_communes": "Asni\u00e8res-sur-Seine", "code_insee_commune": null}, {"stationcode": "20111", "name": "Villiers de l'Isle Adam - Pyr\u00e9n\u00e9es", "is_installed": "OUI", "capacity": 20, "numdocksavailable": 16, "numbikesavailable": 4, "mechanical": 0, "ebike": 4, "is_renting": "OUI", "is_returning": "OUI", "duedate": "2024-06-14T16:47:11+00:00", "coordonnees_geo": {"lon": 2.396222, "lat": 48.867362}, "nom_arrondissement_communes": "Paris", "code_insee_commune": null}, {"stationcode": "42015", "name": "Place Jean Ferrat", "is_installed": "OUI", "capacity": 25, "numdocksavailable": 9, "numbikesavailable": 16, "mechanical": 2, "ebike": 14, "is_renting": "OUI", "is_returning": "OUI", "duedate": "2024-06-14T16:49:46+00:00", "coordonnees_geo": {"lon": 2.3744174838066106, "lat": 48.8184945213025}, "nom_arrondissement_communes": "Ivry-sur-Seine", "code_insee_commune": null}, {"stationcode": "19008", "name": "Flandre - Alphonse Karr", "is_installed": "OUI", "capacity": 26, "numdocksavailable": 22, "numbikesavailable": 3, "mechanical": 2, "ebike": 1, "is_renting": "OUI", "is_returning": "OUI", "duedate": "2024-06-14T16:46:35+00:00", "coordonnees_geo": {"lon": 2.381868, "lat": 48.89465}, "nom_arrondissement_communes": "Paris", "code_insee_commune": null}, {"stationcode": "11004", "name": "Charonne - Faubourg Saint-Antoine", "is_installed": "OUI", "capacity": 34, "numdocksavailable": 10, "numbikesavailable": 22, "mechanical": 17, "ebike": 5, "is_renting": "OUI", "is_returning": "OUI", "duedate": "2024-06-14T16:50:03+00:00", "coordonnees_geo": {"lon": 2.3740932717919, "lat": 48.852191909696}, "nom_arrondissement_communes": "Paris", "code_insee_commune": null}, {"stationcode": "41402", "name": "Victor Hugo - Ecoles", "is_installed": "OUI", "capacity": 25, "numdocksavailable": 18, "numbikesavailable": 6, "mechanical": 1, "ebike": 5, "is_renting": "OUI", "is_returning": "OUI", "duedate": "2024-06-14T16:49:39+00:00", "coordonnees_geo": {"lon": 2.4180373930262093, "lat": 48.80476007936134}, "nom_arrondissement_communes": "Alfortville", "code_insee_commune": null}, {"stationcode": "43003", "name": "H\u00f4pital B\u00e9gin", "is_installed": "OUI", "capacity": 26, "numdocksavailable": 24, "numbikesavailable": 1, "mechanical": 1, "ebike": 0, "is_renting": "OUI", "is_returning": "OUI", "duedate": "2024-06-14T16:49:57+00:00", "coordonnees_geo": {"lon": 2.4272462725639348, "lat": 48.84571672113014}, "nom_arrondissement_communes": "Vincennes", "code_insee_commune": null}, {"stationcode": "51004", "name": "G\u00e9n\u00e9ral Delambre - Prebuard", "is_installed": "OUI", "capacity": 29, "numdocksavailable": 17, "numbikesavailable": 12, "mechanical": 3, "ebike": 9, "is_renting": "OUI", "is_returning": "OUI", "duedate": "2024-06-14T16:48:47+00:00", "coordonnees_geo": {"lon": 2.2234171606307, "lat": 48.93870344444}, "nom_arrondissement_communes": "Argenteuil", "code_insee_commune": null}, {"stationcode": "12009", "name": "Charenton - Diderot", "is_installed": "OUI", "capacity": 18, "numdocksavailable": 0, "numbikesavailable": 17, "mechanical": 13, "ebike": 4, "is_renting": "OUI", "is_returning": "OUI", "duedate": "2024-06-14T16:49:09+00:00", "coordonnees_geo": {"lon": 2.3793068155646, "lat": 48.846171461187}, "nom_arrondissement_communes": "Paris", "code_insee_commune": null}, {"stationcode": "19125", "name": "Place de l'\u00c9dit de Nantes", "is_installed": "OUI", "capacity": 30, "numdocksavailable": 17, "numbikesavailable": 12, "mechanical": 2, "ebike": 10, "is_renting": "OUI", "is_returning": "OUI", "duedate": "2024-06-14T16:47:16+00:00", "coordonnees_geo": {"lon": 2.3785, "lat": 48.88879}, "nom_arrondissement_communes": "Paris", "code_insee_commune": null}, {"stationcode": "14036", "name": "Boulard - Daguerre", "is_installed": "OUI", "capacity": 45, "numdocksavailable": 38, "numbikesavailable": 7, "mechanical": 3, "ebike": 4, "is_renting": "OUI", "is_returning": "OUI", "duedate": "2024-06-14T16:50:13+00:00", "coordonnees_geo": {"lon": 2.3293386027216907, "lat": 48.83446472680611}, "nom_arrondissement_communes": "Paris", "code_insee_commune": null}, {"stationcode": "18201", "name": "Tristan Tzara -  Tcha\u00efkovski", "is_installed": "OUI", "capacity": 33, "numdocksavailable": 29, "numbikesavailable": 3, "mechanical": 2, "ebike": 1, "is_renting": "OUI", "is_returning": "OUI", "duedate": "2024-06-14T16:50:12+00:00", "coordonnees_geo": {"lon": 2.3648490384221077, "lat": 48.89490221746837}, "nom_arrondissement_communes": "Paris", "code_insee_commune": null}, {"stationcode": "23009", "name": "Anatole France - Louise Michel", "is_installed": "OUI", "capacity": 50, "numdocksavailable": 46, "numbikesavailable": 4, "mechanical": 3, "ebike": 1, "is_renting": "OUI", "is_returning": "OUI", "duedate": "2024-06-14T16:48:48+00:00", "coordonnees_geo": {"lon": 2.2881576418876652, "lat": 48.88873214926474}, "nom_arrondissement_communes": "Levallois-Perret", "code_insee_commune": null}, {"stationcode": "42029", "name": "Stalingrad - Germaine Tailleferre", "is_installed": "OUI", "capacity": 28, "numdocksavailable": 22, "numbikesavailable": 3, "mechanical": 2, "ebike": 1, "is_renting": "OUI", "is_returning": "OUI", "duedate": "2024-06-14T16:48:26+00:00", "coordonnees_geo": {"lon": 2.3786691203713417, "lat": 48.80257200481316}, "nom_arrondissement_communes": "Ivry-sur-Seine", "code_insee_commune": null}, {"stationcode": "8035", "name": "Bienfaisance - Place de Narvik", "is_installed": "OUI", "capacity": 36, "numdocksavailable": 34, "numbikesavailable": 1, "mechanical": 1, "ebike": 0, "is_renting": "OUI", "is_returning": "OUI", "duedate": "2024-06-14T16:44:47+00:00", "coordonnees_geo": {"lon": 2.3129771277308464, "lat": 48.87660163459077}, "nom_arrondissement_communes": "Paris", "code_insee_commune": null}, {"stationcode": "11007", "name": "Jean Mac\u00e9 - Faidherbe", "is_installed": "OUI", "capacity": 63, "numdocksavailable": 37, "numbikesavailable": 25, "mechanical": 22, "ebike": 3, "is_renting": "OUI", "is_returning": "OUI", "duedate": "2024-06-14T16:49:26+00:00", "coordonnees_geo": {"lon": 2.3828620836139, "lat": 48.85337548426}, "nom_arrondissement_communes": "Paris", "code_insee_commune": null}, {"stationcode": "7015", "name": "Varenne", "is_installed": "OUI", "capacity": 47, "numdocksavailable": 29, "numbikesavailable": 15, "mechanical": 10, "ebike": 5, "is_renting": "OUI", "is_returning": "OUI", "duedate": "2024-06-14T16:49:02+00:00", "coordonnees_geo": {"lon": 2.3152771219611, "lat": 48.857202661803}, "nom_arrondissement_communes": "Paris", "code_insee_commune": null}, {"stationcode": "18110", "name": "Departement - Pajol", "is_installed": "OUI", "capacity": 19, "numdocksavailable": 14, "numbikesavailable": 5, "mechanical": 2, "ebike": 3, "is_renting": "OUI", "is_returning": "OUI", "duedate": "2024-06-14T16:50:13+00:00", "coordonnees_geo": {"lon": 2.3613611608743668, "lat": 48.886674849730184}, "nom_arrondissement_communes": "Paris", "code_insee_commune": null}, {"stationcode": "19005", "name": "Flandre - Riquet", "is_installed": "OUI", "capacity": 21, "numdocksavailable": 10, "numbikesavailable": 9, "mechanical": 2, "ebike": 7, "is_renting": "OUI", "is_returning": "OUI", "duedate": "2024-06-14T16:49:51+00:00", "coordonnees_geo": {"lon": 2.3737595955229, "lat": 48.888013281448}, "nom_arrondissement_communes": "Paris", "code_insee_commune": null}, {"stationcode": "12013", "name": "Montgallet - Reuilly", "is_installed": "OUI", "capacity": 16, "numdocksavailable": 5, "numbikesavailable": 10, "mechanical": 7, "ebike": 3, "is_renting": "OUI", "is_returning": "OUI", "duedate": "2024-06-14T16:48:38+00:00", "coordonnees_geo": {"lon": 2.3896481, "lat": 48.844291}, "nom_arrondissement_communes": "Paris", "code_insee_commune": null}, {"stationcode": "21305", "name": "Place Jacques Madaule", "is_installed": "OUI", "capacity": 25, "numdocksavailable": 7, "numbikesavailable": 16, "mechanical": 14, "ebike": 2, "is_renting": "OUI", "is_returning": "OUI", "duedate": "2024-06-14T16:50:05+00:00", "coordonnees_geo": {"lon": 2.2606918215752, "lat": 48.823933787309}, "nom_arrondissement_communes": "Issy-les-Moulineaux", "code_insee_commune": null}, {"stationcode": "11115", "name": "Montreuil - Gonnet", "is_installed": "OUI", "capacity": 24, "numdocksavailable": 10, "numbikesavailable": 13, "mechanical": 13, "ebike": 0, "is_renting": "OUI", "is_returning": "OUI", "duedate": "2024-06-14T16:49:48+00:00", "coordonnees_geo": {"lon": 2.3890856287864, "lat": 48.850500564921}, "nom_arrondissement_communes": "Paris", "code_insee_commune": null}, {"stationcode": "5021", "name": "Jussieu - Foss\u00e9s Saint-Bernard", "is_installed": "OUI", "capacity": 39, "numdocksavailable": 18, "numbikesavailable": 20, "mechanical": 18, "ebike": 2, "is_renting": "OUI", "is_returning": "OUI", "duedate": "2024-06-14T16:50:16+00:00", "coordonnees_geo": {"lon": 2.3534858599305153, "lat": 48.84718551002347}, "nom_arrondissement_communes": "Paris", "code_insee_commune": null}, {"stationcode": "6013", "name": "Jacques Callot - Mazarine", "is_installed": "OUI", "capacity": 28, "numdocksavailable": 17, "numbikesavailable": 9, "mechanical": 5, "ebike": 4, "is_renting": "OUI", "is_returning": "OUI", "duedate": "2024-06-14T16:49:56+00:00", "coordonnees_geo": {"lon": 2.337574325501919, "lat": 48.85528017533187}, "nom_arrondissement_communes": "Paris", "code_insee_commune": null}, {"stationcode": "21955", "name": "Vaugirard - Verrerie", "is_installed": "NON", "capacity": 0, "numdocksavailable": 0, "numbikesavailable": 0, "mechanical": 0, "ebike": 0, "is_renting": "NON", "is_returning": "NON", "duedate": "2024-05-27T09:10:26+00:00", "coordonnees_geo": {"lon": 2.2367222622987, "lat": 48.820881336842}, "nom_arrondissement_communes": "Meudon", "code_insee_commune": null}, {"stationcode": "23801", "name": "Place de la Gare", "is_installed": "NON", "capacity": 0, "numdocksavailable": 0, "numbikesavailable": 0, "mechanical": 0, "ebike": 0, "is_renting": "NON", "is_returning": "NON", "duedate": "2024-05-27T09:42:00+00:00", "coordonnees_geo": {"lon": 2.1866139007512, "lat": 48.838513582184}, "nom_arrondissement_communes": "Garches", "code_insee_commune": null}, {"stationcode": "23001", "name": "Paul Vaillant Couturier - Chaptal", "is_installed": "OUI", "capacity": 39, "numdocksavailable": 29, "numbikesavailable": 8, "mechanical": 2, "ebike": 6, "is_renting": "OUI", "is_returning": "OUI", "duedate": "2024-06-14T16:48:10+00:00", "coordonnees_geo": {"lon": 2.2775253653526, "lat": 48.893479576183}, "nom_arrondissement_communes": "Levallois-Perret", "code_insee_commune": null}, {"stationcode": "41102", "name": "Gare de Laplace", "is_installed": "OUI", "capacity": 43, "numdocksavailable": 41, "numbikesavailable": 2, "mechanical": 1, "ebike": 1, "is_renting": "OUI", "is_returning": "OUI", "duedate": "2024-06-14T16:43:58+00:00", "coordonnees_geo": {"lon": 2.3349460959434514, "lat": 48.80893199114179}, "nom_arrondissement_communes": "Arcueil", "code_insee_commune": null}, {"stationcode": "17037", "name": "Bayen - Pereire", "is_installed": "OUI", "capacity": 22, "numdocksavailable": 19, "numbikesavailable": 3, "mechanical": 3, "ebike": 0, "is_renting": "OUI", "is_returning": "OUI", "duedate": "2024-06-14T16:50:00+00:00", "coordonnees_geo": {"lon": 2.2921088710427284, "lat": 48.881804409079656}, "nom_arrondissement_communes": "Paris", "code_insee_commune": null}, {"stationcode": "19004", "name": "Quai de la Loire - Jean Jaur\u00e8s", "is_installed": "OUI", "capacity": 16, "numdocksavailable": 2, "numbikesavailable": 12, "mechanical": 5, "ebike": 7, "is_renting": "OUI", "is_returning": "OUI", "duedate": "2024-06-14T16:49:59+00:00", "coordonnees_geo": {"lon": 2.371074522980134, "lat": 48.88339733854529}, "nom_arrondissement_communes": "Paris", "code_insee_commune": null}, {"stationcode": "16124", "name": "Route de S\u00e8vres - Porte de Bagatelle", "is_installed": "OUI", "capacity": 66, "numdocksavailable": 36, "numbikesavailable": 30, "mechanical": 24, "ebike": 6, "is_renting": "OUI", "is_returning": "OUI", "duedate": "2024-06-14T16:50:06+00:00", "coordonnees_geo": {"lon": 2.249415814876557, "lat": 48.87525984132485}, "nom_arrondissement_communes": "Paris", "code_insee_commune": null}, {"stationcode": "7009", "name": "Assembl\u00e9e Nationale", "is_installed": "OUI", "capacity": 76, "numdocksavailable": 62, "numbikesavailable": 12, "mechanical": 8, "ebike": 4, "is_renting": "OUI", "is_returning": "OUI", "duedate": "2024-06-14T16:50:14+00:00", "coordonnees_geo": {"lon": 2.3201214185208, "lat": 48.861411014652}, "nom_arrondissement_communes": "Paris", "code_insee_commune": null}, {"stationcode": "5106", "name": "Cujas - Saint-Michel", "is_installed": "OUI", "capacity": 19, "numdocksavailable": 17, "numbikesavailable": 2, "mechanical": 0, "ebike": 2, "is_renting": "OUI", "is_returning": "OUI", "duedate": "2024-06-14T16:50:15+00:00", "coordonnees_geo": {"lon": 2.341831654854, "lat": 48.848191348584}, "nom_arrondissement_communes": "Paris", "code_insee_commune": null}, {"stationcode": "14117", "name": "Gare Montparnasse - Ren\u00e9 Mouchotte", "is_installed": "OUI", "capacity": 39, "numdocksavailable": 8, "numbikesavailable": 31, "mechanical": 9, "ebike": 22, "is_renting": "OUI", "is_returning": "OUI", "duedate": "2024-06-14T16:50:09+00:00", "coordonnees_geo": {"lon": 2.320883944630623, "lat": 48.83920384329242}, "nom_arrondissement_communes": "Paris", "code_insee_commune": null}, {"stationcode": "25005", "name": "18 juin 1940 - Buzenval", "is_installed": "OUI", "capacity": 25, "numdocksavailable": 19, "numbikesavailable": 6, "mechanical": 3, "ebike": 3, "is_renting": "OUI", "is_returning": "OUI", "duedate": "2024-06-14T16:50:06+00:00", "coordonnees_geo": {"lon": 2.185428, "lat": 48.868807}, "nom_arrondissement_communes": "Rueil-Malmaison", "code_insee_commune": null}, {"stationcode": "22505", "name": "Mairie de La Garenne Colombes", "is_installed": "OUI", "capacity": 22, "numdocksavailable": 16, "numbikesavailable": 5, "mechanical": 2, "ebike": 3, "is_renting": "OUI", "is_returning": "OUI", "duedate": "2024-06-14T16:41:55+00:00", "coordonnees_geo": {"lon": 2.24679596722126, "lat": 48.90663823468682}, "nom_arrondissement_communes": "La Garenne-Colombes", "code_insee_commune": null}, {"stationcode": "14034", "name": "Ouest - Ch\u00e2teau", "is_installed": "OUI", "capacity": 23, "numdocksavailable": 18, "numbikesavailable": 4, "mechanical": 2, "ebike": 2, "is_renting": "OUI", "is_returning": "OUI", "duedate": "2024-06-14T16:50:11+00:00", "coordonnees_geo": {"lon": 2.319392143923804, "lat": 48.83617286014242}, "nom_arrondissement_communes": "Paris", "code_insee_commune": null}, {"stationcode": "32010", "name": "Place aux \u00c9toiles", "is_installed": "OUI", "capacity": 40, "numdocksavailable": 37, "numbikesavailable": 3, "mechanical": 1, "ebike": 2, "is_renting": "OUI", "is_returning": "OUI", "duedate": "2024-06-14T16:47:25+00:00", "coordonnees_geo": {"lon": 2.3523425683379173, "lat": 48.91835629408464}, "nom_arrondissement_communes": "Saint-Denis", "code_insee_commune": null}, {"stationcode": "16018", "name": "Flandrin - Henri Martin", "is_installed": "OUI", "capacity": 18, "numdocksavailable": 18, "numbikesavailable": 0, "mechanical": 0, "ebike": 0, "is_renting": "OUI", "is_returning": "OUI", "duedate": "2024-06-14T16:43:32+00:00", "coordonnees_geo": {"lon": 2.2724174, "lat": 48.8643275}, "nom_arrondissement_communes": "Paris", "code_insee_commune": null}, {"stationcode": "25008", "name": "Place du 8 Mai 1945", "is_installed": "OUI", "capacity": 18, "numdocksavailable": 16, "numbikesavailable": 0, "mechanical": 0, "ebike": 0, "is_renting": "OUI", "is_returning": "OUI", "duedate": "2024-06-14T16:46:07+00:00", "coordonnees_geo": {"lon": 2.2025031970585, "lat": 48.871552174017}, "nom_arrondissement_communes": "Rueil-Malmaison", "code_insee_commune": null}, {"stationcode": "19044", "name": "Grands Moulins de Pantin", "is_installed": "OUI", "capacity": 50, "numdocksavailable": 43, "numbikesavailable": 7, "mechanical": 4, "ebike": 3, "is_renting": "OUI", "is_returning": "OUI", "duedate": "2024-06-14T16:48:09+00:00", "coordonnees_geo": {"lon": 2.3959985375404362, "lat": 48.89738369720229}, "nom_arrondissement_communes": "Paris", "code_insee_commune": null}, {"stationcode": "12201", "name": "Dugommier", "is_installed": "OUI", "capacity": 53, "numdocksavailable": 1, "numbikesavailable": 49, "mechanical": 36, "ebike": 13, "is_renting": "OUI", "is_returning": "OUI", "duedate": "2024-06-14T16:49:37+00:00", "coordonnees_geo": {"lon": 2.3896577954292, "lat": 48.838811048815}, "nom_arrondissement_communes": "Paris", "code_insee_commune": null}, {"stationcode": "33001", "name": "Victor Hugo - Magasins G\u00e9n\u00e9raux", "is_installed": "OUI", "capacity": 34, "numdocksavailable": 22, "numbikesavailable": 12, "mechanical": 10, "ebike": 2, "is_renting": "OUI", "is_returning": "OUI", "duedate": "2024-06-14T16:49:45+00:00", "coordonnees_geo": {"lon": 2.368072383105755, "lat": 48.903281401126755}, "nom_arrondissement_communes": "Aubervilliers", "code_insee_commune": null}, {"stationcode": "41404", "name": "Carnot - P\u00e2querettes", "is_installed": "OUI", "capacity": 26, "numdocksavailable": 2, "numbikesavailable": 24, "mechanical": 22, "ebike": 2, "is_renting": "OUI", "is_returning": "OUI", "duedate": "2024-06-14T16:45:42+00:00", "coordonnees_geo": {"lon": 2.4261841177940373, "lat": 48.79592939432515}, "nom_arrondissement_communes": "Alfortville", "code_insee_commune": null}, {"stationcode": "23802", "name": "Raymond Poincar\u00e9 - All\u00e9e de la Marche", "is_installed": "NON", "capacity": 0, "numdocksavailable": 0, "numbikesavailable": 0, "mechanical": 0, "ebike": 0, "is_renting": "NON", "is_returning": "NON", "duedate": "2024-05-27T09:47:05+00:00", "coordonnees_geo": {"lon": 2.1724102640451, "lat": 48.838634069623}, "nom_arrondissement_communes": "Garches", "code_insee_commune": null}, {"stationcode": "20132", "name": "R\u00e9union - Avron", "is_installed": "OUI", "capacity": 26, "numdocksavailable": 24, "numbikesavailable": 2, "mechanical": 1, "ebike": 1, "is_renting": "OUI", "is_returning": "OUI", "duedate": "2024-06-14T16:50:08+00:00", "coordonnees_geo": {"lon": 2.403928068708116, "lat": 48.852566752033766}, "nom_arrondissement_communes": "Paris", "code_insee_commune": null}, {"stationcode": "19019", "name": "Petit - Manin", "is_installed": "OUI", "capacity": 22, "numdocksavailable": 12, "numbikesavailable": 9, "mechanical": 7, "ebike": 2, "is_renting": "OUI", "is_returning": "OUI", "duedate": "2024-06-14T16:49:53+00:00", "coordonnees_geo": {"lon": 2.3938155401308374, "lat": 48.88650687534334}, "nom_arrondissement_communes": "Paris", "code_insee_commune": null}, {"stationcode": "42207", "name": "Place des Marseillais", "is_installed": "OUI", "capacity": 37, "numdocksavailable": 24, "numbikesavailable": 11, "mechanical": 5, "ebike": 6, "is_renting": "OUI", "is_returning": "OUI", "duedate": "2024-06-14T16:49:15+00:00", "coordonnees_geo": {"lon": 2.4059280753135686, "lat": 48.82663907252554}, "nom_arrondissement_communes": "Charenton-le-Pont", "code_insee_commune": null}, {"stationcode": "42707", "name": "Place Jean-Baptiste Cl\u00e9ment", "is_installed": "OUI", "capacity": 25, "numdocksavailable": 17, "numbikesavailable": 7, "mechanical": 4, "ebike": 3, "is_renting": "OUI", "is_returning": "OUI", "duedate": "2024-06-14T16:50:11+00:00", "coordonnees_geo": {"lon": 2.3617091774940495, "lat": 48.81240466867336}, "nom_arrondissement_communes": "Le Kremlin-Bic\u00eatre", "code_insee_commune": null}, {"stationcode": "8055", "name": "Courcelles - Place des Ternes", "is_installed": "OUI", "capacity": 31, "numdocksavailable": 30, "numbikesavailable": 1, "mechanical": 0, "ebike": 1, "is_renting": "OUI", "is_returning": "OUI", "duedate": "2024-06-14T16:48:15+00:00", "coordonnees_geo": {"lon": 2.2992860188665043, "lat": 48.878199928923124}, "nom_arrondissement_communes": "Paris", "code_insee_commune": null}, {"stationcode": "23701", "name": "Parvis Robert Schuman - Roger Salengro", "is_installed": "OUI", "capacity": 24, "numdocksavailable": 23, "numbikesavailable": 1, "mechanical": 0, "ebike": 1, "is_renting": "OUI", "is_returning": "OUI", "duedate": "2024-06-14T16:44:59+00:00", "coordonnees_geo": {"lon": 2.1921751275658607, "lat": 48.812657470558754}, "nom_arrondissement_communes": "Chaville", "code_insee_commune": null}, {"stationcode": "17007", "name": "Navier - Epinettes", "is_installed": "OUI", "capacity": 36, "numdocksavailable": 28, "numbikesavailable": 8, "mechanical": 6, "ebike": 2, "is_renting": "OUI", "is_returning": "OUI", "duedate": "2024-06-14T16:50:09+00:00", "coordonnees_geo": {"lon": 2.3226776719093327, "lat": 48.89587780769155}, "nom_arrondissement_communes": "Paris", "code_insee_commune": null}, {"stationcode": "21502", "name": "Verdun - Place Henri IV", "is_installed": "OUI", "capacity": 26, "numdocksavailable": 21, "numbikesavailable": 3, "mechanical": 1, "ebike": 2, "is_renting": "OUI", "is_returning": "OUI", "duedate": "2024-06-14T16:47:17+00:00", "coordonnees_geo": {"lon": 2.2277003154158592, "lat": 48.870797375639214}, "nom_arrondissement_communes": "Suresnes", "code_insee_commune": null}, {"stationcode": "12126", "name": "Gravelle - Route du Bac", "is_installed": "OUI", "capacity": 51, "numdocksavailable": 49, "numbikesavailable": 1, "mechanical": 0, "ebike": 1, "is_renting": "OUI", "is_returning": "OUI", "duedate": "2024-06-14T16:47:03+00:00", "coordonnees_geo": {"lon": 2.418455, "lat": 48.824407}, "nom_arrondissement_communes": "Paris", "code_insee_commune": null}, {"stationcode": "12024", "name": "Gare de Bercy", "is_installed": "OUI", "capacity": 35, "numdocksavailable": 4, "numbikesavailable": 31, "mechanical": 29, "ebike": 2, "is_renting": "OUI", "is_returning": "OUI", "duedate": "2024-06-14T16:50:00+00:00", "coordonnees_geo": {"lon": 2.3826066032052, "lat": 48.839794573906}, "nom_arrondissement_communes": "Paris", "code_insee_commune": null}, {"stationcode": "14104", "name": "Boyer-Barret - Raymond Losserand", "is_installed": "OUI", "capacity": 23, "numdocksavailable": 18, "numbikesavailable": 2, "mechanical": 2, "ebike": 0, "is_renting": "OUI", "is_returning": "OUI", "duedate": "2024-06-14T16:46:51+00:00", "coordonnees_geo": {"lon": 2.3173383995890617, "lat": 48.83329880233322}, "nom_arrondissement_communes": "Paris", "code_insee_commune": null}, {"stationcode": "20113", "name": "Piat - Parc de Belleville", "is_installed": "OUI", "capacity": 21, "numdocksavailable": 15, "numbikesavailable": 5, "mechanical": 0, "ebike": 5, "is_renting": "OUI", "is_returning": "OUI", "duedate": "2024-06-14T16:48:23+00:00", "coordonnees_geo": {"lon": 2.384981390278095, "lat": 48.87195626635528}, "nom_arrondissement_communes": "Paris", "code_insee_commune": null}, {"stationcode": "41604", "name": "Lagny - Joffre", "is_installed": "OUI", "capacity": 31, "numdocksavailable": 28, "numbikesavailable": 3, "mechanical": 0, "ebike": 3, "is_renting": "OUI", "is_returning": "OUI", "duedate": "2024-06-14T16:47:54+00:00", "coordonnees_geo": {"lon": 2.417949736118317, "lat": 48.84930687084088}, "nom_arrondissement_communes": "Saint-Mand\u00e9", "code_insee_commune": null}, {"stationcode": "15029", "name": "Emeriau - Place de Brazzaville", "is_installed": "OUI", "capacity": 51, "numdocksavailable": 12, "numbikesavailable": 39, "mechanical": 38, "ebike": 1, "is_renting": "OUI", "is_returning": "OUI", "duedate": "2024-06-14T16:49:32+00:00", "coordonnees_geo": {"lon": 2.2871585190296173, "lat": 48.850785261674964}, "nom_arrondissement_communes": "Paris", "code_insee_commune": null}, {"stationcode": "17018", "name": "Parc Monceau", "is_installed": "OUI", "capacity": 18, "numdocksavailable": 14, "numbikesavailable": 4, "mechanical": 1, "ebike": 3, "is_renting": "OUI", "is_returning": "OUI", "duedate": "2024-06-14T16:44:25+00:00", "coordonnees_geo": {"lon": 2.3095492646098, "lat": 48.881077914129}, "nom_arrondissement_communes": "Paris", "code_insee_commune": null}, {"stationcode": "5116", "name": "Place Valhubert", "is_installed": "OUI", "capacity": 51, "numdocksavailable": 1, "numbikesavailable": 50, "mechanical": 44, "ebike": 6, "is_renting": "OUI", "is_returning": "OUI", "duedate": "2024-06-14T16:49:36+00:00", "coordonnees_geo": {"lon": 2.3640366643667, "lat": 48.844182577315}, "nom_arrondissement_communes": "Paris", "code_insee_commune": null}, {"stationcode": "18005", "name": "Tardieu - Chappe", "is_installed": "OUI", "capacity": 18, "numdocksavailable": 13, "numbikesavailable": 4, "mechanical": 0, "ebike": 4, "is_renting": "OUI", "is_returning": "OUI", "duedate": "2024-06-14T16:47:52+00:00", "coordonnees_geo": {"lon": 2.341845408082, "lat": 48.884146759782}, "nom_arrondissement_communes": "Paris", "code_insee_commune": null}, {"stationcode": "10005", "name": "Petites Ecuries - Faubourg Poissonni\u00e8re", "is_installed": "OUI", "capacity": 17, "numdocksavailable": 11, "numbikesavailable": 4, "mechanical": 2, "ebike": 2, "is_renting": "OUI", "is_returning": "OUI", "duedate": "2024-06-14T16:49:43+00:00", "coordonnees_geo": {"lon": 2.348388757504776, "lat": 48.87397217237368}, "nom_arrondissement_communes": "Paris", "code_insee_commune": null}, {"stationcode": "92004", "name": "Nanterre - Universit\u00e9", "is_installed": "OUI", "capacity": 20, "numdocksavailable": 14, "numbikesavailable": 5, "mechanical": 2, "ebike": 3, "is_renting": "OUI", "is_returning": "OUI", "duedate": "2024-06-14T16:40:55+00:00", "coordonnees_geo": {"lon": 2.212693, "lat": 48.901365}, "nom_arrondissement_communes": "Nanterre", "code_insee_commune": null}, {"stationcode": "20136", "name": "Henri Chevreau - Couronnes", "is_installed": "OUI", "capacity": 27, "numdocksavailable": 26, "numbikesavailable": 1, "mechanical": 1, "ebike": 0, "is_renting": "OUI", "is_returning": "OUI", "duedate": "2024-06-14T16:49:59+00:00", "coordonnees_geo": {"lon": 2.388777695596218, "lat": 48.87033205312931}, "nom_arrondissement_communes": "Paris", "code_insee_commune": null}, {"stationcode": "5026", "name": "Pascal - Claude Bernard", "is_installed": "OUI", "capacity": 49, "numdocksavailable": 25, "numbikesavailable": 24, "mechanical": 21, "ebike": 3, "is_renting": "OUI", "is_returning": "OUI", "duedate": "2024-06-14T16:50:14+00:00", "coordonnees_geo": {"lon": 2.3499782010912895, "lat": 48.839061952159746}, "nom_arrondissement_communes": "Paris", "code_insee_commune": null}, {"stationcode": "5002", "name": "Sommerard - Saint-Jacques", "is_installed": "OUI", "capacity": 34, "numdocksavailable": 14, "numbikesavailable": 20, "mechanical": 19, "ebike": 1, "is_renting": "OUI", "is_returning": "OUI", "duedate": "2024-06-14T16:49:17+00:00", "coordonnees_geo": {"lon": 2.345015835298588, "lat": 48.850310432924466}, "nom_arrondissement_communes": "Paris", "code_insee_commune": null}, {"stationcode": "21013", "name": "Pierre Grenier - Pont de Billancourt", "is_installed": "OUI", "capacity": 21, "numdocksavailable": 6, "numbikesavailable": 14, "mechanical": 11, "ebike": 3, "is_renting": "OUI", "is_returning": "OUI", "duedate": "2024-06-14T16:47:57+00:00", "coordonnees_geo": {"lon": 2.2487989068031315, "lat": 48.8258020742942}, "nom_arrondissement_communes": "Boulogne-Billancourt", "code_insee_commune": null}, {"stationcode": "21111", "name": "Professeur Ren\u00e9 Leriche - G\u00e9n\u00e9ral Leclerc", "is_installed": "OUI", "capacity": 50, "numdocksavailable": 41, "numbikesavailable": 7, "mechanical": 5, "ebike": 2, "is_renting": "OUI", "is_returning": "OUI", "duedate": "2024-06-14T16:46:49+00:00", "coordonnees_geo": {"lon": 2.307887971401215, "lat": 48.90782845483013}, "nom_arrondissement_communes": "Clichy", "code_insee_commune": null}, {"stationcode": "7014", "name": "Saint-Fran\u00e7ois-Xavier", "is_installed": "OUI", "capacity": 42, "numdocksavailable": 27, "numbikesavailable": 11, "mechanical": 9, "ebike": 2, "is_renting": "OUI", "is_returning": "OUI", "duedate": "2024-06-14T16:50:04+00:00", "coordonnees_geo": {"lon": 2.3146149516106, "lat": 48.85154484769}, "nom_arrondissement_communes": "Paris", "code_insee_commune": null}, {"stationcode": "13026", "name": "Place Jean Delay", "is_installed": "OUI", "capacity": 35, "numdocksavailable": 33, "numbikesavailable": 2, "mechanical": 0, "ebike": 2, "is_renting": "OUI", "is_returning": "OUI", "duedate": "2024-06-14T16:27:54+00:00", "coordonnees_geo": {"lon": 2.354336, "lat": 48.823316}, "nom_arrondissement_communes": "Paris", "code_insee_commune": null}, {"stationcode": "14139", "name": "Pierre Larousse - Raymond Losserand", "is_installed": "OUI", "capacity": 30, "numdocksavailable": 29, "numbikesavailable": 1, "mechanical": 1, "ebike": 0, "is_renting": "OUI", "is_returning": "OUI", "duedate": "2024-06-14T16:44:21+00:00", "coordonnees_geo": {"lon": 2.3119183257222176, "lat": 48.83059564231877}, "nom_arrondissement_communes": "Paris", "code_insee_commune": null}, {"stationcode": "11101", "name": "Charles Delescluze", "is_installed": "OUI", "capacity": 49, "numdocksavailable": 20, "numbikesavailable": 27, "mechanical": 13, "ebike": 14, "is_renting": "OUI", "is_returning": "OUI", "duedate": "2024-06-14T16:49:10+00:00", "coordonnees_geo": {"lon": 2.380632497370243, "lat": 48.85242200848887}, "nom_arrondissement_communes": "Paris", "code_insee_commune": null}, {"stationcode": "15055", "name": "Vasco de Gama", "is_installed": "OUI", "capacity": 54, "numdocksavailable": 24, "numbikesavailable": 28, "mechanical": 26, "ebike": 2, "is_renting": "OUI", "is_returning": "OUI", "duedate": "2024-06-14T16:50:16+00:00", "coordonnees_geo": {"lon": 2.283664085650799, "lat": 48.83671783466264}, "nom_arrondissement_communes": "Paris", "code_insee_commune": null}, {"stationcode": "12011", "name": "Charenton - Place du Col Bourgoin", "is_installed": "OUI", "capacity": 35, "numdocksavailable": 2, "numbikesavailable": 32, "mechanical": 29, "ebike": 3, "is_renting": "OUI", "is_returning": "OUI", "duedate": "2024-06-14T16:50:12+00:00", "coordonnees_geo": {"lon": 2.3825789350545, "lat": 48.844867319554}, "nom_arrondissement_communes": "Paris", "code_insee_commune": null}, {"stationcode": "21308", "name": "Bara - Henri Farman", "is_installed": "OUI", "capacity": 58, "numdocksavailable": 37, "numbikesavailable": 21, "mechanical": 16, "ebike": 5, "is_renting": "OUI", "is_returning": "OUI", "duedate": "2024-06-14T16:49:17+00:00", "coordonnees_geo": {"lon": 2.2677567601203923, "lat": 48.833218027457846}, "nom_arrondissement_communes": "Issy-les-Moulineaux", "code_insee_commune": null}, {"stationcode": "7014", "name": "Saint-Fran\u00e7ois-Xavier", "is_installed": "OUI", "capacity": 42, "numdocksavailable": 12, "numbikesavailable": 26, "mechanical": 15, "ebike": 11, "is_renting": "OUI", "is_returning": "OUI", "duedate": "2024-06-14T17:50:10+00:00", "coordonnees_geo": {"lon": 2.3146149516106, "lat": 48.85154484769}, "nom_arrondissement_communes": "Paris", "code_insee_commune": null}, {"stationcode": "7006", "name": "Quai Voltaire", "is_installed": "OUI", "capacity": 32, "numdocksavailable": 21, "numbikesavailable": 6, "mechanical": 3, "ebike": 3, "is_renting": "OUI", "is_returning": "OUI", "duedate": "2024-06-14T17:49:14+00:00", "coordonnees_geo": {"lon": 2.3314182047146, "lat": 48.858942986179}, "nom_arrondissement_communes": "Paris", "code_insee_commune": null}, {"stationcode": "11114", "name": "Ledru-Rollin - Charonne", "is_installed": "OUI", "capacity": 32, "numdocksavailable": 1, "numbikesavailable": 30, "mechanical": 29, "ebike": 1, "is_renting": "OUI", "is_returning": "OUI", "duedate": "2024-06-14T17:50:24+00:00", "coordonnees_geo": {"lon": 2.3772463581947094, "lat": 48.85345855607243}, "nom_arrondissement_communes": "Paris", "code_insee_commune": null}, {"stationcode": "20040", "name": "Parc de Belleville - Julien Lacroix", "is_installed": "OUI", "capacity": 26, "numdocksavailable": 19, "numbikesavailable": 7, "mechanical": 3, "ebike": 4, "is_renting": "OUI", "is_returning": "OUI", "duedate": "2024-06-14T17:49:47+00:00", "coordonnees_geo": {"lon": 2.3842214, "lat": 48.8703459}, "nom_arrondissement_communes": "Paris", "code_insee_commune": null}, {"stationcode": "21105", "name": "Morice - G\u00e9n\u00e9ral Leclerc", "is_installed": "OUI", "capacity": 25, "numdocksavailable": 9, "numbikesavailable": 15, "mechanical": 11, "ebike": 4, "is_renting": "OUI", "is_returning": "OUI", "duedate": "2024-06-14T17:49:13+00:00", "coordonnees_geo": {"lon": 2.3128929734230046, "lat": 48.90245471981591}, "nom_arrondissement_communes": "Clichy", "code_insee_commune": null}, {"stationcode": "14139", "name": "Pierre Larousse - Raymond Losserand", "is_installed": "OUI", "capacity": 30, "numdocksavailable": 27, "numbikesavailable": 3, "mechanical": 0, "ebike": 3, "is_renting": "OUI", "is_returning": "OUI", "duedate": "2024-06-14T17:41:28+00:00", "coordonnees_geo": {"lon": 2.3119183257222176, "lat": 48.83059564231877}, "nom_arrondissement_communes": "Paris", "code_insee_commune": null}, {"stationcode": "13102", "name": "Piti\u00e9-Salp\u00eatri\u00e8re", "is_installed": "OUI", "capacity": 51, "numdocksavailable": 43, "numbikesavailable": 8, "mechanical": 8, "ebike": 0, "is_renting": "OUI", "is_returning": "OUI", "duedate": "2024-06-14T17:47:01+00:00", "coordonnees_geo": {"lon": 2.365213818848133, "lat": 48.83748810318667}, "nom_arrondissement_communes": "Paris", "code_insee_commune": null}, {"stationcode": "11101", "name": "Charles Delescluze", "is_installed": "OUI", "capacity": 49, "numdocksavailable": 2, "numbikesavailable": 45, "mechanical": 23, "ebike": 22, "is_renting": "OUI", "is_returning": "OUI", "duedate": "2024-06-14T17:49:10+00:00", "coordonnees_geo": {"lon": 2.380632497370243, "lat": 48.85242200848887}, "nom_arrondissement_communes": "Paris", "code_insee_commune": null}, {"stationcode": "15055", "name": "Vasco de Gama", "is_installed": "OUI", "capacity": 54, "numdocksavailable": 23, "numbikesavailable": 29, "mechanical": 27, "ebike": 2, "is_renting": "OUI", "is_returning": "OUI", "duedate": "2024-06-14T17:50:32+00:00", "coordonnees_geo": {"lon": 2.283664085650799, "lat": 48.83671783466264}, "nom_arrondissement_communes": "Paris", "code_insee_commune": null}, {"stationcode": "14130", "name": "Jonquoy - Didot", "is_installed": "OUI", "capacity": 30, "numdocksavailable": 24, "numbikesavailable": 6, "mechanical": 2, "ebike": 4, "is_renting": "OUI", "is_returning": "OUI", "duedate": "2024-06-14T17:49:36+00:00", "coordonnees_geo": {"lon": 2.31648076325655, "lat": 48.82890454823947}, "nom_arrondissement_communes": "Paris", "code_insee_commune": null}, {"stationcode": "41207", "name": "Place du G\u00e9n\u00e9ral de Gaulle", "is_installed": "OUI", "capacity": 28, "numdocksavailable": 20, "numbikesavailable": 8, "mechanical": 2, "ebike": 6, "is_renting": "OUI", "is_returning": "OUI", "duedate": "2024-06-14T17:46:20+00:00", "coordonnees_geo": {"lon": 2.4877332, "lat": 48.8525288}, "nom_arrondissement_communes": "Fontenay-sous-Bois", "code_insee_commune": null}]