[{"stationcode": "7008", "name": "Villersexel - Saint-Germain", "is_installed": "OUI", "capacity": 16, "numdocksavailable": 8, "numbikesavailable": 7, "mechanical": 6, "ebike": 1, "is_renting": "OUI", "is_returning": "OUI", "duedate": "2024-06-16T18:47:35+00:00", "coordonnees_geo": {"lon": 2.3237934708595, "lat": 48.858297001218}, "nom_arrondissement_communes": "Paris", "code_insee_commune": null}, {"stationcode": "14030", "name": "Pernety - Raymond Losserand", "is_installed": "OUI", "capacity": 32, "numdocksavailable": 31, "numbikesavailable": 1, "mechanical": 1, "ebike": 0, "is_renting": "OUI", "is_returning": "OUI", "duedate": "2024-06-16T18:49:53+00:00", "coordonnees_geo": {"lon": 2.317609339387, "lat": 48.834254627953}, "nom_arrondissement_communes": "Paris", "code_insee_commune": null}, {"stationcode": "13046", "name": "Eug\u00e8ne Oudin\u00e9 - Dessous Des Berges", "is_installed": "OUI", "capacity": 44, "numdocksavailable": 1, "numbikesavailable": 41, "mechanical": 31, "ebike": 10, "is_renting": "OUI", "is_returning": "OUI", "duedate": "2024-06-16T18:50:10+00:00", "coordonnees_geo": {"lon": 2.3750226, "lat": 48.8256423}, "nom_arrondissement_communes": "Paris", "code_insee_commune": null}, {"stationcode": "4110", "name": "Neuve Saint-Pierre - Beautreillis", "is_installed": "OUI", "capacity": 20, "numdocksavailable": 9, "numbikesavailable": 10, "mechanical": 6, "ebike": 4, "is_renting": "OUI", "is_returning": "OUI", "duedate": "2024-06-16T18:54:35+00:00", "coordonnees_geo": {"lon": 2.3639122769236565, "lat": 48.85355351439652}, "nom_arrondissement_communes": "Paris", "code_insee_commune": null}, {"stationcode": "17022", "name": "Pereire - Place de Wagram", "is_installed": "OUI", "capacity": 46, "numdocksavailable": 35, "numbikesavailable": 11, "mechanical": 4, "ebike": 7, "is_renting": "OUI", "is_returning": "OUI", "duedate": "2024-06-16T18:54:15+00:00", "coordonnees_geo": {"lon": 2.304111124531457, "lat": 48.887070607581215}, "nom_arrondissement_communes": "Paris", "code_insee_commune": null}, {"stationcode": "10036", "name": "Aqueduc - Villette", "is_installed": "OUI", "capacity": 28, "numdocksavailable": 23, "numbikesavailable": 4, "mechanical": 1, "ebike": 3, "is_renting": "OUI", "is_returning": "OUI", "duedate": "2024-06-16T18:53:36+00:00", "coordonnees_geo": {"lon": 2.367198803315, "lat": 48.883886063895}, "nom_arrondissement_communes": "Paris", "code_insee_commune": null}, {"stationcode": "15107", "name": "Palais des Sports", "is_installed": "OUI", "capacity": 22, "numdocksavailable": 5, "numbikesavailable": 17, "mechanical": 11, "ebike": 6, "is_renting": "OUI", "is_returning": "OUI", "duedate": "2024-06-16T18:55:48+00:00", "coordonnees_geo": {"lon": 2.2858720645308, "lat": 48.833468517426}, "nom_arrondissement_communes": "Paris", "code_insee_commune": null}, {"stationcode": "1117", "name": "Pont Neuf - Rivoli", "is_installed": "OUI", "capacity": 27, "numdocksavailable": 12, "numbikesavailable": 14, "mechanical": 13, "ebike": 1, "is_renting": "OUI", "is_returning": "OUI", "duedate": "2024-06-16T18:55:48+00:00", "coordonnees_geo": {"lon": 2.344057559967, "lat": 48.860089892617}, "nom_arrondissement_communes": "Paris", "code_insee_commune": null}, {"stationcode": "21114", "name": "Gustave Eiffel - Parc des Impressionnistes", "is_installed": "OUI", "capacity": 30, "numdocksavailable": 13, "numbikesavailable": 15, "mechanical": 11, "ebike": 4, "is_renting": "OUI", "is_returning": "OUI", "duedate": "2024-06-16T18:54:05+00:00", "coordonnees_geo": {"lon": 2.2946908324956894, "lat": 48.90390619651018}, "nom_arrondissement_communes": "Clichy", "code_insee_commune": null}, {"stationcode": "20137", "name": "Borr\u00e9go - Gambetta", "is_installed": "OUI", "capacity": 25, "numdocksavailable": 25, "numbikesavailable": 0, "mechanical": 0, "ebike": 0, "is_renting": "OUI", "is_returning": "OUI", "duedate": "2024-06-16T18:53:07+00:00", "coordonnees_geo": {"lon": 2.4014145880937576, "lat": 48.87330497045532}, "nom_arrondissement_communes": "Paris", "code_insee_commune": null}, {"stationcode": "23903", "name": "Stade Gaston Bouillant", "is_installed": "OUI", "capacity": 30, "numdocksavailable": 23, "numbikesavailable": 5, "mechanical": 4, "ebike": 1, "is_renting": "OUI", "is_returning": "OUI", "duedate": "2024-06-16T18:54:45+00:00", "coordonnees_geo": {"lon": 2.3279571813836, "lat": 48.939958667023}, "nom_arrondissement_communes": "Villeneuve-la-Garenne", "code_insee_commune": null}, {"stationcode": "31704", "name": "Jeanne Hornet - Girardot", "is_installed": "OUI", "capacity": 29, "numdocksavailable": 23, "numbikesavailable": 5, "mechanical": 0, "ebike": 5, "is_renting": "OUI", "is_returning": "OUI", "duedate": "2024-06-16T18:56:06+00:00", "coordonnees_geo": {"lon": 2.427820265293122, "lat": 48.873802681432146}, "nom_arrondissement_communes": "Bagnolet", "code_insee_commune": null}, {"stationcode": "19023", "name": "Manin - Simon Bolivar", "is_installed": "OUI", "capacity": 26, "numdocksavailable": 15, "numbikesavailable": 9, "mechanical": 0, "ebike": 9, "is_renting": "OUI", "is_returning": "OUI", "duedate": "2024-06-16T18:52:24+00:00", "coordonnees_geo": {"lon": 2.379407362599104, "lat": 48.87649965412676}, "nom_arrondissement_communes": "Paris", "code_insee_commune": null}, {"stationcode": "7013", "name": "Duroc - Place de Breteuil", "is_installed": "OUI", "capacity": 42, "numdocksavailable": 1, "numbikesavailable": 41, "mechanical": 36, "ebike": 5, "is_renting": "OUI", "is_returning": "OUI", "duedate": "2024-06-16T18:56:02+00:00", "coordonnees_geo": {"lon": 2.3126140236855, "lat": 48.847460641142}, "nom_arrondissement_communes": "Paris", "code_insee_commune": null}, {"stationcode": "15059", "name": "Parc Andr\u00e9 Citro\u00ebn", "is_installed": "OUI", "capacity": 65, "numdocksavailable": 28, "numbikesavailable": 37, "mechanical": 37, "ebike": 0, "is_renting": "OUI", "is_returning": "OUI", "duedate": "2024-06-16T18:54:59+00:00", "coordonnees_geo": {"lon": 2.2780618071556096, "lat": 48.840639944296655}, "nom_arrondissement_communes": "Paris", "code_insee_commune": null}, {"stationcode": "23403", "name": "Chateau", "is_installed": "OUI", "capacity": 22, "numdocksavailable": 3, "numbikesavailable": 19, "mechanical": 13, "ebike": 6, "is_renting": "OUI", "is_returning": "OUI", "duedate": "2024-06-16T18:55:22+00:00", "coordonnees_geo": {"lon": 2.3135878035462, "lat": 48.774661399959}, "nom_arrondissement_communes": "Bourg-la-Reine", "code_insee_commune": null}, {"stationcode": "4013", "name": "Vieille du Temple - Francs Bourgeois", "is_installed": "OUI", "capacity": 29, "numdocksavailable": 5, "numbikesavailable": 21, "mechanical": 17, "ebike": 4, "is_renting": "OUI", "is_returning": "OUI", "duedate": "2024-06-16T18:55:14+00:00", "coordonnees_geo": {"lon": 2.35821794718504, "lat": 48.858256413365815}, "nom_arrondissement_communes": "Paris", "code_insee_commune": null}, {"stationcode": "4011", "name": "H\u00f4tel de Ville - Pont-Marie", "is_installed": "OUI", "capacity": 36, "numdocksavailable": 25, "numbikesavailable": 11, "mechanical": 8, "ebike": 3, "is_renting": "OUI", "is_returning": "OUI", "duedate": "2024-06-16T18:55:55+00:00", "coordonnees_geo": {"lon": 2.3569472506642, "lat": 48.853899645527}, "nom_arrondissement_communes": "Paris", "code_insee_commune": null}, {"stationcode": "31023", "name": "Place Fran\u00e7ois Mitterand", "is_installed": "OUI", "capacity": 34, "numdocksavailable": 27, "numbikesavailable": 7, "mechanical": 1, "ebike": 6, "is_renting": "OUI", "is_returning": "OUI", "duedate": "2024-06-16T18:56:00+00:00", "coordonnees_geo": {"lon": 2.442958317697048, "lat": 48.86492782016328}, "nom_arrondissement_communes": "Montreuil", "code_insee_commune": null}, {"stationcode": "21024", "name": "Billancourt - G\u00e9n\u00e9ral Leclerc", "is_installed": "OUI", "capacity": 22, "numdocksavailable": 5, "numbikesavailable": 17, "mechanical": 14, "ebike": 3, "is_renting": "OUI", "is_returning": "OUI", "duedate": "2024-06-16T18:54:59+00:00", "coordonnees_geo": {"lon": 2.2380413, "lat": 48.8322649}, "nom_arrondissement_communes": "Boulogne-Billancourt", "code_insee_commune": null}, {"stationcode": "2001", "name": "Greneta - Sebastopol", "is_installed": "OUI", "capacity": 32, "numdocksavailable": 5, "numbikesavailable": 27, "mechanical": 26, "ebike": 1, "is_renting": "OUI", "is_returning": "OUI", "duedate": "2024-06-16T18:54:40+00:00", "coordonnees_geo": {"lon": 2.3516669869423, "lat": 48.865242333228}, "nom_arrondissement_communes": "Paris", "code_insee_commune": null}, {"stationcode": "20019", "name": "Place du Maquis du Vercors", "is_installed": "OUI", "capacity": 31, "numdocksavailable": 25, "numbikesavailable": 5, "mechanical": 1, "ebike": 4, "is_renting": "OUI", "is_returning": "OUI", "duedate": "2024-06-16T18:55:23+00:00", "coordonnees_geo": {"lon": 2.4083782732486725, "lat": 48.877321579493575}, "nom_arrondissement_communes": "Paris", "code_insee_commune": null}, {"stationcode": "12108", "name": "Bercy.", "is_installed": "OUI", "capacity": 66, "numdocksavailable": 25, "numbikesavailable": 39, "mechanical": 38, "ebike": 1, "is_renting": "OUI", "is_returning": "OUI", "duedate": "2024-06-16T18:55:16+00:00", "coordonnees_geo": {"lon": 2.3788625746965, "lat": 48.839966914994}, "nom_arrondissement_communes": "Paris", "code_insee_commune": null}, {"stationcode": "18138", "name": "Station Paris Basketball - Ney - Charles Hermite", "is_installed": "OUI", "capacity": 20, "numdocksavailable": 7, "numbikesavailable": 13, "mechanical": 7, "ebike": 6, "is_renting": "OUI", "is_returning": "OUI", "duedate": "2024-06-16T18:54:34+00:00", "coordonnees_geo": {"lon": 2.3645754531026, "lat": 48.898748039775}, "nom_arrondissement_communes": "Paris", "code_insee_commune": null}, {"stationcode": "13010", "name": "Place d'Italie - Vincent Auriol", "is_installed": "OUI", "capacity": 40, "numdocksavailable": 33, "numbikesavailable": 7, "mechanical": 1, "ebike": 6, "is_renting": "OUI", "is_returning": "OUI", "duedate": "2024-06-16T18:54:35+00:00", "coordonnees_geo": {"lon": 2.3567550292319, "lat": 48.831481874467}, "nom_arrondissement_communes": "Paris", "code_insee_commune": null}, {"stationcode": "31013", "name": "Centenaire - Sorins", "is_installed": "OUI", "capacity": 45, "numdocksavailable": 26, "numbikesavailable": 19, "mechanical": 1, "ebike": 18, "is_renting": "OUI", "is_returning": "OUI", "duedate": "2024-06-16T18:50:58+00:00", "coordonnees_geo": {"lon": 2.4273508787155156, "lat": 48.85853523359734}, "nom_arrondissement_communes": "Montreuil", "code_insee_commune": null}, {"stationcode": "18001", "name": "Damr\u00e9mont - Caulaincourt", "is_installed": "OUI", "capacity": 18, "numdocksavailable": 17, "numbikesavailable": 1, "mechanical": 0, "ebike": 1, "is_renting": "OUI", "is_returning": "OUI", "duedate": "2024-06-16T18:49:47+00:00", "coordonnees_geo": {"lon": 2.3325880989432335, "lat": 48.88714509078738}, "nom_arrondissement_communes": "Paris", "code_insee_commune": null}, {"stationcode": "32018", "name": "Franciade - Gabriel P\u00e9ri", "is_installed": "OUI", "capacity": 26, "numdocksavailable": 9, "numbikesavailable": 17, "mechanical": 5, "ebike": 12, "is_renting": "OUI", "is_returning": "OUI", "duedate": "2024-06-16T18:55:39+00:00", "coordonnees_geo": {"lon": 2.355954498052597, "lat": 48.93261499331498}, "nom_arrondissement_communes": "Saint-Denis", "code_insee_commune": null}, {"stationcode": "17016", "name": "Brochant - Square des Batignolles", "is_installed": "OUI", "capacity": 31, "numdocksavailable": 27, "numbikesavailable": 3, "mechanical": 1, "ebike": 2, "is_renting": "OUI", "is_returning": "OUI", "duedate": "2024-06-16T18:50:31+00:00", "coordonnees_geo": {"lon": 2.316861143151153, "lat": 48.88818698581028}, "nom_arrondissement_communes": "Paris", "code_insee_commune": null}, {"stationcode": "1016", "name": "Th\u00e9r\u00e8se - Op\u00e9ra", "is_installed": "OUI", "capacity": 25, "numdocksavailable": 7, "numbikesavailable": 18, "mechanical": 17, "ebike": 1, "is_renting": "OUI", "is_returning": "OUI", "duedate": "2024-06-16T18:55:51+00:00", "coordonnees_geo": {"lon": 2.3344334212238, "lat": 48.866483514509}, "nom_arrondissement_communes": "Paris", "code_insee_commune": null}, {"stationcode": "9012", "name": "Rougemont - Poissonni\u00e8re", "is_installed": "OUI", "capacity": 30, "numdocksavailable": 4, "numbikesavailable": 25, "mechanical": 21, "ebike": 4, "is_renting": "OUI", "is_returning": "OUI", "duedate": "2024-06-16T18:55:27+00:00", "coordonnees_geo": {"lon": 2.345873080193996, "lat": 48.871611569354755}, "nom_arrondissement_communes": "Paris", "code_insee_commune": null}, {"stationcode": "15020", "name": "Mairie du 15\u00e8me", "is_installed": "OUI", "capacity": 32, "numdocksavailable": 4, "numbikesavailable": 27, "mechanical": 23, "ebike": 4, "is_renting": "OUI", "is_returning": "OUI", "duedate": "2024-06-16T18:54:52+00:00", "coordonnees_geo": {"lon": 2.2986539, "lat": 48.8417762}, "nom_arrondissement_communes": "Paris", "code_insee_commune": null}, {"stationcode": "41206", "name": "Place des Larris", "is_installed": "OUI", "capacity": 34, "numdocksavailable": 26, "numbikesavailable": 8, "mechanical": 1, "ebike": 7, "is_renting": "OUI", "is_returning": "OUI", "duedate": "2024-06-16T18:50:19+00:00", "coordonnees_geo": {"lon": 2.4780236, "lat": 48.8568363}, "nom_arrondissement_communes": "Fontenay-sous-Bois", "code_insee_commune": null}, {"stationcode": "19031", "name": "Manin - Crim\u00e9e", "is_installed": "OUI", "capacity": 23, "numdocksavailable": 5, "numbikesavailable": 18, "mechanical": 6, "ebike": 12, "is_renting": "OUI", "is_returning": "OUI", "duedate": "2024-06-16T18:55:54+00:00", "coordonnees_geo": {"lon": 2.3863670602440834, "lat": 48.8831217743719}, "nom_arrondissement_communes": "Paris", "code_insee_commune": null}, {"stationcode": "13114", "name": "Nationale - Marcel Duchamp", "is_installed": "OUI", "capacity": 23, "numdocksavailable": 14, "numbikesavailable": 9, "mechanical": 3, "ebike": 6, "is_renting": "OUI", "is_returning": "OUI", "duedate": "2024-06-16T18:53:47+00:00", "coordonnees_geo": {"lon": 2.3678014799952507, "lat": 48.82463749337136}, "nom_arrondissement_communes": "Paris", "code_insee_commune": null}, {"stationcode": "23008", "name": "H\u00f4tel de Ville de Levallois Perret", "is_installed": "OUI", "capacity": 26, "numdocksavailable": 21, "numbikesavailable": 1, "mechanical": 0, "ebike": 1, "is_renting": "OUI", "is_returning": "OUI", "duedate": "2024-06-16T18:55:41+00:00", "coordonnees_geo": {"lon": 2.2888818383216862, "lat": 48.89314451997415}, "nom_arrondissement_communes": "Levallois-Perret", "code_insee_commune": null}, {"stationcode": "15063", "name": "Convention - Saint-Charles", "is_installed": "OUI", "capacity": 23, "numdocksavailable": 21, "numbikesavailable": 2, "mechanical": 2, "ebike": 0, "is_renting": "NON", "is_returning": "NON", "duedate": "2023-12-14T02:53:24+00:00", "coordonnees_geo": {"lon": 2.2831090539694, "lat": 48.843156111116}, "nom_arrondissement_communes": "Paris", "code_insee_commune": null}, {"stationcode": "7026", "name": "Place de Finlande", "is_installed": "OUI", "capacity": 25, "numdocksavailable": 11, "numbikesavailable": 13, "mechanical": 7, "ebike": 6, "is_renting": "OUI", "is_returning": "OUI", "duedate": "2024-06-16T18:56:06+00:00", "coordonnees_geo": {"lon": 2.3113624379039, "lat": 48.862408335967}, "nom_arrondissement_communes": "Paris", "code_insee_commune": null}, {"stationcode": "21108", "name": "Mairie de Clichy", "is_installed": "OUI", "capacity": 51, "numdocksavailable": 9, "numbikesavailable": 40, "mechanical": 36, "ebike": 4, "is_renting": "OUI", "is_returning": "OUI", "duedate": "2024-06-16T18:54:23+00:00", "coordonnees_geo": {"lon": 2.3059353232384, "lat": 48.903653634661}, "nom_arrondissement_communes": "Clichy", "code_insee_commune": null}, {"stationcode": "35008", "name": "Place de l'Eglise - Pantin", "is_installed": "OUI", "capacity": 30, "numdocksavailable": 22, "numbikesavailable": 8, "mechanical": 3, "ebike": 5, "is_renting": "OUI", "is_returning": "OUI", "duedate": "2024-06-16T17:55:51+00:00", "coordonnees_geo": {"lon": 2.4124351143836975, "lat": 48.892809461520265}, "nom_arrondissement_communes": "Pantin", "code_insee_commune": null}, {"stationcode": "13022", "name": "Butte aux Cailles - Esperance", "is_installed": "OUI", "capacity": 36, "numdocksavailable": 26, "numbikesavailable": 7, "mechanical": 2, "ebike": 5, "is_renting": "OUI", "is_returning": "OUI", "duedate": "2024-06-16T17:54:28+00:00", "coordonnees_geo": {"lon": 2.3492151126265526, "lat": 48.82758774190948}, "nom_arrondissement_communes": "Paris", "code_insee_commune": null}, {"stationcode": "20045", "name": "Louis Ganne - Davout", "is_installed": "OUI", "capacity": 30, "numdocksavailable": 18, "numbikesavailable": 11, "mechanical": 6, "ebike": 5, "is_renting": "OUI", "is_returning": "OUI", "duedate": "2024-06-16T17:52:11+00:00", "coordonnees_geo": {"lon": 2.409725748002529, "lat": 48.86338720692607}, "nom_arrondissement_communes": "Paris", "code_insee_commune": null}, {"stationcode": "11044", "name": "Square du Bataclan", "is_installed": "OUI", "capacity": 20, "numdocksavailable": 1, "numbikesavailable": 11, "mechanical": 11, "ebike": 0, "is_renting": "OUI", "is_returning": "OUI", "duedate": "2024-06-16T17:55:35+00:00", "coordonnees_geo": {"lon": 2.3711327, "lat": 48.8633762}, "nom_arrondissement_communes": "Paris", "code_insee_commune": null}, {"stationcode": "23302", "name": "Parc de Sceaux - Centre-Ville", "is_installed": "OUI", "capacity": 33, "numdocksavailable": 33, "numbikesavailable": 0, "mechanical": 0, "ebike": 0, "is_renting": "NON", "is_returning": "NON", "duedate": "2024-06-07T14:37:22+00:00", "coordonnees_geo": {"lon": 2.2957214713097, "lat": 48.77695298261}, "nom_arrondissement_communes": "Sceaux", "code_insee_commune": null}, {"stationcode": "11110", "name": "Roquette - Folie Regnault", "is_installed": "OUI", "capacity": 52, "numdocksavailable": 36, "numbikesavailable": 14, "mechanical": 10, "ebike": 4, "is_renting": "OUI", "is_returning": "OUI", "duedate": "2024-06-16T17:49:43+00:00", "coordonnees_geo": {"lon": 2.386553623578705, "lat": 48.859246959155485}, "nom_arrondissement_communes": "Paris", "code_insee_commune": null}, {"stationcode": "16031", "name": "Vignes - Boulainvilliers", "is_installed": "OUI", "capacity": 21, "numdocksavailable": 14, "numbikesavailable": 6, "mechanical": 4, "ebike": 2, "is_renting": "OUI", "is_returning": "OUI", "duedate": "2024-06-16T17:55:45+00:00", "coordonnees_geo": {"lon": 2.275240458548069, "lat": 48.856399483950504}, "nom_arrondissement_communes": "Paris", "code_insee_commune": null}, {"stationcode": "12153", "name": "Terroirs de France - Lheureux", "is_installed": "OUI", "capacity": 55, "numdocksavailable": 9, "numbikesavailable": 46, "mechanical": 27, "ebike": 19, "is_renting": "OUI", "is_returning": "OUI", "duedate": "2024-06-16T17:55:42+00:00", "coordonnees_geo": {"lon": 2.388618104159832, "lat": 48.83212027074841}, "nom_arrondissement_communes": "Paris", "code_insee_commune": null}, {"stationcode": "14016", "name": "Ren\u00e9 Coty - Parc Montsouris", "is_installed": "OUI", "capacity": 55, "numdocksavailable": 35, "numbikesavailable": 18, "mechanical": 15, "ebike": 3, "is_renting": "OUI", "is_returning": "OUI", "duedate": "2024-06-16T17:52:26+00:00", "coordonnees_geo": {"lon": 2.336124926805496, "lat": 48.82479134498032}, "nom_arrondissement_communes": "Paris", "code_insee_commune": null}, {"stationcode": "12120", "name": "Lac Daumesnil - Saint-Maurice", "is_installed": "OUI", "capacity": 50, "numdocksavailable": 38, "numbikesavailable": 9, "mechanical": 3, "ebike": 6, "is_renting": "OUI", "is_returning": "OUI", "duedate": "2024-06-16T17:54:43+00:00", "coordonnees_geo": {"lon": 2.4183654785156246, "lat": 48.82774555743318}, "nom_arrondissement_communes": "Paris", "code_insee_commune": null}, {"stationcode": "22012", "name": "Madeleine Michelis - Roule", "is_installed": "OUI", "capacity": 25, "numdocksavailable": 8, "numbikesavailable": 14, "mechanical": 11, "ebike": 3, "is_renting": "OUI", "is_returning": "OUI", "duedate": "2024-06-16T17:54:15+00:00", "coordonnees_geo": {"lon": 2.2773634269833565, "lat": 48.88260431301364}, "nom_arrondissement_communes": "Neuilly-sur-Seine", "code_insee_commune": null}, {"stationcode": "18142", "name": "Jessaint - Marx Dormoy", "is_installed": "OUI", "capacity": 30, "numdocksavailable": 24, "numbikesavailable": 4, "mechanical": 2, "ebike": 2, "is_renting": "OUI", "is_returning": "OUI", "duedate": "2024-06-16T17:51:24+00:00", "coordonnees_geo": {"lon": 2.358930408954621, "lat": 48.88484543106364}, "nom_arrondissement_communes": "Paris", "code_insee_commune": null}, {"stationcode": "42011", "name": "Quai Marcel Boyer - Victor Hugo", "is_installed": "OUI", "capacity": 29, "numdocksavailable": 9, "numbikesavailable": 19, "mechanical": 17, "ebike": 2, "is_renting": "OUI", "is_returning": "OUI", "duedate": "2024-06-16T17:55:18+00:00", "coordonnees_geo": {"lon": 2.392039597034455, "lat": 48.82255636666729}, "nom_arrondissement_communes": "Ivry-sur-Seine", "code_insee_commune": null}, {"stationcode": "21120", "name": "Docteur Calmette - Martre", "is_installed": "OUI", "capacity": 30, "numdocksavailable": 21, "numbikesavailable": 8, "mechanical": 2, "ebike": 6, "is_renting": "OUI", "is_returning": "OUI", "duedate": "2024-06-16T17:55:42+00:00", "coordonnees_geo": {"lon": 2.3086513252383, "lat": 48.898969358483}, "nom_arrondissement_communes": "Clichy", "code_insee_commune": null}, {"stationcode": "20117", "name": "Saint-Fargeau - Mortier", "is_installed": "OUI", "capacity": 31, "numdocksavailable": 26, "numbikesavailable": 4, "mechanical": 0, "ebike": 4, "is_renting": "OUI", "is_returning": "OUI", "duedate": "2024-06-16T17:53:51+00:00", "coordonnees_geo": {"lon": 2.407912909984589, "lat": 48.87266656122256}, "nom_arrondissement_communes": "Paris", "code_insee_commune": null}, {"stationcode": "48009", "name": "R\u00e9publique - Auguste Perret", "is_installed": "OUI", "capacity": 30, "numdocksavailable": 23, "numbikesavailable": 6, "mechanical": 1, "ebike": 5, "is_renting": "OUI", "is_returning": "OUI", "duedate": "2024-06-16T17:53:21+00:00", "coordonnees_geo": {"lon": 2.3518594354391094, "lat": 48.78695280952244}, "nom_arrondissement_communes": "Villejuif", "code_insee_commune": null}, {"stationcode": "14125", "name": "Dareau - Broussais", "is_installed": "OUI", "capacity": 24, "numdocksavailable": 20, "numbikesavailable": 4, "mechanical": 2, "ebike": 2, "is_renting": "OUI", "is_returning": "OUI", "duedate": "2024-06-16T17:51:32+00:00", "coordonnees_geo": {"lon": 2.3361804, "lat": 48.8307758}, "nom_arrondissement_communes": "Paris", "code_insee_commune": null}, {"stationcode": "21009", "name": "Le Corbusier - Jean Jaur\u00e8s", "is_installed": "OUI", "capacity": 46, "numdocksavailable": 42, "numbikesavailable": 3, "mechanical": 1, "ebike": 2, "is_renting": "OUI", "is_returning": "OUI", "duedate": "2024-06-16T17:55:36+00:00", "coordonnees_geo": {"lon": 2.2408381104469304, "lat": 48.83780830557548}, "nom_arrondissement_communes": "Boulogne-Billancourt", "code_insee_commune": null}, {"stationcode": "31017", "name": "Jean Moulin - Paul Doumer", "is_installed": "OUI", "capacity": 20, "numdocksavailable": 10, "numbikesavailable": 10, "mechanical": 1, "ebike": 9, "is_renting": "OUI", "is_returning": "OUI", "duedate": "2024-06-16T17:53:48+00:00", "coordonnees_geo": {"lon": 2.45533436536789, "lat": 48.8622179854695}, "nom_arrondissement_communes": "Montreuil", "code_insee_commune": null}, {"stationcode": "13047", "name": "Boutroux - Porte de Vitry", "is_installed": "OUI", "capacity": 49, "numdocksavailable": 7, "numbikesavailable": 41, "mechanical": 35, "ebike": 6, "is_renting": "OUI", "is_returning": "OUI", "duedate": "2024-06-16T17:55:02+00:00", "coordonnees_geo": {"lon": 2.377738, "lat": 48.822632}, "nom_arrondissement_communes": "Paris", "code_insee_commune": null}, {"stationcode": "18114", "name": "V\u00e9ron - Lepic", "is_installed": "OUI", "capacity": 23, "numdocksavailable": 14, "numbikesavailable": 9, "mechanical": 2, "ebike": 7, "is_renting": "OUI", "is_returning": "OUI", "duedate": "2024-06-16T17:53:39+00:00", "coordonnees_geo": {"lon": 2.334559857845307, "lat": 48.88526123395252}, "nom_arrondissement_communes": "Paris", "code_insee_commune": null}, {"stationcode": "44103", "name": "Pont De Charenton", "is_installed": "OUI", "capacity": 18, "numdocksavailable": 1, "numbikesavailable": 15, "mechanical": 14, "ebike": 1, "is_renting": "OUI", "is_returning": "OUI", "duedate": "2024-06-16T17:52:03+00:00", "coordonnees_geo": {"lon": 2.4199531, "lat": 48.8179685}, "nom_arrondissement_communes": "Saint-Maurice", "code_insee_commune": null}, {"stationcode": "22403", "name": "Pierre Brossolette - Adolphe Pinard", "is_installed": "OUI", "capacity": 24, "numdocksavailable": 12, "numbikesavailable": 12, "mechanical": 1, "ebike": 11, "is_renting": "OUI", "is_returning": "OUI", "duedate": "2024-06-16T17:52:41+00:00", "coordonnees_geo": {"lon": 2.313155829906464, "lat": 48.82177227954821}, "nom_arrondissement_communes": "Malakoff", "code_insee_commune": null}, {"stationcode": "92005", "name": "Gare de Nanterre Ville", "is_installed": "OUI", "capacity": 43, "numdocksavailable": 13, "numbikesavailable": 30, "mechanical": 11, "ebike": 19, "is_renting": "OUI", "is_returning": "OUI", "duedate": "2024-06-16T17:54:08+00:00", "coordonnees_geo": {"lon": 2.1957932, "lat": 48.8950295}, "nom_arrondissement_communes": "Nanterre", "code_insee_commune": null}, {"stationcode": "10039", "name": "Sambre et Meuse - Villette", "is_installed": "OUI", "capacity": 25, "numdocksavailable": 1, "numbikesavailable": 23, "mechanical": 5, "ebike": 18, "is_renting": "OUI", "is_returning": "OUI", "duedate": "2024-06-16T17:53:51+00:00", "coordonnees_geo": {"lon": 2.3738072379951, "lat": 48.874405666217}, "nom_arrondissement_communes": "Paris", "code_insee_commune": null}, {"stationcode": "19036", "name": "H\u00f4pital Robert Debr\u00e9", "is_installed": "OUI", "capacity": 33, "numdocksavailable": 32, "numbikesavailable": 0, "mechanical": 0, "ebike": 0, "is_renting": "OUI", "is_returning": "OUI", "duedate": "2024-06-16T17:49:46+00:00", "coordonnees_geo": {"lon": 2.4008650346327003, "lat": 48.88005222200894}, "nom_arrondissement_communes": "Paris", "code_insee_commune": null}, {"stationcode": "17001", "name": "Guy M\u00f4quet - Saint-Ouen", "is_installed": "OUI", "capacity": 53, "numdocksavailable": 39, "numbikesavailable": 12, "mechanical": 7, "ebike": 5, "is_renting": "OUI", "is_returning": "OUI", "duedate": "2024-06-16T17:55:49+00:00", "coordonnees_geo": {"lon": 2.3270335793495183, "lat": 48.892777719023975}, "nom_arrondissement_communes": "Paris", "code_insee_commune": null}, {"stationcode": "9016", "name": "Choron - Martyrs", "is_installed": "OUI", "capacity": 17, "numdocksavailable": 9, "numbikesavailable": 7, "mechanical": 4, "ebike": 3, "is_renting": "OUI", "is_returning": "OUI", "duedate": "2024-06-16T17:55:25+00:00", "coordonnees_geo": {"lon": 2.3396701365709305, "lat": 48.877851443502536}, "nom_arrondissement_communes": "Paris", "code_insee_commune": null}, {"stationcode": "35004", "name": "Place du Pr\u00e9sident Salvador Allende", "is_installed": "OUI", "capacity": 60, "numdocksavailable": 45, "numbikesavailable": 14, "mechanical": 8, "ebike": 6, "is_renting": "OUI", "is_returning": "OUI", "duedate": "2024-06-16T17:51:44+00:00", "coordonnees_geo": {"lon": 2.40079153681279, "lat": 48.897307310356055}, "nom_arrondissement_communes": "Pantin", "code_insee_commune": null}, {"stationcode": "8011", "name": "Clapeyron - Moscou", "is_installed": "OUI", "capacity": 15, "numdocksavailable": 10, "numbikesavailable": 5, "mechanical": 0, "ebike": 5, "is_renting": "OUI", "is_returning": "OUI", "duedate": "2024-06-16T17:54:41+00:00", "coordonnees_geo": {"lon": 2.324815057218075, "lat": 48.88078819514121}, "nom_arrondissement_communes": "Paris", "code_insee_commune": null}, {"stationcode": "13020", "name": "Paul Klee - Place Augusta Holmes", "is_installed": "OUI", "capacity": 43, "numdocksavailable": 20, "numbikesavailable": 22, "mechanical": 22, "ebike": 0, "is_renting": "OUI", "is_returning": "OUI", "duedate": "2024-06-16T17:55:30+00:00", "coordonnees_geo": {"lon": 2.3704235663952966, "lat": 48.838946417408025}, "nom_arrondissement_communes": "Paris", "code_insee_commune": null}, {"stationcode": "19124", "name": "Alexander Fleming - Belv\u00e9d\u00e8re", "is_installed": "OUI", "capacity": 31, "numdocksavailable": 20, "numbikesavailable": 10, "mechanical": 3, "ebike": 7, "is_renting": "OUI", "is_returning": "OUI", "duedate": "2024-06-16T17:53:30+00:00", "coordonnees_geo": {"lon": 2.4030599377642674, "lat": 48.88179064200294}, "nom_arrondissement_communes": "Paris", "code_insee_commune": null}, {"stationcode": "35011", "name": "Honor\u00e9 d'Estienne d'Ovres - Grilles", "is_installed": "OUI", "capacity": 18, "numdocksavailable": 11, "numbikesavailable": 7, "mechanical": 1, "ebike": 6, "is_renting": "OUI", "is_returning": "OUI", "duedate": "2024-06-16T17:54:01+00:00", "coordonnees_geo": {"lon": 2.4064831843792427, "lat": 48.89056394743836}, "nom_arrondissement_communes": "Pantin", "code_insee_commune": null}, {"stationcode": "7010", "name": "Constantine - Universit\u00e9", "is_installed": "OUI", "capacity": 65, "numdocksavailable": 55, "numbikesavailable": 9, "mechanical": 6, "ebike": 3, "is_renting": "OUI", "is_returning": "OUI", "duedate": "2024-06-16T17:53:05+00:00", "coordonnees_geo": {"lon": 2.3148481955842, "lat": 48.860680473738}, "nom_arrondissement_communes": "Paris", "code_insee_commune": null}, {"stationcode": "10152", "name": "Gare du Nord - Place de Valenciennes", "is_installed": "OUI", "capacity": 25, "numdocksavailable": 20, "numbikesavailable": 2, "mechanical": 0, "ebike": 2, "is_renting": "OUI", "is_returning": "OUI", "duedate": "2024-06-16T17:55:19+00:00", "coordonnees_geo": {"lon": 2.354235, "lat": 48.879089}, "nom_arrondissement_communes": "Paris", "code_insee_commune": null}, {"stationcode": "35015", "name": "Averro\u00e8s - Aim\u00e9 C\u00e9saire", "is_installed": "OUI", "capacity": 19, "numdocksavailable": 12, "numbikesavailable": 7, "mechanical": 2, "ebike": 5, "is_renting": "OUI", "is_returning": "OUI", "duedate": "2024-06-16T17:53:53+00:00", "coordonnees_geo": {"lon": 2.412636950612068, "lat": 48.91405323432864}, "nom_arrondissement_communes": "Pantin", "code_insee_commune": null}, {"stationcode": "32021", "name": "Place du Front Populaire - George Sand", "is_installed": "OUI", "capacity": 65, "numdocksavailable": 58, "numbikesavailable": 6, "mechanical": 5, "ebike": 1, "is_renting": "OUI", "is_returning": "OUI", "duedate": "2024-06-16T17:54:25+00:00", "coordonnees_geo": {"lon": 2.364541214992642, "lat": 48.90680713698062}, "nom_arrondissement_communes": "Saint-Denis", "code_insee_commune": null}, {"stationcode": "15019", "name": "Paul Barruel - Vaugirard", "is_installed": "OUI", "capacity": 39, "numdocksavailable": 27, "numbikesavailable": 11, "mechanical": 9, "ebike": 2, "is_renting": "OUI", "is_returning": "OUI", "duedate": "2024-06-16T17:54:31+00:00", "coordonnees_geo": {"lon": 2.3044332861900334, "lat": 48.84014918546239}, "nom_arrondissement_communes": "Paris", "code_insee_commune": null}, {"stationcode": "20004", "name": "Commandant l'Herminier - Gallieni", "is_installed": "OUI", "capacity": 17, "numdocksavailable": 7, "numbikesavailable": 10, "mechanical": 8, "ebike": 2, "is_renting": "OUI", "is_returning": "OUI", "duedate": "2024-06-16T17:55:55+00:00", "coordonnees_geo": {"lon": 2.4160453677177, "lat": 48.847040552603}, "nom_arrondissement_communes": "Paris", "code_insee_commune": null}, {"stationcode": "11031", "name": "Jacquard - Ternaux", "is_installed": "OUI", "capacity": 0, "numdocksavailable": 0, "numbikesavailable": 0, "mechanical": 0, "ebike": 0, "is_renting": "NON", "is_returning": "NON", "duedate": "2024-03-27T06:55:09+00:00", "coordonnees_geo": {"lon": 2.373162, "lat": 48.8646605}, "nom_arrondissement_communes": "Paris", "code_insee_commune": null}, {"stationcode": "16007", "name": "Longchamp - Place d'I\u00e9na", "is_installed": "OUI", "capacity": 40, "numdocksavailable": 32, "numbikesavailable": 8, "mechanical": 1, "ebike": 7, "is_renting": "OUI", "is_returning": "OUI", "duedate": "2024-06-16T17:55:47+00:00", "coordonnees_geo": {"lon": 2.2926748171448708, "lat": 48.86491723343388}, "nom_arrondissement_communes": "Paris", "code_insee_commune": null}, {"stationcode": "15131", "name": "Charles Lecocq - Lecourbe", "is_installed": "OUI", "capacity": 30, "numdocksavailable": 8, "numbikesavailable": 22, "mechanical": 17, "ebike": 5, "is_renting": "OUI", "is_returning": "OUI", "duedate": "2024-06-16T17:51:22+00:00", "coordonnees_geo": {"lon": 2.294867, "lat": 48.84044}, "nom_arrondissement_communes": "Paris", "code_insee_commune": null}, {"stationcode": "9036", "name": "Ath\u00e8nes - Clichy", "is_installed": "OUI", "capacity": 20, "numdocksavailable": 16, "numbikesavailable": 3, "mechanical": 1, "ebike": 2, "is_renting": "OUI", "is_returning": "OUI", "duedate": "2024-06-16T17:55:11+00:00", "coordonnees_geo": {"lon": 2.32956021945824, "lat": 48.878113787876}, "nom_arrondissement_communes": "Paris", "code_insee_commune": null}, {"stationcode": "12006", "name": "Gare de Lyon - Van Gogh", "is_installed": "OUI", "capacity": 41, "numdocksavailable": 38, "numbikesavailable": 2, "mechanical": 1, "ebike": 1, "is_renting": "OUI", "is_returning": "OUI", "duedate": "2024-06-16T17:53:57+00:00", "coordonnees_geo": {"lon": 2.3704450240357, "lat": 48.843839785643}, "nom_arrondissement_communes": "Paris", "code_insee_commune": null}, {"stationcode": "15125", "name": "Parc Suzanne Lenglen", "is_installed": "OUI", "capacity": 52, "numdocksavailable": 22, "numbikesavailable": 30, "mechanical": 28, "ebike": 2, "is_renting": "OUI", "is_returning": "OUI", "duedate": "2024-06-16T17:54:29+00:00", "coordonnees_geo": {"lon": 2.2765403240919113, "lat": 48.833250690537874}, "nom_arrondissement_communes": "Paris", "code_insee_commune": null}, {"stationcode": "13117", "name": "Stade Georges Carpentier", "is_installed": "OUI", "capacity": 40, "numdocksavailable": 36, "numbikesavailable": 4, "mechanical": 2, "ebike": 2, "is_renting": "OUI", "is_returning": "OUI", "duedate": "2024-06-16T17:54:47+00:00", "coordonnees_geo": {"lon": 2.3668321967125, "lat": 48.820482438381}, "nom_arrondissement_communes": "Paris", "code_insee_commune": null}, {"stationcode": "13027", "name": "Mazagran - Pierre de Coubertin", "is_installed": "OUI", "capacity": 15, "numdocksavailable": 7, "numbikesavailable": 6, "mechanical": 3, "ebike": 3, "is_renting": "OUI", "is_returning": "OUI", "duedate": "2024-06-16T17:52:00+00:00", "coordonnees_geo": {"lon": 2.344226874411106, "lat": 48.816218640260445}, "nom_arrondissement_communes": "Paris", "code_insee_commune": null}, {"stationcode": "10004", "name": "Metz - Faubourg Saint-Denis", "is_installed": "OUI", "capacity": 48, "numdocksavailable": 2, "numbikesavailable": 43, "mechanical": 32, "ebike": 11, "is_renting": "OUI", "is_returning": "OUI", "duedate": "2024-06-16T17:55:35+00:00", "coordonnees_geo": {"lon": 2.353521, "lat": 48.870893}, "nom_arrondissement_communes": "Paris", "code_insee_commune": null}, {"stationcode": "8008", "name": "Joseph Sansboeuf - Saint Lazare", "is_installed": "OUI", "capacity": 18, "numdocksavailable": 15, "numbikesavailable": 2, "mechanical": 2, "ebike": 0, "is_renting": "OUI", "is_returning": "OUI", "duedate": "2024-06-16T17:55:55+00:00", "coordonnees_geo": {"lon": 2.3229019716382027, "lat": 48.87531563065266}, "nom_arrondissement_communes": "Paris", "code_insee_commune": null}, {"stationcode": "5034", "name": "Censier - Santeuil", "is_installed": "OUI", "capacity": 69, "numdocksavailable": 2, "numbikesavailable": 67, "mechanical": 62, "ebike": 5, "is_renting": "OUI", "is_returning": "OUI", "duedate": "2024-06-16T17:54:18+00:00", "coordonnees_geo": {"lon": 2.3537524044513702, "lat": 48.840658921385234}, "nom_arrondissement_communes": "Paris", "code_insee_commune": null}, {"stationcode": "21115", "name": "Chanc\u00e9 Milly - Cimeti\u00e8re Communal Sud", "is_installed": "OUI", "capacity": 32, "numdocksavailable": 19, "numbikesavailable": 13, "mechanical": 13, "ebike": 0, "is_renting": "OUI", "is_returning": "OUI", "duedate": "2024-06-16T17:54:38+00:00", "coordonnees_geo": {"lon": 2.303922325372696, "lat": 48.89687189382465}, "nom_arrondissement_communes": "Clichy", "code_insee_commune": null}, {"stationcode": "19025", "name": "Botzaris - Crim\u00e9e", "is_installed": "OUI", "capacity": 21, "numdocksavailable": 12, "numbikesavailable": 6, "mechanical": 0, "ebike": 6, "is_renting": "OUI", "is_returning": "OUI", "duedate": "2024-06-16T17:54:36+00:00", "coordonnees_geo": {"lon": 2.3887913337477067, "lat": 48.87959698690176}, "nom_arrondissement_communes": "Paris", "code_insee_commune": null}, {"stationcode": "16009", "name": "Saint-Didier - Raymond Poincar\u00e9", "is_installed": "OUI", "capacity": 17, "numdocksavailable": 15, "numbikesavailable": 2, "mechanical": 1, "ebike": 1, "is_renting": "OUI", "is_returning": "OUI", "duedate": "2024-06-16T17:50:46+00:00", "coordonnees_geo": {"lon": 2.285863497192411, "lat": 48.86642312020962}, "nom_arrondissement_communes": "Paris", "code_insee_commune": null}, {"stationcode": "21708", "name": "Marcel Yol - Jullien", "is_installed": "OUI", "capacity": 30, "numdocksavailable": 27, "numbikesavailable": 3, "mechanical": 0, "ebike": 3, "is_renting": "OUI", "is_returning": "OUI", "duedate": "2024-06-16T17:55:47+00:00", "coordonnees_geo": {"lon": 2.287235018058929, "lat": 48.82537611802588}, "nom_arrondissement_communes": "Vanves", "code_insee_commune": null}, {"stationcode": "13048", "name": "Wurtz - Tolbiac", "is_installed": "OUI", "capacity": 28, "numdocksavailable": 8, "numbikesavailable": 20, "mechanical": 18, "ebike": 2, "is_renting": "OUI", "is_returning": "OUI", "duedate": "2024-06-16T17:55:58+00:00", "coordonnees_geo": {"lon": 2.344585955142975, "lat": 48.82631195621006}, "nom_arrondissement_communes": "Paris", "code_insee_commune": null}, {"stationcode": "41210", "name": "H\u00f4tel de ville de Fontenay-sous-Bois", "is_installed": "OUI", "capacity": 20, "numdocksavailable": 12, "numbikesavailable": 8, "mechanical": 2, "ebike": 6, "is_renting": "OUI", "is_returning": "OUI", "duedate": "2024-06-16T17:54:23+00:00", "coordonnees_geo": {"lon": 2.4750164151191716, "lat": 48.84949749106274}, "nom_arrondissement_communes": "Fontenay-sous-Bois", "code_insee_commune": null}, {"stationcode": "15052", "name": "Convention - Vaugirard", "is_installed": "OUI", "capacity": 48, "numdocksavailable": 0, "numbikesavailable": 47, "mechanical": 38, "ebike": 9, "is_renting": "OUI", "is_returning": "OUI", "duedate": "2024-06-16T17:55:13+00:00", "coordonnees_geo": {"lon": 2.295586926020252, "lat": 48.83767682233156}, "nom_arrondissement_communes": "Paris", "code_insee_commune": null}, {"stationcode": "16115", "name": "Raffet - Montmorency", "is_installed": "OUI", "capacity": 42, "numdocksavailable": 35, "numbikesavailable": 6, "mechanical": 3, "ebike": 3, "is_renting": "OUI", "is_returning": "OUI", "duedate": "2024-06-16T17:55:57+00:00", "coordonnees_geo": {"lon": 2.2629252456151954, "lat": 48.85258670812}, "nom_arrondissement_communes": "Paris", "code_insee_commune": null}, {"stationcode": "15123", "name": "Commerce - Letellier", "is_installed": "OUI", "capacity": 44, "numdocksavailable": 17, "numbikesavailable": 25, "mechanical": 22, "ebike": 3, "is_renting": "OUI", "is_returning": "OUI", "duedate": "2024-06-16T17:53:54+00:00", "coordonnees_geo": {"lon": 2.2966245196598805, "lat": 48.84797660373612}, "nom_arrondissement_communes": "Paris", "code_insee_commune": null}, {"stationcode": "13039", "name": "Ivry - Simone Weil", "is_installed": "OUI", "capacity": 18, "numdocksavailable": 13, "numbikesavailable": 3, "mechanical": 0, "ebike": 3, "is_renting": "OUI", "is_returning": "OUI", "duedate": "2024-06-16T17:55:57+00:00", "coordonnees_geo": {"lon": 2.3659095168113713, "lat": 48.823283932030755}, "nom_arrondissement_communes": "Paris", "code_insee_commune": null}, {"stationcode": "21031", "name": "Cimeti\u00e8re de Boulogne-Billancourt", "is_installed": "OUI", "capacity": 40, "numdocksavailable": 15, "numbikesavailable": 25, "mechanical": 18, "ebike": 7, "is_renting": "OUI", "is_returning": "OUI", "duedate": "2024-06-16T17:49:40+00:00", "coordonnees_geo": {"lon": 2.252024, "lat": 48.830764}, "nom_arrondissement_communes": "Boulogne-Billancourt", "code_insee_commune": null}]