[{"stationcode": "42501", "name": "Raspail - Albert Schweitzer", "is_installed": "OUI", "capacity": 28, "numdocksavailable": 12, "numbikesavailable": 15, "mechanical": 9, "ebike": 6, "is_renting": "OUI", "is_returning": "OUI", "duedate": "2024-06-15T17:53:05+00:00", "coordonnees_geo": {"lon": 2.34395871, "lat": 48.81031545}, "nom_arrondissement_communes": "Gentilly", "code_insee_commune": null}, {"stationcode": "13109", "name": "Brillat-Savarin - K\u00fcss", "is_installed": "OUI", "capacity": 21, "numdocksavailable": 11, "numbikesavailable": 10, "mechanical": 8, "ebike": 2, "is_renting": "OUI", "is_returning": "OUI", "duedate": "2024-06-15T17:51:32+00:00", "coordonnees_geo": {"lon": 2.350422, "lat": 48.822203}, "nom_arrondissement_communes": "Paris", "code_insee_commune": null}, {"stationcode": "21204", "name": "Estienne d'Orves - Henri Ginoux", "is_installed": "OUI", "capacity": 31, "numdocksavailable": 29, "numbikesavailable": 1, "mechanical": 0, "ebike": 1, "is_renting": "OUI", "is_returning": "OUI", "duedate": "2024-06-15T17:46:08+00:00", "coordonnees_geo": {"lon": 2.320886790760933, "lat": 48.815388220397274}, "nom_arrondissement_communes": "Montrouge", "code_insee_commune": null}, {"stationcode": "22206", "name": "Louis Pasteur - Albert Petit", "is_installed": "OUI", "capacity": 31, "numdocksavailable": 28, "numbikesavailable": 3, "mechanical": 0, "ebike": 3, "is_renting": "OUI", "is_returning": "OUI", "duedate": "2024-06-15T17:48:48+00:00", "coordonnees_geo": {"lon": 2.317289, "lat": 48.796261}, "nom_arrondissement_communes": "Bagneux", "code_insee_commune": null}, {"stationcode": "15064", "name": "Javel - Andr\u00e9 Citro\u00ebn", "is_installed": "OUI", "capacity": 45, "numdocksavailable": 21, "numbikesavailable": 22, "mechanical": 16, "ebike": 6, "is_renting": "OUI", "is_returning": "OUI", "duedate": "2024-06-15T17:50:31+00:00", "coordonnees_geo": {"lon": 2.2786368057131767, "lat": 48.846276485475}, "nom_arrondissement_communes": "Paris", "code_insee_commune": null}, {"stationcode": "15030", "name": "Emeriau - Beaugrenelle", "is_installed": "OUI", "capacity": 74, "numdocksavailable": 24, "numbikesavailable": 48, "mechanical": 42, "ebike": 6, "is_renting": "OUI", "is_returning": "OUI", "duedate": "2024-06-15T17:52:55+00:00", "coordonnees_geo": {"lon": 2.2843059897422795, "lat": 48.84791249714942}, "nom_arrondissement_communes": "Paris", "code_insee_commune": null}, {"stationcode": "12007", "name": "Gare de Lyon - Chalon", "is_installed": "OUI", "capacity": 45, "numdocksavailable": 18, "numbikesavailable": 27, "mechanical": 26, "ebike": 1, "is_renting": "OUI", "is_returning": "OUI", "duedate": "2024-06-15T17:53:04+00:00", "coordonnees_geo": {"lon": 2.3741452395916, "lat": 48.845666194202}, "nom_arrondissement_communes": "Paris", "code_insee_commune": null}, {"stationcode": "25001", "name": "Colmar - Victor Hugo", "is_installed": "OUI", "capacity": 32, "numdocksavailable": 12, "numbikesavailable": 18, "mechanical": 5, "ebike": 13, "is_renting": "OUI", "is_returning": "OUI", "duedate": "2024-06-15T17:52:42+00:00", "coordonnees_geo": {"lon": 2.173960916697979, "lat": 48.88652251096166}, "nom_arrondissement_communes": "Rueil-Malmaison", "code_insee_commune": null}, {"stationcode": "35007", "name": "Benjamin Delessert - Jean Lolive", "is_installed": "OUI", "capacity": 21, "numdocksavailable": 16, "numbikesavailable": 5, "mechanical": 0, "ebike": 5, "is_renting": "OUI", "is_returning": "OUI", "duedate": "2024-06-15T17:43:49+00:00", "coordonnees_geo": {"lon": 2.417981922626496, "lat": 48.89392043619345}, "nom_arrondissement_communes": "Pantin", "code_insee_commune": null}, {"stationcode": "44101", "name": "Place Mongolfier", "is_installed": "OUI", "capacity": 39, "numdocksavailable": 11, "numbikesavailable": 28, "mechanical": 27, "ebike": 1, "is_renting": "OUI", "is_returning": "OUI", "duedate": "2024-06-15T17:53:10+00:00", "coordonnees_geo": {"lon": 2.4592879414558415, "lat": 48.815160030060376}, "nom_arrondissement_communes": "Saint-Maurice", "code_insee_commune": null}, {"stationcode": "92001", "name": "Mairie de quartier du Plateau - Mont-Val\u00e9rien", "is_installed": "OUI", "capacity": 20, "numdocksavailable": 15, "numbikesavailable": 5, "mechanical": 1, "ebike": 4, "is_renting": "OUI", "is_returning": "OUI", "duedate": "2024-06-15T17:51:05+00:00", "coordonnees_geo": {"lon": 2.2072437, "lat": 48.8799933}, "nom_arrondissement_communes": "Nanterre", "code_insee_commune": null}, {"stationcode": "21306", "name": "Place Lafayette", "is_installed": "OUI", "capacity": 62, "numdocksavailable": 47, "numbikesavailable": 15, "mechanical": 13, "ebike": 2, "is_renting": "OUI", "is_returning": "OUI", "duedate": "2024-06-15T17:52:32+00:00", "coordonnees_geo": {"lon": 2.2638675570488, "lat": 48.829654975522}, "nom_arrondissement_communes": "Issy-les-Moulineaux", "code_insee_commune": null}, {"stationcode": "43010", "name": "La Jarry - Place Diderot", "is_installed": "OUI", "capacity": 25, "numdocksavailable": 25, "numbikesavailable": 0, "mechanical": 0, "ebike": 0, "is_renting": "OUI", "is_returning": "OUI", "duedate": "2024-06-15T17:48:38+00:00", "coordonnees_geo": {"lon": 2.452013790607453, "lat": 48.849726940367326}, "nom_arrondissement_communes": "Vincennes", "code_insee_commune": null}, {"stationcode": "15057", "name": "Lucien Bossoutrot - G\u00e9n\u00e9ral Martial Vallin", "is_installed": "OUI", "capacity": 39, "numdocksavailable": 35, "numbikesavailable": 4, "mechanical": 4, "ebike": 0, "is_renting": "OUI", "is_returning": "OUI", "duedate": "2024-06-15T17:52:20+00:00", "coordonnees_geo": {"lon": 2.2741072252393, "lat": 48.836956046311}, "nom_arrondissement_communes": "Paris", "code_insee_commune": null}, {"stationcode": "16002", "name": "Pergol\u00e8se - Malakoff", "is_installed": "OUI", "capacity": 38, "numdocksavailable": 29, "numbikesavailable": 6, "mechanical": 0, "ebike": 6, "is_renting": "OUI", "is_returning": "OUI", "duedate": "2024-06-15T17:50:55+00:00", "coordonnees_geo": {"lon": 2.2842781618237495, "lat": 48.87521088779225}, "nom_arrondissement_communes": "Paris", "code_insee_commune": null}, {"stationcode": "15004", "name": "Vaugirard - Pasteur", "is_installed": "OUI", "capacity": 21, "numdocksavailable": 11, "numbikesavailable": 10, "mechanical": 2, "ebike": 8, "is_renting": "OUI", "is_returning": "OUI", "duedate": "2024-06-15T17:53:01+00:00", "coordonnees_geo": {"lon": 2.3154367133975033, "lat": 48.84040868803496}, "nom_arrondissement_communes": "Paris", "code_insee_commune": null}, {"stationcode": "23010", "name": "Voltaire - Anatole France", "is_installed": "OUI", "capacity": 27, "numdocksavailable": 16, "numbikesavailable": 10, "mechanical": 7, "ebike": 3, "is_renting": "OUI", "is_returning": "OUI", "duedate": "2024-06-15T17:50:21+00:00", "coordonnees_geo": {"lon": 2.284262739121914, "lat": 48.891999360256904}, "nom_arrondissement_communes": "Levallois-Perret", "code_insee_commune": null}, {"stationcode": "18006", "name": "Square Louise Michel", "is_installed": "OUI", "capacity": 36, "numdocksavailable": 25, "numbikesavailable": 8, "mechanical": 1, "ebike": 7, "is_renting": "OUI", "is_returning": "OUI", "duedate": "2024-06-15T17:52:51+00:00", "coordonnees_geo": {"lon": 2.3441386967897, "lat": 48.884687354509}, "nom_arrondissement_communes": "Paris", "code_insee_commune": null}, {"stationcode": "21401", "name": "Mairie de Clamart", "is_installed": "OUI", "capacity": 33, "numdocksavailable": 21, "numbikesavailable": 10, "mechanical": 0, "ebike": 10, "is_renting": "OUI", "is_returning": "OUI", "duedate": "2024-06-15T17:49:30+00:00", "coordonnees_geo": {"lon": 2.262151, "lat": 48.800612}, "nom_arrondissement_communes": "Clamart", "code_insee_commune": null}, {"stationcode": "9027", "name": "Douai - Pierre Fontaine", "is_installed": "OUI", "capacity": 25, "numdocksavailable": 14, "numbikesavailable": 10, "mechanical": 0, "ebike": 10, "is_renting": "OUI", "is_returning": "OUI", "duedate": "2024-06-15T17:52:48+00:00", "coordonnees_geo": {"lon": 2.33324121683836, "lat": 48.88229101148092}, "nom_arrondissement_communes": "Paris", "code_insee_commune": null}, {"stationcode": "17108", "name": "Bessi\u00e8res - Porte de Clichy", "is_installed": "OUI", "capacity": 33, "numdocksavailable": 26, "numbikesavailable": 6, "mechanical": 4, "ebike": 2, "is_renting": "OUI", "is_returning": "OUI", "duedate": "2024-06-15T17:52:58+00:00", "coordonnees_geo": {"lon": 2.31790903955698, "lat": 48.89611762451474}, "nom_arrondissement_communes": "Paris", "code_insee_commune": null}, {"stationcode": "15022", "name": "Emile Zola - Fondary", "is_installed": "OUI", "capacity": 42, "numdocksavailable": 0, "numbikesavailable": 12, "mechanical": 8, "ebike": 4, "is_renting": "OUI", "is_returning": "OUI", "duedate": "2024-06-15T17:52:48+00:00", "coordonnees_geo": {"lon": 2.2953405976295476, "lat": 48.847051143113745}, "nom_arrondissement_communes": "Paris", "code_insee_commune": null}, {"stationcode": "8037", "name": "Monceau - Malesherbes", "is_installed": "OUI", "capacity": 38, "numdocksavailable": 31, "numbikesavailable": 7, "mechanical": 3, "ebike": 4, "is_renting": "OUI", "is_returning": "OUI", "duedate": "2024-06-15T17:52:29+00:00", "coordonnees_geo": {"lon": 2.3145456, "lat": 48.8795079}, "nom_arrondissement_communes": "Paris", "code_insee_commune": null}, {"stationcode": "11017", "name": "Charonne - Bureau", "is_installed": "OUI", "capacity": 47, "numdocksavailable": 45, "numbikesavailable": 0, "mechanical": 0, "ebike": 0, "is_renting": "OUI", "is_returning": "OUI", "duedate": "2024-06-15T17:49:00+00:00", "coordonnees_geo": {"lon": 2.396093, "lat": 48.854176}, "nom_arrondissement_communes": "Paris", "code_insee_commune": null}, {"stationcode": "15311", "name": "Quai du Pr\u00e9sident Roosevelt - Pont Aval", "is_installed": "OUI", "capacity": 30, "numdocksavailable": 13, "numbikesavailable": 17, "mechanical": 15, "ebike": 2, "is_renting": "OUI", "is_returning": "OUI", "duedate": "2024-06-15T17:52:19+00:00", "coordonnees_geo": {"lon": 2.2656820714473724, "lat": 48.8343883676388}, "nom_arrondissement_communes": "Paris", "code_insee_commune": null}, {"stationcode": "41205", "name": "Mar\u00e9chal Joffre - Verdun", "is_installed": "OUI", "capacity": 20, "numdocksavailable": 16, "numbikesavailable": 4, "mechanical": 2, "ebike": 2, "is_renting": "OUI", "is_returning": "OUI", "duedate": "2024-06-15T17:52:56+00:00", "coordonnees_geo": {"lon": 2.470307, "lat": 48.85385}, "nom_arrondissement_communes": "Fontenay-sous-Bois", "code_insee_commune": null}, {"stationcode": "12018", "name": "Saint-Mand\u00e9 - Fabre d'Eglantine", "is_installed": "OUI", "capacity": 34, "numdocksavailable": 32, "numbikesavailable": 1, "mechanical": 0, "ebike": 1, "is_renting": "OUI", "is_returning": "OUI", "duedate": "2024-06-15T17:53:07+00:00", "coordonnees_geo": {"lon": 2.3965022, "lat": 48.8453579}, "nom_arrondissement_communes": "Paris", "code_insee_commune": null}, {"stationcode": "44005", "name": "Place Saint-Just", "is_installed": "OUI", "capacity": 22, "numdocksavailable": 11, "numbikesavailable": 11, "mechanical": 5, "ebike": 6, "is_renting": "OUI", "is_returning": "OUI", "duedate": "2024-06-15T17:51:01+00:00", "coordonnees_geo": {"lon": 2.3895226791501045, "lat": 48.790379518724265}, "nom_arrondissement_communes": "Vitry-sur-Seine", "code_insee_commune": null}, {"stationcode": "9004", "name": "G\u00e9rando - Rochechouart", "is_installed": "OUI", "capacity": 21, "numdocksavailable": 15, "numbikesavailable": 4, "mechanical": 1, "ebike": 3, "is_renting": "OUI", "is_returning": "OUI", "duedate": "2024-06-15T17:47:35+00:00", "coordonnees_geo": {"lon": 2.3464846238494, "lat": 48.88294340845}, "nom_arrondissement_communes": "Paris", "code_insee_commune": null}, {"stationcode": "51002", "name": "Placette Gr\u00e9goire Collas", "is_installed": "OUI", "capacity": 25, "numdocksavailable": 19, "numbikesavailable": 6, "mechanical": 4, "ebike": 2, "is_renting": "OUI", "is_returning": "OUI", "duedate": "2024-06-15T17:48:18+00:00", "coordonnees_geo": {"lon": 2.2487476095557213, "lat": 48.94342014002797}, "nom_arrondissement_communes": "Argenteuil", "code_insee_commune": null}, {"stationcode": "4021", "name": "Centre Georges Pompidou", "is_installed": "OUI", "capacity": 26, "numdocksavailable": 20, "numbikesavailable": 3, "mechanical": 1, "ebike": 2, "is_renting": "OUI", "is_returning": "OUI", "duedate": "2024-06-15T17:52:53+00:00", "coordonnees_geo": {"lon": 2.352581, "lat": 48.861419}, "nom_arrondissement_communes": "Paris", "code_insee_commune": null}, {"stationcode": "32601", "name": "Porte des Lilas - Faidherbe", "is_installed": "OUI", "capacity": 39, "numdocksavailable": 38, "numbikesavailable": 1, "mechanical": 0, "ebike": 1, "is_renting": "OUI", "is_returning": "OUI", "duedate": "2024-06-15T17:52:45+00:00", "coordonnees_geo": {"lon": 2.4120327830314636, "lat": 48.87861855668978}, "nom_arrondissement_communes": "Les Lilas", "code_insee_commune": null}, {"stationcode": "15102", "name": "Square Bela Bartok", "is_installed": "OUI", "capacity": 24, "numdocksavailable": 11, "numbikesavailable": 12, "mechanical": 8, "ebike": 4, "is_renting": "OUI", "is_returning": "OUI", "duedate": "2024-06-15T17:51:08+00:00", "coordonnees_geo": {"lon": 2.2846536710858345, "lat": 48.85120156830401}, "nom_arrondissement_communes": "Paris", "code_insee_commune": null}, {"stationcode": "33016", "name": "Fort d'Aubervilliers", "is_installed": "OUI", "capacity": 22, "numdocksavailable": 2, "numbikesavailable": 19, "mechanical": 10, "ebike": 9, "is_renting": "OUI", "is_returning": "OUI", "duedate": "2024-06-15T17:51:34+00:00", "coordonnees_geo": {"lon": 2.4035281687974925, "lat": 48.91502382370325}, "nom_arrondissement_communes": "Aubervilliers", "code_insee_commune": null}, {"stationcode": "12026", "name": "Place Ginette Hamelin", "is_installed": "OUI", "capacity": 51, "numdocksavailable": 3, "numbikesavailable": 47, "mechanical": 45, "ebike": 2, "is_renting": "OUI", "is_returning": "OUI", "duedate": "2024-06-15T17:51:30+00:00", "coordonnees_geo": {"lon": 2.382064, "lat": 48.837853}, "nom_arrondissement_communes": "Paris", "code_insee_commune": null}, {"stationcode": "27005", "name": "Gare du Stade", "is_installed": "OUI", "capacity": 20, "numdocksavailable": 13, "numbikesavailable": 7, "mechanical": 5, "ebike": 2, "is_renting": "OUI", "is_returning": "OUI", "duedate": "2024-06-15T17:52:19+00:00", "coordonnees_geo": {"lon": 2.2603778, "lat": 48.9312676}, "nom_arrondissement_communes": "Colombes", "code_insee_commune": null}, {"stationcode": "15071", "name": "Suffren - Champ de Mars", "is_installed": "OUI", "capacity": 23, "numdocksavailable": 1, "numbikesavailable": 19, "mechanical": 17, "ebike": 2, "is_renting": "OUI", "is_returning": "OUI", "duedate": "2024-06-15T17:45:23+00:00", "coordonnees_geo": {"lon": 2.2952168, "lat": 48.8547194}, "nom_arrondissement_communes": "Paris", "code_insee_commune": null}, {"stationcode": "10162", "name": "Alexandre Parodi - Quai de Valmy", "is_installed": "OUI", "capacity": 24, "numdocksavailable": 5, "numbikesavailable": 17, "mechanical": 8, "ebike": 9, "is_renting": "OUI", "is_returning": "OUI", "duedate": "2024-06-15T17:51:46+00:00", "coordonnees_geo": {"lon": 2.3665961623192, "lat": 48.879359419425}, "nom_arrondissement_communes": "Paris", "code_insee_commune": null}, {"stationcode": "5024", "name": "Place Monge", "is_installed": "OUI", "capacity": 21, "numdocksavailable": 6, "numbikesavailable": 14, "mechanical": 4, "ebike": 10, "is_renting": "OUI", "is_returning": "OUI", "duedate": "2024-06-15T17:50:41+00:00", "coordonnees_geo": {"lon": 2.3524079471827, "lat": 48.842761803051}, "nom_arrondissement_communes": "Paris", "code_insee_commune": null}, {"stationcode": "12038", "name": "Picpus - Louis Braille", "is_installed": "OUI", "capacity": 44, "numdocksavailable": 39, "numbikesavailable": 5, "mechanical": 0, "ebike": 5, "is_renting": "OUI", "is_returning": "OUI", "duedate": "2024-06-15T17:49:29+00:00", "coordonnees_geo": {"lon": 2.4005256685521, "lat": 48.839988788912}, "nom_arrondissement_communes": "Paris", "code_insee_commune": null}, {"stationcode": "13516", "name": "Glaci\u00e8re - Soeur Catherine Marie", "is_installed": "OUI", "capacity": 40, "numdocksavailable": 17, "numbikesavailable": 22, "mechanical": 18, "ebike": 4, "is_renting": "OUI", "is_returning": "OUI", "duedate": "2024-06-15T17:51:00+00:00", "coordonnees_geo": {"lon": 2.343570403754711, "lat": 48.829522989420596}, "nom_arrondissement_communes": "Paris", "code_insee_commune": null}, {"stationcode": "9011", "name": "Geoffroy - Marie", "is_installed": "OUI", "capacity": 20, "numdocksavailable": 0, "numbikesavailable": 20, "mechanical": 16, "ebike": 4, "is_renting": "OUI", "is_returning": "OUI", "duedate": "2024-06-15T17:52:47+00:00", "coordonnees_geo": {"lon": 2.344513876337893, "lat": 48.873781940593325}, "nom_arrondissement_communes": "Paris", "code_insee_commune": null}, {"stationcode": "13025", "name": "Place de Rungis", "is_installed": "OUI", "capacity": 32, "numdocksavailable": 19, "numbikesavailable": 12, "mechanical": 8, "ebike": 4, "is_renting": "OUI", "is_returning": "OUI", "duedate": "2024-06-15T17:52:03+00:00", "coordonnees_geo": {"lon": 2.347382729482953, "lat": 48.82245594764965}, "nom_arrondissement_communes": "Paris", "code_insee_commune": null}, {"stationcode": "10021", "name": "March\u00e9 Saint-Quentin", "is_installed": "OUI", "capacity": 15, "numdocksavailable": 0, "numbikesavailable": 15, "mechanical": 8, "ebike": 7, "is_renting": "OUI", "is_returning": "OUI", "duedate": "2024-06-15T17:52:29+00:00", "coordonnees_geo": {"lon": 2.3545114456374, "lat": 48.877356057652}, "nom_arrondissement_communes": "Paris", "code_insee_commune": null}, {"stationcode": "41211", "name": "Louis Xavier de Ricard - Ancienne Mairie", "is_installed": "OUI", "capacity": 34, "numdocksavailable": 30, "numbikesavailable": 4, "mechanical": 0, "ebike": 4, "is_renting": "OUI", "is_returning": "OUI", "duedate": "2024-06-15T17:45:28+00:00", "coordonnees_geo": {"lon": 2.472420372068882, "lat": 48.84629899065091}, "nom_arrondissement_communes": "Fontenay-sous-Bois", "code_insee_commune": null}, {"stationcode": "44011", "name": "Lebrun - Colonel Fabien", "is_installed": "OUI", "capacity": 27, "numdocksavailable": 25, "numbikesavailable": 1, "mechanical": 1, "ebike": 0, "is_renting": "OUI", "is_returning": "OUI", "duedate": "2024-06-15T17:44:40+00:00", "coordonnees_geo": {"lon": 2.381317801773548, "lat": 48.78266870733145}, "nom_arrondissement_communes": "Vitry-sur-Seine", "code_insee_commune": null}, {"stationcode": "2108", "name": "Vivienne - Montmartre", "is_installed": "OUI", "capacity": 39, "numdocksavailable": 8, "numbikesavailable": 31, "mechanical": 22, "ebike": 9, "is_renting": "OUI", "is_returning": "OUI", "duedate": "2024-06-15T17:52:55+00:00", "coordonnees_geo": {"lon": 2.3414588347077, "lat": 48.871347597383}, "nom_arrondissement_communes": "Paris", "code_insee_commune": null}, {"stationcode": "12101", "name": "Charenton - Prague", "is_installed": "OUI", "capacity": 26, "numdocksavailable": 18, "numbikesavailable": 8, "mechanical": 8, "ebike": 0, "is_renting": "OUI", "is_returning": "OUI", "duedate": "2024-06-15T17:52:47+00:00", "coordonnees_geo": {"lon": 2.3763584494312, "lat": 48.848175129981}, "nom_arrondissement_communes": "Paris", "code_insee_commune": null}, {"stationcode": "21707", "name": "Square Etienne Jarousse", "is_installed": "OUI", "capacity": 25, "numdocksavailable": 18, "numbikesavailable": 7, "mechanical": 1, "ebike": 6, "is_renting": "OUI", "is_returning": "OUI", "duedate": "2024-06-15T17:52:55+00:00", "coordonnees_geo": {"lon": 2.2925933450460434, "lat": 48.82485182597129}, "nom_arrondissement_communes": "Vanves", "code_insee_commune": null}, {"stationcode": "4019", "name": "Clo\u00eetre Saint-Merri - Renard", "is_installed": "OUI", "capacity": 32, "numdocksavailable": 16, "numbikesavailable": 15, "mechanical": 13, "ebike": 2, "is_renting": "OUI", "is_returning": "OUI", "duedate": "2024-06-15T17:50:58+00:00", "coordonnees_geo": {"lon": 2.3518279194832, "lat": 48.858835448898}, "nom_arrondissement_communes": "Paris", "code_insee_commune": null}, {"stationcode": "5001", "name": "Harpe - Saint-Germain", "is_installed": "OUI", "capacity": 45, "numdocksavailable": 5, "numbikesavailable": 38, "mechanical": 22, "ebike": 16, "is_renting": "OUI", "is_returning": "OUI", "duedate": "2024-06-15T17:52:20+00:00", "coordonnees_geo": {"lon": 2.3436703160405, "lat": 48.851518815017}, "nom_arrondissement_communes": "Paris", "code_insee_commune": null}, {"stationcode": "15129", "name": "H\u00f4pital Necker", "is_installed": "OUI", "capacity": 40, "numdocksavailable": 34, "numbikesavailable": 6, "mechanical": 4, "ebike": 2, "is_renting": "OUI", "is_returning": "OUI", "duedate": "2024-06-15T17:52:47+00:00", "coordonnees_geo": {"lon": 2.313245013356209, "lat": 48.846043490118454}, "nom_arrondissement_communes": "Paris", "code_insee_commune": null}, {"stationcode": "3102", "name": "Bourg l'Abb\u00e9 - Saint-Martin", "is_installed": "OUI", "capacity": 42, "numdocksavailable": 3, "numbikesavailable": 38, "mechanical": 26, "ebike": 12, "is_renting": "OUI", "is_returning": "OUI", "duedate": "2024-06-15T17:53:07+00:00", "coordonnees_geo": {"lon": 2.352406270802021, "lat": 48.86393331949257}, "nom_arrondissement_communes": "Paris", "code_insee_commune": null}, {"stationcode": "20015", "name": "Bagnolet - Orteaux", "is_installed": "OUI", "capacity": 36, "numdocksavailable": 36, "numbikesavailable": 0, "mechanical": 0, "ebike": 0, "is_renting": "OUI", "is_returning": "OUI", "duedate": "2024-06-15T17:51:19+00:00", "coordonnees_geo": {"lon": 2.3984125256538396, "lat": 48.85708641027236}, "nom_arrondissement_communes": "Paris", "code_insee_commune": null}, {"stationcode": "51001", "name": "Gare d'Argenteuil", "is_installed": "OUI", "capacity": 40, "numdocksavailable": 25, "numbikesavailable": 15, "mechanical": 11, "ebike": 4, "is_renting": "OUI", "is_returning": "OUI", "duedate": "2024-06-15T17:47:43+00:00", "coordonnees_geo": {"lon": 2.256898172199726, "lat": 48.947022436806705}, "nom_arrondissement_communes": "Argenteuil", "code_insee_commune": null}, {"stationcode": "8027", "name": "Mairie du 8\u00e8me", "is_installed": "OUI", "capacity": 14, "numdocksavailable": 6, "numbikesavailable": 7, "mechanical": 3, "ebike": 4, "is_renting": "OUI", "is_returning": "OUI", "duedate": "2024-06-15T17:53:03+00:00", "coordonnees_geo": {"lon": 2.318264, "lat": 48.877932}, "nom_arrondissement_communes": "Paris", "code_insee_commune": null}, {"stationcode": "15039", "name": "Abb\u00e9 Groult - Convention", "is_installed": "OUI", "capacity": 12, "numdocksavailable": 8, "numbikesavailable": 4, "mechanical": 1, "ebike": 3, "is_renting": "OUI", "is_returning": "OUI", "duedate": "2024-06-15T17:52:27+00:00", "coordonnees_geo": {"lon": 2.302064039509349, "lat": 48.83596927866069}, "nom_arrondissement_communes": "Paris", "code_insee_commune": null}, {"stationcode": "6022", "name": "March\u00e9 Saint-Germain", "is_installed": "OUI", "capacity": 21, "numdocksavailable": 0, "numbikesavailable": 19, "mechanical": 15, "ebike": 4, "is_renting": "OUI", "is_returning": "OUI", "duedate": "2024-06-15T17:52:39+00:00", "coordonnees_geo": {"lon": 2.335500307381153, "lat": 48.85165625855281}, "nom_arrondissement_communes": "Paris", "code_insee_commune": null}, {"stationcode": "23102", "name": "H\u00f4tel de Ville de S\u00e8vres", "is_installed": "OUI", "capacity": 32, "numdocksavailable": 20, "numbikesavailable": 11, "mechanical": 7, "ebike": 4, "is_renting": "OUI", "is_returning": "OUI", "duedate": "2024-06-15T17:46:35+00:00", "coordonnees_geo": {"lon": 2.2131047397851944, "lat": 48.824363561288756}, "nom_arrondissement_communes": "S\u00e8vres", "code_insee_commune": null}, {"stationcode": "9007", "name": "Condorcet - Turgot", "is_installed": "OUI", "capacity": 20, "numdocksavailable": 16, "numbikesavailable": 4, "mechanical": 1, "ebike": 3, "is_renting": "OUI", "is_returning": "OUI", "duedate": "2024-06-15T17:52:18+00:00", "coordonnees_geo": {"lon": 2.345232367515564, "lat": 48.87985155789093}, "nom_arrondissement_communes": "Paris", "code_insee_commune": null}, {"stationcode": "17024", "name": "Villiers - Batignolles", "is_installed": "OUI", "capacity": 23, "numdocksavailable": 12, "numbikesavailable": 9, "mechanical": 7, "ebike": 2, "is_renting": "OUI", "is_returning": "OUI", "duedate": "2024-06-15T17:52:41+00:00", "coordonnees_geo": {"lon": 2.31653843075037, "lat": 48.88125253846116}, "nom_arrondissement_communes": "Paris", "code_insee_commune": null}, {"stationcode": "15127", "name": "Place Charles Michels", "is_installed": "OUI", "capacity": 37, "numdocksavailable": 29, "numbikesavailable": 7, "mechanical": 4, "ebike": 3, "is_renting": "OUI", "is_returning": "OUI", "duedate": "2024-06-15T17:52:10+00:00", "coordonnees_geo": {"lon": 2.28502, "lat": 48.846401}, "nom_arrondissement_communes": "Paris", "code_insee_commune": null}, {"stationcode": "41401", "name": "Marne - Charles de Gaulle", "is_installed": "OUI", "capacity": 27, "numdocksavailable": 8, "numbikesavailable": 19, "mechanical": 11, "ebike": 8, "is_renting": "OUI", "is_returning": "OUI", "duedate": "2024-06-15T17:51:45+00:00", "coordonnees_geo": {"lon": 2.4121668934822087, "lat": 48.815071719544434}, "nom_arrondissement_communes": "Alfortville", "code_insee_commune": null}, {"stationcode": "6002", "name": "Saint-Beno\u00eet - Jacob", "is_installed": "OUI", "capacity": 23, "numdocksavailable": 5, "numbikesavailable": 18, "mechanical": 16, "ebike": 2, "is_renting": "OUI", "is_returning": "OUI", "duedate": "2024-06-15T17:50:54+00:00", "coordonnees_geo": {"lon": 2.3334722220897675, "lat": 48.85545136013941}, "nom_arrondissement_communes": "Paris", "code_insee_commune": null}, {"stationcode": "14031", "name": "Didot - Place de Moro-Giafferi", "is_installed": "OUI", "capacity": 22, "numdocksavailable": 14, "numbikesavailable": 8, "mechanical": 3, "ebike": 5, "is_renting": "OUI", "is_returning": "OUI", "duedate": "2024-06-15T17:52:22+00:00", "coordonnees_geo": {"lon": 2.3215, "lat": 48.8337}, "nom_arrondissement_communes": "Paris", "code_insee_commune": null}, {"stationcode": "20044", "name": "Davout - Volga", "is_installed": "OUI", "capacity": 28, "numdocksavailable": 25, "numbikesavailable": 2, "mechanical": 1, "ebike": 1, "is_renting": "OUI", "is_returning": "OUI", "duedate": "2024-06-15T17:53:10+00:00", "coordonnees_geo": {"lon": 2.410522909779111, "lat": 48.852919679957296}, "nom_arrondissement_communes": "Paris", "code_insee_commune": null}, {"stationcode": "33012", "name": "Landy - Heurtault", "is_installed": "OUI", "capacity": 30, "numdocksavailable": 23, "numbikesavailable": 6, "mechanical": 4, "ebike": 2, "is_renting": "OUI", "is_returning": "OUI", "duedate": "2024-06-15T17:51:53+00:00", "coordonnees_geo": {"lon": 2.375951372087002, "lat": 48.915096534520316}, "nom_arrondissement_communes": "Aubervilliers", "code_insee_commune": null}, {"stationcode": "10019", "name": "Paradis - Hauteville", "is_installed": "OUI", "capacity": 31, "numdocksavailable": 2, "numbikesavailable": 28, "mechanical": 20, "ebike": 8, "is_renting": "OUI", "is_returning": "OUI", "duedate": "2024-06-15T17:52:36+00:00", "coordonnees_geo": {"lon": 2.3522757401923404, "lat": 48.874999954666755}, "nom_arrondissement_communes": "Paris", "code_insee_commune": null}, {"stationcode": "11033", "name": "Br\u00e9guet - Sabin", "is_installed": "OUI", "capacity": 33, "numdocksavailable": 7, "numbikesavailable": 24, "mechanical": 12, "ebike": 12, "is_renting": "OUI", "is_returning": "OUI", "duedate": "2024-06-15T17:48:14+00:00", "coordonnees_geo": {"lon": 2.3706749462105, "lat": 48.856931678257}, "nom_arrondissement_communes": "Paris", "code_insee_commune": null}, {"stationcode": "41203", "name": "Stalingrad - Rigollots", "is_installed": "OUI", "capacity": 51, "numdocksavailable": 49, "numbikesavailable": 2, "mechanical": 1, "ebike": 1, "is_renting": "OUI", "is_returning": "OUI", "duedate": "2024-06-15T17:51:08+00:00", "coordonnees_geo": {"lon": 2.45557576417923, "lat": 48.84997403844251}, "nom_arrondissement_communes": "Fontenay-sous-Bois", "code_insee_commune": null}, {"stationcode": "16005", "name": "Raymond Poincar\u00e9 - Place Victor Hugo", "is_installed": "OUI", "capacity": 25, "numdocksavailable": 19, "numbikesavailable": 6, "mechanical": 1, "ebike": 5, "is_renting": "OUI", "is_returning": "OUI", "duedate": "2024-06-15T17:51:07+00:00", "coordonnees_geo": {"lon": 2.285074541420228, "lat": 48.870306124369975}, "nom_arrondissement_communes": "Paris", "code_insee_commune": null}, {"stationcode": "5007", "name": "Ecoles - Carmes", "is_installed": "OUI", "capacity": 36, "numdocksavailable": 17, "numbikesavailable": 19, "mechanical": 19, "ebike": 0, "is_renting": "OUI", "is_returning": "OUI", "duedate": "2024-06-15T17:51:36+00:00", "coordonnees_geo": {"lon": 2.3473486304283147, "lat": 48.848904447989405}, "nom_arrondissement_communes": "Paris", "code_insee_commune": null}, {"stationcode": "20022", "name": "Porte de Bagnolet", "is_installed": "OUI", "capacity": 33, "numdocksavailable": 29, "numbikesavailable": 3, "mechanical": 1, "ebike": 2, "is_renting": "OUI", "is_returning": "OUI", "duedate": "2024-06-15T17:50:49+00:00", "coordonnees_geo": {"lon": 2.408344637349607, "lat": 48.864707139122984}, "nom_arrondissement_communes": "Paris", "code_insee_commune": null}, {"stationcode": "16105", "name": "Crevaux - Bugeaud", "is_installed": "OUI", "capacity": 31, "numdocksavailable": 27, "numbikesavailable": 3, "mechanical": 0, "ebike": 3, "is_renting": "OUI", "is_returning": "OUI", "duedate": "2024-06-15T17:50:01+00:00", "coordonnees_geo": {"lon": 2.281149007691853, "lat": 48.870809428669546}, "nom_arrondissement_communes": "Paris", "code_insee_commune": null}, {"stationcode": "10008", "name": "Cit\u00e9 Riverin - Ch\u00e2teau d'Eau", "is_installed": "OUI", "capacity": 18, "numdocksavailable": 1, "numbikesavailable": 16, "mechanical": 14, "ebike": 2, "is_renting": "OUI", "is_returning": "OUI", "duedate": "2024-06-15T17:51:40+00:00", "coordonnees_geo": {"lon": 2.358739863900845, "lat": 48.870702423554306}, "nom_arrondissement_communes": "Paris", "code_insee_commune": null}, {"stationcode": "16036", "name": "Porte Molitor", "is_installed": "OUI", "capacity": 60, "numdocksavailable": 34, "numbikesavailable": 21, "mechanical": 17, "ebike": 4, "is_renting": "OUI", "is_returning": "OUI", "duedate": "2024-06-15T17:53:09+00:00", "coordonnees_geo": {"lon": 2.2569015249609947, "lat": 48.84524763511433}, "nom_arrondissement_communes": "Paris", "code_insee_commune": null}, {"stationcode": "12015", "name": "Place de la Nation - Picpus", "is_installed": "OUI", "capacity": 36, "numdocksavailable": 35, "numbikesavailable": 1, "mechanical": 0, "ebike": 1, "is_renting": "OUI", "is_returning": "OUI", "duedate": "2024-06-15T17:51:19+00:00", "coordonnees_geo": {"lon": 2.4001130461693, "lat": 48.846821681548}, "nom_arrondissement_communes": "Paris", "code_insee_commune": null}, {"stationcode": "48004", "name": "Maxime Gorki - Louis Aragon", "is_installed": "OUI", "capacity": 20, "numdocksavailable": 18, "numbikesavailable": 1, "mechanical": 0, "ebike": 1, "is_renting": "OUI", "is_returning": "OUI", "duedate": "2024-06-15T17:44:37+00:00", "coordonnees_geo": {"lon": 2.368387877941132, "lat": 48.78909814728443}, "nom_arrondissement_communes": "Villejuif", "code_insee_commune": null}, {"stationcode": "14001", "name": "Edgar Quinet - Gait\u00e9", "is_installed": "OUI", "capacity": 27, "numdocksavailable": 10, "numbikesavailable": 14, "mechanical": 8, "ebike": 6, "is_renting": "OUI", "is_returning": "OUI", "duedate": "2024-06-15T17:53:03+00:00", "coordonnees_geo": {"lon": 2.324595451355, "lat": 48.841160928966}, "nom_arrondissement_communes": "Paris", "code_insee_commune": null}, {"stationcode": "18139", "name": "Poissonniers - Championnet", "is_installed": "OUI", "capacity": 28, "numdocksavailable": 22, "numbikesavailable": 5, "mechanical": 2, "ebike": 3, "is_renting": "OUI", "is_returning": "OUI", "duedate": "2024-06-15T17:49:20+00:00", "coordonnees_geo": {"lon": 2.3530178144574165, "lat": 48.89543299733937}, "nom_arrondissement_communes": "Paris", "code_insee_commune": null}, {"stationcode": "15008", "name": "S\u00e8vres - Lecourbe", "is_installed": "OUI", "capacity": 62, "numdocksavailable": 40, "numbikesavailable": 19, "mechanical": 15, "ebike": 4, "is_renting": "OUI", "is_returning": "OUI", "duedate": "2024-06-15T17:53:08+00:00", "coordonnees_geo": {"lon": 2.3110086, "lat": 48.8447677}, "nom_arrondissement_communes": "Paris", "code_insee_commune": null}, {"stationcode": "11112", "name": "Jules Vall\u00e8s - Charonne", "is_installed": "OUI", "capacity": 23, "numdocksavailable": 20, "numbikesavailable": 2, "mechanical": 1, "ebike": 1, "is_renting": "OUI", "is_returning": "OUI", "duedate": "2024-06-15T17:51:49+00:00", "coordonnees_geo": {"lon": 2.384767457842827, "lat": 48.85428437993525}, "nom_arrondissement_communes": "Paris", "code_insee_commune": null}, {"stationcode": "22201", "name": "Henri Ravera - Gabriel P\u00e9ri", "is_installed": "OUI", "capacity": 30, "numdocksavailable": 26, "numbikesavailable": 4, "mechanical": 2, "ebike": 2, "is_renting": "OUI", "is_returning": "OUI", "duedate": "2024-06-15T17:50:38+00:00", "coordonnees_geo": {"lon": 2.302115857601166, "lat": 48.79722273833844}, "nom_arrondissement_communes": "Bagneux", "code_insee_commune": null}, {"stationcode": "17009", "name": "Paul Bodin - Clichy", "is_installed": "OUI", "capacity": 0, "numdocksavailable": 0, "numbikesavailable": 0, "mechanical": 0, "ebike": 0, "is_renting": "NON", "is_returning": "NON", "duedate": "2024-06-15T17:48:08+00:00", "coordonnees_geo": {"lon": 2.317142598331, "lat": 48.892396146189}, "nom_arrondissement_communes": "Paris", "code_insee_commune": null}, {"stationcode": "6010", "name": "Chevreuse - Montparnasse", "is_installed": "OUI", "capacity": 15, "numdocksavailable": 7, "numbikesavailable": 8, "mechanical": 6, "ebike": 2, "is_renting": "OUI", "is_returning": "OUI", "duedate": "2024-06-15T17:51:35+00:00", "coordonnees_geo": {"lon": 2.3315522167367, "lat": 48.841739161231}, "nom_arrondissement_communes": "Paris", "code_insee_commune": null}, {"stationcode": "5015", "name": "Ep\u00e9e de Bois - Mouffetard", "is_installed": "OUI", "capacity": 63, "numdocksavailable": 30, "numbikesavailable": 32, "mechanical": 22, "ebike": 10, "is_renting": "OUI", "is_returning": "OUI", "duedate": "2024-06-15T17:52:03+00:00", "coordonnees_geo": {"lon": 2.350066713988781, "lat": 48.841508690388835}, "nom_arrondissement_communes": "Paris", "code_insee_commune": null}, {"stationcode": "15128", "name": "Cadix - Hameau", "is_installed": "OUI", "capacity": 37, "numdocksavailable": 0, "numbikesavailable": 36, "mechanical": 28, "ebike": 8, "is_renting": "OUI", "is_returning": "OUI", "duedate": "2024-06-15T17:53:08+00:00", "coordonnees_geo": {"lon": 2.289516180753708, "lat": 48.8340107632249}, "nom_arrondissement_communes": "Paris", "code_insee_commune": null}, {"stationcode": "44014", "name": "Camille Risch - Paul Armangot", "is_installed": "OUI", "capacity": 25, "numdocksavailable": 22, "numbikesavailable": 3, "mechanical": 0, "ebike": 3, "is_renting": "OUI", "is_returning": "OUI", "duedate": "2024-06-15T17:52:41+00:00", "coordonnees_geo": {"lon": 2.373685, "lat": 48.774703}, "nom_arrondissement_communes": "Vitry-sur-Seine", "code_insee_commune": null}, {"stationcode": "12037", "name": "Reuilly - Daumesnil", "is_installed": "OUI", "capacity": 36, "numdocksavailable": 32, "numbikesavailable": 2, "mechanical": 1, "ebike": 1, "is_renting": "OUI", "is_returning": "OUI", "duedate": "2024-06-15T17:51:32+00:00", "coordonnees_geo": {"lon": 2.3972516, "lat": 48.8395385}, "nom_arrondissement_communes": "Paris", "code_insee_commune": null}, {"stationcode": "16037", "name": "Molitor - Michel-Ange", "is_installed": "OUI", "capacity": 51, "numdocksavailable": 40, "numbikesavailable": 10, "mechanical": 6, "ebike": 4, "is_renting": "OUI", "is_returning": "OUI", "duedate": "2024-06-15T17:50:18+00:00", "coordonnees_geo": {"lon": 2.26211277356597, "lat": 48.845182081538034}, "nom_arrondissement_communes": "Paris", "code_insee_commune": null}, {"stationcode": "47003", "name": "Charentonneau - Maisons Alfort", "is_installed": "OUI", "capacity": 20, "numdocksavailable": 7, "numbikesavailable": 13, "mechanical": 9, "ebike": 4, "is_renting": "OUI", "is_returning": "OUI", "duedate": "2024-06-15T17:52:29+00:00", "coordonnees_geo": {"lon": 2.443288456496946, "lat": 48.809932980484355}, "nom_arrondissement_communes": "Maisons-Alfort", "code_insee_commune": null}, {"stationcode": "20034", "name": "Sorbier - M\u00e9nilmontant", "is_installed": "OUI", "capacity": 24, "numdocksavailable": 11, "numbikesavailable": 12, "mechanical": 5, "ebike": 7, "is_renting": "OUI", "is_returning": "OUI", "duedate": "2024-06-15T17:51:25+00:00", "coordonnees_geo": {"lon": 2.3897721245884895, "lat": 48.86854239566069}, "nom_arrondissement_communes": "Paris", "code_insee_commune": null}, {"stationcode": "7012", "name": "Cit\u00e9 Vaneau", "is_installed": "OUI", "capacity": 26, "numdocksavailable": 14, "numbikesavailable": 12, "mechanical": 8, "ebike": 4, "is_renting": "OUI", "is_returning": "OUI", "duedate": "2024-06-15T17:51:28+00:00", "coordonnees_geo": {"lon": 2.319614924490452, "lat": 48.8542210666207}, "nom_arrondissement_communes": "Paris", "code_insee_commune": null}, {"stationcode": "20001", "name": "Place de la Nation - Charonne", "is_installed": "OUI", "capacity": 36, "numdocksavailable": 32, "numbikesavailable": 3, "mechanical": 2, "ebike": 1, "is_renting": "OUI", "is_returning": "OUI", "duedate": "2024-06-15T17:52:43+00:00", "coordonnees_geo": {"lon": 2.3997623859813, "lat": 48.848364667777}, "nom_arrondissement_communes": "Paris", "code_insee_commune": null}, {"stationcode": "18034", "name": "Leibniz - Jean Dollfus", "is_installed": "OUI", "capacity": 32, "numdocksavailable": 27, "numbikesavailable": 5, "mechanical": 3, "ebike": 2, "is_renting": "OUI", "is_returning": "OUI", "duedate": "2024-06-15T17:53:12+00:00", "coordonnees_geo": {"lon": 2.333390423834684, "lat": 48.896328348515986}, "nom_arrondissement_communes": "Paris", "code_insee_commune": null}, {"stationcode": "16102", "name": "Pergol\u00e8se - Marbeau", "is_installed": "OUI", "capacity": 27, "numdocksavailable": 24, "numbikesavailable": 3, "mechanical": 1, "ebike": 2, "is_renting": "OUI", "is_returning": "OUI", "duedate": "2024-06-15T17:49:58+00:00", "coordonnees_geo": {"lon": 2.281512522529856, "lat": 48.87356870686902}, "nom_arrondissement_communes": "Paris", "code_insee_commune": null}, {"stationcode": "21309", "name": "Mairie d'Issy", "is_installed": "OUI", "capacity": 41, "numdocksavailable": 9, "numbikesavailable": 32, "mechanical": 24, "ebike": 8, "is_renting": "OUI", "is_returning": "OUI", "duedate": "2024-06-15T17:52:05+00:00", "coordonnees_geo": {"lon": 2.27231115102768, "lat": 48.8237677924683}, "nom_arrondissement_communes": "Issy-les-Moulineaux", "code_insee_commune": null}, {"stationcode": "8110", "name": "Gare Saint-Lazare - Stockholm", "is_installed": "OUI", "capacity": 32, "numdocksavailable": 30, "numbikesavailable": 2, "mechanical": 0, "ebike": 2, "is_renting": "OUI", "is_returning": "OUI", "duedate": "2024-06-15T17:45:44+00:00", "coordonnees_geo": {"lon": 2.322417162358761, "lat": 48.877127316667654}, "nom_arrondissement_communes": "Paris", "code_insee_commune": null}, {"stationcode": "3010", "name": "Beaubourg - Michel-le-Comte", "is_installed": "OUI", "capacity": 17, "numdocksavailable": 1, "numbikesavailable": 16, "mechanical": 13, "ebike": 3, "is_renting": "OUI", "is_returning": "OUI", "duedate": "2024-06-15T17:52:20+00:00", "coordonnees_geo": {"lon": 2.3543103039265, "lat": 48.862534941806}, "nom_arrondissement_communes": "Paris", "code_insee_commune": null}, {"stationcode": "18140", "name": "Porte de Clignancourt - Ney", "is_installed": "OUI", "capacity": 40, "numdocksavailable": 33, "numbikesavailable": 7, "mechanical": 2, "ebike": 5, "is_renting": "OUI", "is_returning": "OUI", "duedate": "2024-06-15T17:53:03+00:00", "coordonnees_geo": {"lon": 2.344321422278881, "lat": 48.899641123987095}, "nom_arrondissement_communes": "Paris", "code_insee_commune": null}]