[{"stationcode": "13128", "name": "Quai de la Gare - Pont de Bercy", "is_installed": "OUI", "capacity": 30, "numdocksavailable": 1, "numbikesavailable": 26, "mechanical": 14, "ebike": 12, "is_renting": "OUI", "is_returning": "OUI", "duedate": "2024-06-14T13:44:55+00:00", "coordonnees_geo": {"lon": 2.3740861260598, "lat": 48.83730787972}, "nom_arrondissement_communes": "Paris", "code_insee_commune": null}, {"stationcode": "23003", "name": "Pr\u00e9sident Wilson - Baudin", "is_installed": "OUI", "capacity": 28, "numdocksavailable": 19, "numbikesavailable": 9, "mechanical": 4, "ebike": 5, "is_renting": "OUI", "is_returning": "OUI", "duedate": "2024-06-14T13:49:33+00:00", "coordonnees_geo": {"lon": 2.2849336266517644, "lat": 48.89826887103676}, "nom_arrondissement_communes": "Levallois-Perret", "code_insee_commune": null}, {"stationcode": "14010", "name": "Jean Moulin - Place Victor et H\u00e9l\u00e8ne Basch", "is_installed": "OUI", "capacity": 41, "numdocksavailable": 36, "numbikesavailable": 4, "mechanical": 0, "ebike": 4, "is_renting": "OUI", "is_returning": "OUI", "duedate": "2024-06-14T13:49:22+00:00", "coordonnees_geo": {"lon": 2.3261967301369, "lat": 48.82764910241}, "nom_arrondissement_communes": "Paris", "code_insee_commune": null}, {"stationcode": "17023", "name": "Porte d'Asni\u00e8res", "is_installed": "OUI", "capacity": 36, "numdocksavailable": 31, "numbikesavailable": 3, "mechanical": 1, "ebike": 2, "is_renting": "OUI", "is_returning": "OUI", "duedate": "2024-06-14T13:49:45+00:00", "coordonnees_geo": {"lon": 2.3036286234855656, "lat": 48.89035817610495}, "nom_arrondissement_communes": "Paris", "code_insee_commune": null}, {"stationcode": "19108", "name": "Gaston Tessier - Rosa Parks RER", "is_installed": "OUI", "capacity": 37, "numdocksavailable": 17, "numbikesavailable": 19, "mechanical": 6, "ebike": 13, "is_renting": "OUI", "is_returning": "OUI", "duedate": "2024-06-14T13:48:36+00:00", "coordonnees_geo": {"lon": 2.3743692, "lat": 48.8963765}, "nom_arrondissement_communes": "Paris", "code_insee_commune": null}, {"stationcode": "4016", "name": "Lobau - H\u00f4tel de Ville", "is_installed": "OUI", "capacity": 60, "numdocksavailable": 3, "numbikesavailable": 55, "mechanical": 47, "ebike": 8, "is_renting": "OUI", "is_returning": "OUI", "duedate": "2024-06-14T13:49:54+00:00", "coordonnees_geo": {"lon": 2.3532536, "lat": 48.8562118}, "nom_arrondissement_communes": "Paris", "code_insee_commune": null}, {"stationcode": "42501", "name": "Raspail - Albert Schweitzer", "is_installed": "OUI", "capacity": 28, "numdocksavailable": 18, "numbikesavailable": 10, "mechanical": 9, "ebike": 1, "is_renting": "OUI", "is_returning": "OUI", "duedate": "2024-06-14T13:46:36+00:00", "coordonnees_geo": {"lon": 2.34395871, "lat": 48.81031545}, "nom_arrondissement_communes": "Gentilly", "code_insee_commune": null}, {"stationcode": "21204", "name": "Estienne d'Orves - Henri Ginoux", "is_installed": "OUI", "capacity": 31, "numdocksavailable": 29, "numbikesavailable": 1, "mechanical": 0, "ebike": 1, "is_renting": "OUI", "is_returning": "OUI", "duedate": "2024-06-14T13:45:54+00:00", "coordonnees_geo": {"lon": 2.320886790760933, "lat": 48.815388220397274}, "nom_arrondissement_communes": "Montrouge", "code_insee_commune": null}, {"stationcode": "22206", "name": "Louis Pasteur - Albert Petit", "is_installed": "OUI", "capacity": 31, "numdocksavailable": 30, "numbikesavailable": 1, "mechanical": 0, "ebike": 1, "is_renting": "OUI", "is_returning": "OUI", "duedate": "2024-06-14T13:48:07+00:00", "coordonnees_geo": {"lon": 2.317289, "lat": 48.796261}, "nom_arrondissement_communes": "Bagneux", "code_insee_commune": null}, {"stationcode": "11021", "name": "Charonne - Pierre Bayle", "is_installed": "OUI", "capacity": 23, "numdocksavailable": 19, "numbikesavailable": 3, "mechanical": 1, "ebike": 2, "is_renting": "OUI", "is_returning": "OUI", "duedate": "2024-06-14T13:48:44+00:00", "coordonnees_geo": {"lon": 2.3903981223891, "lat": 48.858445054262}, "nom_arrondissement_communes": "Paris", "code_insee_commune": null}, {"stationcode": "21217", "name": "Louis Rolland - R\u00e9publique", "is_installed": "OUI", "capacity": 26, "numdocksavailable": 24, "numbikesavailable": 2, "mechanical": 1, "ebike": 1, "is_renting": "OUI", "is_returning": "OUI", "duedate": "2024-06-14T13:49:38+00:00", "coordonnees_geo": {"lon": 2.3193106434955717, "lat": 48.81710889740748}, "nom_arrondissement_communes": "Montrouge", "code_insee_commune": null}, {"stationcode": "15030", "name": "Emeriau - Beaugrenelle", "is_installed": "OUI", "capacity": 74, "numdocksavailable": 1, "numbikesavailable": 72, "mechanical": 63, "ebike": 9, "is_renting": "OUI", "is_returning": "OUI", "duedate": "2024-06-14T13:48:59+00:00", "coordonnees_geo": {"lon": 2.2843059897422795, "lat": 48.84791249714942}, "nom_arrondissement_communes": "Paris", "code_insee_commune": null}, {"stationcode": "16011", "name": "Victor Hugo - La Pompe", "is_installed": "OUI", "capacity": 41, "numdocksavailable": 37, "numbikesavailable": 4, "mechanical": 0, "ebike": 4, "is_renting": "OUI", "is_returning": "OUI", "duedate": "2024-06-14T13:49:23+00:00", "coordonnees_geo": {"lon": 2.28146318346262, "lat": 48.86795222470859}, "nom_arrondissement_communes": "Paris", "code_insee_commune": null}, {"stationcode": "12007", "name": "Gare de Lyon - Chalon", "is_installed": "OUI", "capacity": 45, "numdocksavailable": 0, "numbikesavailable": 45, "mechanical": 39, "ebike": 6, "is_renting": "OUI", "is_returning": "OUI", "duedate": "2024-06-14T13:49:38+00:00", "coordonnees_geo": {"lon": 2.3741452395916, "lat": 48.845666194202}, "nom_arrondissement_communes": "Paris", "code_insee_commune": null}, {"stationcode": "25001", "name": "Colmar - Victor Hugo", "is_installed": "OUI", "capacity": 32, "numdocksavailable": 21, "numbikesavailable": 9, "mechanical": 5, "ebike": 4, "is_renting": "OUI", "is_returning": "OUI", "duedate": "2024-06-14T13:49:14+00:00", "coordonnees_geo": {"lon": 2.173960916697979, "lat": 48.88652251096166}, "nom_arrondissement_communes": "Rueil-Malmaison", "code_insee_commune": null}, {"stationcode": "35007", "name": "Benjamin Delessert - Jean Lolive", "is_installed": "OUI", "capacity": 21, "numdocksavailable": 20, "numbikesavailable": 1, "mechanical": 1, "ebike": 0, "is_renting": "OUI", "is_returning": "OUI", "duedate": "2024-06-14T13:49:19+00:00", "coordonnees_geo": {"lon": 2.417981922626496, "lat": 48.89392043619345}, "nom_arrondissement_communes": "Pantin", "code_insee_commune": null}, {"stationcode": "44101", "name": "Place Mongolfier", "is_installed": "OUI", "capacity": 39, "numdocksavailable": 3, "numbikesavailable": 36, "mechanical": 33, "ebike": 3, "is_renting": "OUI", "is_returning": "OUI", "duedate": "2024-06-14T13:49:48+00:00", "coordonnees_geo": {"lon": 2.4592879414558415, "lat": 48.815160030060376}, "nom_arrondissement_communes": "Saint-Maurice", "code_insee_commune": null}, {"stationcode": "21306", "name": "Place Lafayette", "is_installed": "OUI", "capacity": 62, "numdocksavailable": 34, "numbikesavailable": 28, "mechanical": 22, "ebike": 6, "is_renting": "OUI", "is_returning": "OUI", "duedate": "2024-06-14T13:49:18+00:00", "coordonnees_geo": {"lon": 2.2638675570488, "lat": 48.829654975522}, "nom_arrondissement_communes": "Issy-les-Moulineaux", "code_insee_commune": null}, {"stationcode": "17107", "name": "Berthier - Place Stuart Merril", "is_installed": "OUI", "capacity": 37, "numdocksavailable": 27, "numbikesavailable": 10, "mechanical": 9, "ebike": 1, "is_renting": "OUI", "is_returning": "OUI", "duedate": "2024-06-14T13:45:54+00:00", "coordonnees_geo": {"lon": 2.2933450341224675, "lat": 48.885927922355044}, "nom_arrondissement_communes": "Paris", "code_insee_commune": null}, {"stationcode": "15057", "name": "Lucien Bossoutrot - G\u00e9n\u00e9ral Martial Vallin", "is_installed": "OUI", "capacity": 39, "numdocksavailable": 15, "numbikesavailable": 24, "mechanical": 15, "ebike": 9, "is_renting": "OUI", "is_returning": "OUI", "duedate": "2024-06-14T13:45:40+00:00", "coordonnees_geo": {"lon": 2.2741072252393, "lat": 48.836956046311}, "nom_arrondissement_communes": "Paris", "code_insee_commune": null}, {"stationcode": "23010", "name": "Voltaire - Anatole France", "is_installed": "OUI", "capacity": 27, "numdocksavailable": 15, "numbikesavailable": 12, "mechanical": 12, "ebike": 0, "is_renting": "OUI", "is_returning": "OUI", "duedate": "2024-06-14T13:47:14+00:00", "coordonnees_geo": {"lon": 2.284262739121914, "lat": 48.891999360256904}, "nom_arrondissement_communes": "Levallois-Perret", "code_insee_commune": null}, {"stationcode": "6027", "name": "Blaise-Desgoffe - Vaugirard", "is_installed": "OUI", "capacity": 32, "numdocksavailable": 29, "numbikesavailable": 2, "mechanical": 1, "ebike": 1, "is_renting": "OUI", "is_returning": "OUI", "duedate": "2024-06-14T13:46:48+00:00", "coordonnees_geo": {"lon": 2.3242672160268, "lat": 48.846128877747}, "nom_arrondissement_communes": "Paris", "code_insee_commune": null}, {"stationcode": "18007", "name": "Goutte d'or - Barb\u00e8s", "is_installed": "OUI", "capacity": 20, "numdocksavailable": 17, "numbikesavailable": 2, "mechanical": 0, "ebike": 2, "is_renting": "OUI", "is_returning": "OUI", "duedate": "2024-06-14T13:48:47+00:00", "coordonnees_geo": {"lon": 2.3496962338686, "lat": 48.885124323627}, "nom_arrondissement_communes": "Paris", "code_insee_commune": null}, {"stationcode": "19128", "name": "Quai de l'Oise - Aisne", "is_installed": "OUI", "capacity": 30, "numdocksavailable": 18, "numbikesavailable": 12, "mechanical": 1, "ebike": 11, "is_renting": "OUI", "is_returning": "OUI", "duedate": "2024-06-14T13:47:22+00:00", "coordonnees_geo": {"lon": 2.3833701, "lat": 48.8906231}, "nom_arrondissement_communes": "Paris", "code_insee_commune": null}, {"stationcode": "21401", "name": "Mairie de Clamart", "is_installed": "OUI", "capacity": 33, "numdocksavailable": 24, "numbikesavailable": 8, "mechanical": 0, "ebike": 8, "is_renting": "OUI", "is_returning": "OUI", "duedate": "2024-06-14T13:44:07+00:00", "coordonnees_geo": {"lon": 2.262151, "lat": 48.800612}, "nom_arrondissement_communes": "Clamart", "code_insee_commune": null}, {"stationcode": "9027", "name": "Douai - Pierre Fontaine", "is_installed": "OUI", "capacity": 25, "numdocksavailable": 24, "numbikesavailable": 1, "mechanical": 0, "ebike": 1, "is_renting": "OUI", "is_returning": "OUI", "duedate": "2024-06-14T13:42:41+00:00", "coordonnees_geo": {"lon": 2.33324121683836, "lat": 48.88229101148092}, "nom_arrondissement_communes": "Paris", "code_insee_commune": null}, {"stationcode": "17108", "name": "Bessi\u00e8res - Porte de Clichy", "is_installed": "OUI", "capacity": 33, "numdocksavailable": 21, "numbikesavailable": 12, "mechanical": 9, "ebike": 3, "is_renting": "OUI", "is_returning": "OUI", "duedate": "2024-06-14T13:49:49+00:00", "coordonnees_geo": {"lon": 2.31790903955698, "lat": 48.89611762451474}, "nom_arrondissement_communes": "Paris", "code_insee_commune": null}, {"stationcode": "15022", "name": "Emile Zola - Fondary", "is_installed": "OUI", "capacity": 42, "numdocksavailable": 6, "numbikesavailable": 6, "mechanical": 4, "ebike": 2, "is_renting": "OUI", "is_returning": "OUI", "duedate": "2024-06-14T13:48:58+00:00", "coordonnees_geo": {"lon": 2.2953405976295476, "lat": 48.847051143113745}, "nom_arrondissement_communes": "Paris", "code_insee_commune": null}, {"stationcode": "5012", "name": "Estrapade - Ulm", "is_installed": "OUI", "capacity": 16, "numdocksavailable": 9, "numbikesavailable": 5, "mechanical": 0, "ebike": 5, "is_renting": "OUI", "is_returning": "OUI", "duedate": "2024-06-14T13:50:04+00:00", "coordonnees_geo": {"lon": 2.3454568170362, "lat": 48.84512772828}, "nom_arrondissement_communes": "Paris", "code_insee_commune": null}, {"stationcode": "8037", "name": "Monceau - Malesherbes", "is_installed": "OUI", "capacity": 38, "numdocksavailable": 29, "numbikesavailable": 8, "mechanical": 6, "ebike": 2, "is_renting": "OUI", "is_returning": "OUI", "duedate": "2024-06-14T13:49:03+00:00", "coordonnees_geo": {"lon": 2.3145456, "lat": 48.8795079}, "nom_arrondissement_communes": "Paris", "code_insee_commune": null}, {"stationcode": "7017", "name": "La Motte-Picquet - La Tour Maubourg", "is_installed": "OUI", "capacity": 40, "numdocksavailable": 9, "numbikesavailable": 29, "mechanical": 25, "ebike": 4, "is_renting": "OUI", "is_returning": "OUI", "duedate": "2024-06-14T13:49:48+00:00", "coordonnees_geo": {"lon": 2.3096215831203, "lat": 48.856926701847}, "nom_arrondissement_communes": "Paris", "code_insee_commune": null}, {"stationcode": "41205", "name": "Mar\u00e9chal Joffre - Verdun", "is_installed": "OUI", "capacity": 20, "numdocksavailable": 19, "numbikesavailable": 1, "mechanical": 0, "ebike": 1, "is_renting": "OUI", "is_returning": "OUI", "duedate": "2024-06-14T13:50:02+00:00", "coordonnees_geo": {"lon": 2.470307, "lat": 48.85385}, "nom_arrondissement_communes": "Fontenay-sous-Bois", "code_insee_commune": null}, {"stationcode": "12018", "name": "Saint-Mand\u00e9 - Fabre d'Eglantine", "is_installed": "OUI", "capacity": 34, "numdocksavailable": 13, "numbikesavailable": 21, "mechanical": 6, "ebike": 15, "is_renting": "OUI", "is_returning": "OUI", "duedate": "2024-06-14T13:48:12+00:00", "coordonnees_geo": {"lon": 2.3965022, "lat": 48.8453579}, "nom_arrondissement_communes": "Paris", "code_insee_commune": null}, {"stationcode": "44016", "name": "Balzac - Olympes de Gouges", "is_installed": "OUI", "capacity": 28, "numdocksavailable": 5, "numbikesavailable": 21, "mechanical": 8, "ebike": 13, "is_renting": "OUI", "is_returning": "OUI", "duedate": "2024-06-14T13:47:09+00:00", "coordonnees_geo": {"lon": 2.4006786569952965, "lat": 48.77850332486751}, "nom_arrondissement_communes": "Vitry-sur-Seine", "code_insee_commune": null}, {"stationcode": "44005", "name": "Place Saint-Just", "is_installed": "OUI", "capacity": 22, "numdocksavailable": 16, "numbikesavailable": 6, "mechanical": 1, "ebike": 5, "is_renting": "OUI", "is_returning": "OUI", "duedate": "2024-06-14T13:47:55+00:00", "coordonnees_geo": {"lon": 2.3895226791501045, "lat": 48.790379518724265}, "nom_arrondissement_communes": "Vitry-sur-Seine", "code_insee_commune": null}, {"stationcode": "17119", "name": "Toqueville - Cardinet", "is_installed": "OUI", "capacity": 33, "numdocksavailable": 32, "numbikesavailable": 1, "mechanical": 0, "ebike": 1, "is_renting": "OUI", "is_returning": "OUI", "duedate": "2024-06-14T13:50:02+00:00", "coordonnees_geo": {"lon": 2.3109393194317818, "lat": 48.88490187110713}, "nom_arrondissement_communes": "Paris", "code_insee_commune": null}, {"stationcode": "9004", "name": "G\u00e9rando - Rochechouart", "is_installed": "OUI", "capacity": 21, "numdocksavailable": 17, "numbikesavailable": 1, "mechanical": 0, "ebike": 1, "is_renting": "OUI", "is_returning": "OUI", "duedate": "2024-06-14T13:48:11+00:00", "coordonnees_geo": {"lon": 2.3464846238494, "lat": 48.88294340845}, "nom_arrondissement_communes": "Paris", "code_insee_commune": null}, {"stationcode": "51002", "name": "Placette Gr\u00e9goire Collas", "is_installed": "OUI", "capacity": 25, "numdocksavailable": 22, "numbikesavailable": 3, "mechanical": 2, "ebike": 1, "is_renting": "OUI", "is_returning": "OUI", "duedate": "2024-06-14T13:49:59+00:00", "coordonnees_geo": {"lon": 2.2487476095557213, "lat": 48.94342014002797}, "nom_arrondissement_communes": "Argenteuil", "code_insee_commune": null}, {"stationcode": "4021", "name": "Centre Georges Pompidou", "is_installed": "OUI", "capacity": 26, "numdocksavailable": 3, "numbikesavailable": 23, "mechanical": 4, "ebike": 19, "is_renting": "OUI", "is_returning": "OUI", "duedate": "2024-06-14T13:50:00+00:00", "coordonnees_geo": {"lon": 2.352581, "lat": 48.861419}, "nom_arrondissement_communes": "Paris", "code_insee_commune": null}, {"stationcode": "15102", "name": "Square Bela Bartok", "is_installed": "OUI", "capacity": 24, "numdocksavailable": 0, "numbikesavailable": 23, "mechanical": 21, "ebike": 2, "is_renting": "OUI", "is_returning": "OUI", "duedate": "2024-06-14T13:47:08+00:00", "coordonnees_geo": {"lon": 2.2846536710858345, "lat": 48.85120156830401}, "nom_arrondissement_communes": "Paris", "code_insee_commune": null}, {"stationcode": "33016", "name": "Fort d'Aubervilliers", "is_installed": "OUI", "capacity": 22, "numdocksavailable": 8, "numbikesavailable": 13, "mechanical": 9, "ebike": 4, "is_renting": "OUI", "is_returning": "OUI", "duedate": "2024-06-14T13:50:06+00:00", "coordonnees_geo": {"lon": 2.4035281687974925, "lat": 48.91502382370325}, "nom_arrondissement_communes": "Aubervilliers", "code_insee_commune": null}, {"stationcode": "13009", "name": "Auguste Blanqui - Corvisart", "is_installed": "OUI", "capacity": 26, "numdocksavailable": 25, "numbikesavailable": 1, "mechanical": 1, "ebike": 0, "is_renting": "OUI", "is_returning": "OUI", "duedate": "2024-06-14T13:45:15+00:00", "coordonnees_geo": {"lon": 2.3502726, "lat": 48.8300989}, "nom_arrondissement_communes": "Paris", "code_insee_commune": null}, {"stationcode": "15071", "name": "Suffren - Champ de Mars", "is_installed": "OUI", "capacity": 23, "numdocksavailable": 18, "numbikesavailable": 4, "mechanical": 3, "ebike": 1, "is_renting": "OUI", "is_returning": "OUI", "duedate": "2024-06-14T13:47:33+00:00", "coordonnees_geo": {"lon": 2.2952168, "lat": 48.8547194}, "nom_arrondissement_communes": "Paris", "code_insee_commune": null}, {"stationcode": "9024", "name": "Taitbout - La Fayette", "is_installed": "OUI", "capacity": 53, "numdocksavailable": 18, "numbikesavailable": 34, "mechanical": 21, "ebike": 13, "is_renting": "OUI", "is_returning": "OUI", "duedate": "2024-06-14T13:49:49+00:00", "coordonnees_geo": {"lon": 2.3352625966072, "lat": 48.8733298892}, "nom_arrondissement_communes": "Paris", "code_insee_commune": null}, {"stationcode": "8201", "name": "Ars\u00e8ne Houssaye - Friedland", "is_installed": "OUI", "capacity": 29, "numdocksavailable": 24, "numbikesavailable": 5, "mechanical": 2, "ebike": 3, "is_renting": "OUI", "is_returning": "OUI", "duedate": "2024-06-14T13:48:32+00:00", "coordonnees_geo": {"lon": 2.2994716674148, "lat": 48.874510616163}, "nom_arrondissement_communes": "Paris", "code_insee_commune": null}, {"stationcode": "9102", "name": "Londres - Place d'Estienne d'Orves", "is_installed": "OUI", "capacity": 25, "numdocksavailable": 15, "numbikesavailable": 9, "mechanical": 6, "ebike": 3, "is_renting": "OUI", "is_returning": "OUI", "duedate": "2024-06-14T13:48:25+00:00", "coordonnees_geo": {"lon": 2.3305362090468407, "lat": 48.876693805756986}, "nom_arrondissement_communes": "Paris", "code_insee_commune": null}, {"stationcode": "18030", "name": "Joseph Dijon - Ornano", "is_installed": "OUI", "capacity": 37, "numdocksavailable": 31, "numbikesavailable": 5, "mechanical": 4, "ebike": 1, "is_renting": "OUI", "is_returning": "OUI", "duedate": "2024-06-14T13:45:50+00:00", "coordonnees_geo": {"lon": 2.3476678133010864, "lat": 48.89374453351521}, "nom_arrondissement_communes": "Paris", "code_insee_commune": null}, {"stationcode": "12155", "name": "Rottembourg - G\u00e9n\u00e9ral Michel Bizot", "is_installed": "OUI", "capacity": 43, "numdocksavailable": 21, "numbikesavailable": 21, "mechanical": 17, "ebike": 4, "is_renting": "OUI", "is_returning": "OUI", "duedate": "2024-06-14T13:48:59+00:00", "coordonnees_geo": {"lon": 2.4044052511453633, "lat": 48.83787825992554}, "nom_arrondissement_communes": "Paris", "code_insee_commune": null}, {"stationcode": "9011", "name": "Geoffroy - Marie", "is_installed": "OUI", "capacity": 20, "numdocksavailable": 5, "numbikesavailable": 15, "mechanical": 4, "ebike": 11, "is_renting": "OUI", "is_returning": "OUI", "duedate": "2024-06-14T13:46:16+00:00", "coordonnees_geo": {"lon": 2.344513876337893, "lat": 48.873781940593325}, "nom_arrondissement_communes": "Paris", "code_insee_commune": null}, {"stationcode": "13025", "name": "Place de Rungis", "is_installed": "OUI", "capacity": 32, "numdocksavailable": 19, "numbikesavailable": 10, "mechanical": 4, "ebike": 6, "is_renting": "OUI", "is_returning": "OUI", "duedate": "2024-06-14T13:43:18+00:00", "coordonnees_geo": {"lon": 2.347382729482953, "lat": 48.82245594764965}, "nom_arrondissement_communes": "Paris", "code_insee_commune": null}, {"stationcode": "10021", "name": "March\u00e9 Saint-Quentin", "is_installed": "OUI", "capacity": 15, "numdocksavailable": 11, "numbikesavailable": 4, "mechanical": 0, "ebike": 4, "is_renting": "OUI", "is_returning": "OUI", "duedate": "2024-06-14T13:46:14+00:00", "coordonnees_geo": {"lon": 2.3545114456374, "lat": 48.877356057652}, "nom_arrondissement_communes": "Paris", "code_insee_commune": null}, {"stationcode": "5115", "name": "Buffon - Jardin des Plantes", "is_installed": "OUI", "capacity": 30, "numdocksavailable": 0, "numbikesavailable": 29, "mechanical": 25, "ebike": 4, "is_renting": "OUI", "is_returning": "OUI", "duedate": "2024-06-14T13:49:28+00:00", "coordonnees_geo": {"lon": 2.3618587106466293, "lat": 48.842668466104875}, "nom_arrondissement_communes": "Paris", "code_insee_commune": null}, {"stationcode": "44011", "name": "Lebrun - Colonel Fabien", "is_installed": "OUI", "capacity": 27, "numdocksavailable": 26, "numbikesavailable": 1, "mechanical": 0, "ebike": 1, "is_renting": "OUI", "is_returning": "OUI", "duedate": "2024-06-14T13:45:10+00:00", "coordonnees_geo": {"lon": 2.381317801773548, "lat": 48.78266870733145}, "nom_arrondissement_communes": "Vitry-sur-Seine", "code_insee_commune": null}, {"stationcode": "12101", "name": "Charenton - Prague", "is_installed": "OUI", "capacity": 26, "numdocksavailable": 11, "numbikesavailable": 15, "mechanical": 13, "ebike": 2, "is_renting": "OUI", "is_returning": "OUI", "duedate": "2024-06-14T13:49:24+00:00", "coordonnees_geo": {"lon": 2.3763584494312, "lat": 48.848175129981}, "nom_arrondissement_communes": "Paris", "code_insee_commune": null}, {"stationcode": "21707", "name": "Square Etienne Jarousse", "is_installed": "OUI", "capacity": 25, "numdocksavailable": 24, "numbikesavailable": 1, "mechanical": 0, "ebike": 1, "is_renting": "OUI", "is_returning": "OUI", "duedate": "2024-06-14T13:46:01+00:00", "coordonnees_geo": {"lon": 2.2925933450460434, "lat": 48.82485182597129}, "nom_arrondissement_communes": "Vanves", "code_insee_commune": null}, {"stationcode": "4019", "name": "Clo\u00eetre Saint-Merri - Renard", "is_installed": "OUI", "capacity": 32, "numdocksavailable": 0, "numbikesavailable": 31, "mechanical": 21, "ebike": 10, "is_renting": "OUI", "is_returning": "OUI", "duedate": "2024-06-14T13:48:53+00:00", "coordonnees_geo": {"lon": 2.3518279194832, "lat": 48.858835448898}, "nom_arrondissement_communes": "Paris", "code_insee_commune": null}, {"stationcode": "3102", "name": "Bourg l'Abb\u00e9 - Saint-Martin", "is_installed": "OUI", "capacity": 42, "numdocksavailable": 3, "numbikesavailable": 37, "mechanical": 27, "ebike": 10, "is_renting": "OUI", "is_returning": "OUI", "duedate": "2024-06-14T13:49:39+00:00", "coordonnees_geo": {"lon": 2.352406270802021, "lat": 48.86393331949257}, "nom_arrondissement_communes": "Paris", "code_insee_commune": null}, {"stationcode": "20015", "name": "Bagnolet - Orteaux", "is_installed": "OUI", "capacity": 36, "numdocksavailable": 32, "numbikesavailable": 4, "mechanical": 3, "ebike": 1, "is_renting": "OUI", "is_returning": "OUI", "duedate": "2024-06-14T13:49:49+00:00", "coordonnees_geo": {"lon": 2.3984125256538396, "lat": 48.85708641027236}, "nom_arrondissement_communes": "Paris", "code_insee_commune": null}, {"stationcode": "51001", "name": "Gare d'Argenteuil", "is_installed": "OUI", "capacity": 40, "numdocksavailable": 26, "numbikesavailable": 14, "mechanical": 12, "ebike": 2, "is_renting": "OUI", "is_returning": "OUI", "duedate": "2024-06-14T13:44:53+00:00", "coordonnees_geo": {"lon": 2.256898172199726, "lat": 48.947022436806705}, "nom_arrondissement_communes": "Argenteuil", "code_insee_commune": null}, {"stationcode": "15039", "name": "Abb\u00e9 Groult - Convention", "is_installed": "OUI", "capacity": 12, "numdocksavailable": 10, "numbikesavailable": 3, "mechanical": 2, "ebike": 1, "is_renting": "OUI", "is_returning": "OUI", "duedate": "2024-06-14T13:49:54+00:00", "coordonnees_geo": {"lon": 2.302064039509349, "lat": 48.83596927866069}, "nom_arrondissement_communes": "Paris", "code_insee_commune": null}, {"stationcode": "21315", "name": "Jules Guesdes - G\u00e9n\u00e9ral de Gaulle", "is_installed": "OUI", "capacity": 24, "numdocksavailable": 18, "numbikesavailable": 5, "mechanical": 3, "ebike": 2, "is_renting": "OUI", "is_returning": "OUI", "duedate": "2024-06-14T13:43:18+00:00", "coordonnees_geo": {"lon": 2.278934195637703, "lat": 48.81930581291959}, "nom_arrondissement_communes": "Issy-les-Moulineaux", "code_insee_commune": null}, {"stationcode": "2112", "name": "Biblioth\u00e8que Nationale - Richelieu", "is_installed": "OUI", "capacity": 17, "numdocksavailable": 0, "numbikesavailable": 17, "mechanical": 11, "ebike": 6, "is_renting": "OUI", "is_returning": "OUI", "duedate": "2024-06-14T13:41:31+00:00", "coordonnees_geo": {"lon": 2.3380893096328, "lat": 48.868288993515}, "nom_arrondissement_communes": "Paris", "code_insee_commune": null}, {"stationcode": "15006", "name": "Cherche-Midi - H\u00f4pital Necker", "is_installed": "OUI", "capacity": 38, "numdocksavailable": 23, "numbikesavailable": 15, "mechanical": 9, "ebike": 6, "is_renting": "OUI", "is_returning": "OUI", "duedate": "2024-06-14T13:45:09+00:00", "coordonnees_geo": {"lon": 2.317914068698883, "lat": 48.84461063309956}, "nom_arrondissement_communes": "Paris", "code_insee_commune": null}, {"stationcode": "21402", "name": "Place Aim\u00e9 C\u00e9saire", "is_installed": "OUI", "capacity": 27, "numdocksavailable": 27, "numbikesavailable": 0, "mechanical": 0, "ebike": 0, "is_renting": "OUI", "is_returning": "OUI", "duedate": "2024-06-14T13:47:46+00:00", "coordonnees_geo": {"lon": 2.2429127991199493, "lat": 48.783194713067815}, "nom_arrondissement_communes": "Clamart", "code_insee_commune": null}, {"stationcode": "13018", "name": "Bruant - Vincent Auriol", "is_installed": "OUI", "capacity": 25, "numdocksavailable": 2, "numbikesavailable": 22, "mechanical": 15, "ebike": 7, "is_renting": "OUI", "is_returning": "OUI", "duedate": "2024-06-14T13:49:36+00:00", "coordonnees_geo": {"lon": 2.3668264996271, "lat": 48.834848452929}, "nom_arrondissement_communes": "Paris", "code_insee_commune": null}, {"stationcode": "21303", "name": "Jean Monnet - Iles", "is_installed": "OUI", "capacity": 32, "numdocksavailable": 16, "numbikesavailable": 15, "mechanical": 12, "ebike": 3, "is_renting": "OUI", "is_returning": "OUI", "duedate": "2024-06-14T13:47:53+00:00", "coordonnees_geo": {"lon": 2.2497073194874866, "lat": 48.823393984057304}, "nom_arrondissement_communes": "Issy-les-Moulineaux", "code_insee_commune": null}, {"stationcode": "9007", "name": "Condorcet - Turgot", "is_installed": "OUI", "capacity": 20, "numdocksavailable": 12, "numbikesavailable": 7, "mechanical": 2, "ebike": 5, "is_renting": "OUI", "is_returning": "OUI", "duedate": "2024-06-14T13:48:10+00:00", "coordonnees_geo": {"lon": 2.345232367515564, "lat": 48.87985155789093}, "nom_arrondissement_communes": "Paris", "code_insee_commune": null}, {"stationcode": "13052", "name": "Leredde - Tolbiac", "is_installed": "OUI", "capacity": 44, "numdocksavailable": 3, "numbikesavailable": 41, "mechanical": 34, "ebike": 7, "is_renting": "OUI", "is_returning": "OUI", "duedate": "2024-06-14T13:45:10+00:00", "coordonnees_geo": {"lon": 2.3744382709265, "lat": 48.82887629664}, "nom_arrondissement_communes": "Paris", "code_insee_commune": null}, {"stationcode": "15127", "name": "Place Charles Michels", "is_installed": "OUI", "capacity": 37, "numdocksavailable": 1, "numbikesavailable": 36, "mechanical": 35, "ebike": 1, "is_renting": "OUI", "is_returning": "OUI", "duedate": "2024-06-14T13:49:11+00:00", "coordonnees_geo": {"lon": 2.28502, "lat": 48.846401}, "nom_arrondissement_communes": "Paris", "code_insee_commune": null}, {"stationcode": "15036", "name": "Croix Nivert - Square Saint-Lambert", "is_installed": "OUI", "capacity": 47, "numdocksavailable": 4, "numbikesavailable": 42, "mechanical": 42, "ebike": 0, "is_renting": "OUI", "is_returning": "OUI", "duedate": "2024-06-14T13:48:44+00:00", "coordonnees_geo": {"lon": 2.295200452208519, "lat": 48.8430515215905}, "nom_arrondissement_communes": "Paris", "code_insee_commune": null}, {"stationcode": "41401", "name": "Marne - Charles de Gaulle", "is_installed": "OUI", "capacity": 27, "numdocksavailable": 16, "numbikesavailable": 10, "mechanical": 7, "ebike": 3, "is_renting": "OUI", "is_returning": "OUI", "duedate": "2024-06-14T13:46:20+00:00", "coordonnees_geo": {"lon": 2.4121668934822087, "lat": 48.815071719544434}, "nom_arrondissement_communes": "Alfortville", "code_insee_commune": null}, {"stationcode": "14031", "name": "Didot - Place de Moro-Giafferi", "is_installed": "OUI", "capacity": 22, "numdocksavailable": 19, "numbikesavailable": 3, "mechanical": 0, "ebike": 3, "is_renting": "OUI", "is_returning": "OUI", "duedate": "2024-06-14T13:47:07+00:00", "coordonnees_geo": {"lon": 2.3215, "lat": 48.8337}, "nom_arrondissement_communes": "Paris", "code_insee_commune": null}, {"stationcode": "16019", "name": "Porte de la Muette", "is_installed": "OUI", "capacity": 36, "numdocksavailable": 17, "numbikesavailable": 18, "mechanical": 2, "ebike": 16, "is_renting": "OUI", "is_returning": "OUI", "duedate": "2024-06-14T13:50:02+00:00", "coordonnees_geo": {"lon": 2.2687188170157406, "lat": 48.86302317841182}, "nom_arrondissement_communes": "Paris", "code_insee_commune": null}, {"stationcode": "33012", "name": "Landy - Heurtault", "is_installed": "OUI", "capacity": 30, "numdocksavailable": 24, "numbikesavailable": 5, "mechanical": 3, "ebike": 2, "is_renting": "OUI", "is_returning": "OUI", "duedate": "2024-06-14T13:49:14+00:00", "coordonnees_geo": {"lon": 2.375951372087002, "lat": 48.915096534520316}, "nom_arrondissement_communes": "Aubervilliers", "code_insee_commune": null}, {"stationcode": "41203", "name": "Stalingrad - Rigollots", "is_installed": "OUI", "capacity": 51, "numdocksavailable": 49, "numbikesavailable": 2, "mechanical": 1, "ebike": 1, "is_renting": "OUI", "is_returning": "OUI", "duedate": "2024-06-14T13:50:03+00:00", "coordonnees_geo": {"lon": 2.45557576417923, "lat": 48.84997403844251}, "nom_arrondissement_communes": "Fontenay-sous-Bois", "code_insee_commune": null}, {"stationcode": "10033", "name": "Gare du Nord - Saint-Vincent de Paul", "is_installed": "OUI", "capacity": 24, "numdocksavailable": 19, "numbikesavailable": 4, "mechanical": 1, "ebike": 3, "is_renting": "OUI", "is_returning": "OUI", "duedate": "2024-06-14T13:49:31+00:00", "coordonnees_geo": {"lon": 2.3524305148385, "lat": 48.880955741648}, "nom_arrondissement_communes": "Paris", "code_insee_commune": null}, {"stationcode": "10024", "name": "Buisson Saint-Louis - Saint-Maur", "is_installed": "OUI", "capacity": 19, "numdocksavailable": 15, "numbikesavailable": 3, "mechanical": 1, "ebike": 2, "is_renting": "OUI", "is_returning": "OUI", "duedate": "2024-06-14T13:49:24+00:00", "coordonnees_geo": {"lon": 2.372252832879, "lat": 48.871746849303}, "nom_arrondissement_communes": "Paris", "code_insee_commune": null}, {"stationcode": "18039", "name": "Jardins d'Eole", "is_installed": "OUI", "capacity": 20, "numdocksavailable": 17, "numbikesavailable": 3, "mechanical": 0, "ebike": 3, "is_renting": "OUI", "is_returning": "OUI", "duedate": "2024-06-14T13:46:29+00:00", "coordonnees_geo": {"lon": 2.3668488, "lat": 48.8869703}, "nom_arrondissement_communes": "Paris", "code_insee_commune": null}, {"stationcode": "12036", "name": "Reuilly - Place Felix Eboue", "is_installed": "OUI", "capacity": 42, "numdocksavailable": 21, "numbikesavailable": 21, "mechanical": 13, "ebike": 8, "is_renting": "OUI", "is_returning": "OUI", "duedate": "2024-06-14T13:48:43+00:00", "coordonnees_geo": {"lon": 2.394630398715453, "lat": 48.84030274499962}, "nom_arrondissement_communes": "Paris", "code_insee_commune": null}, {"stationcode": "14026", "name": "Plantes - Moulin Vert", "is_installed": "OUI", "capacity": 45, "numdocksavailable": 37, "numbikesavailable": 4, "mechanical": 2, "ebike": 2, "is_renting": "OUI", "is_returning": "OUI", "duedate": "2024-06-14T13:50:01+00:00", "coordonnees_geo": {"lon": 2.3232302069664006, "lat": 48.83005755305626}, "nom_arrondissement_communes": "Paris", "code_insee_commune": null}, {"stationcode": "16105", "name": "Crevaux - Bugeaud", "is_installed": "OUI", "capacity": 31, "numdocksavailable": 27, "numbikesavailable": 3, "mechanical": 1, "ebike": 2, "is_renting": "OUI", "is_returning": "OUI", "duedate": "2024-06-14T13:44:42+00:00", "coordonnees_geo": {"lon": 2.281149007691853, "lat": 48.870809428669546}, "nom_arrondissement_communes": "Paris", "code_insee_commune": null}, {"stationcode": "16012", "name": "Flandrin - Longchamp", "is_installed": "OUI", "capacity": 42, "numdocksavailable": 38, "numbikesavailable": 4, "mechanical": 0, "ebike": 4, "is_renting": "OUI", "is_returning": "OUI", "duedate": "2024-06-14T13:43:33+00:00", "coordonnees_geo": {"lon": 2.274354539176829, "lat": 48.86877849178477}, "nom_arrondissement_communes": "Paris", "code_insee_commune": null}, {"stationcode": "16036", "name": "Porte Molitor", "is_installed": "OUI", "capacity": 60, "numdocksavailable": 20, "numbikesavailable": 38, "mechanical": 29, "ebike": 9, "is_renting": "OUI", "is_returning": "OUI", "duedate": "2024-06-14T13:47:55+00:00", "coordonnees_geo": {"lon": 2.2569015249609947, "lat": 48.84524763511433}, "nom_arrondissement_communes": "Paris", "code_insee_commune": null}, {"stationcode": "42505", "name": "Charles Fr\u00e9rot - Albert Guilpin", "is_installed": "OUI", "capacity": 30, "numdocksavailable": 14, "numbikesavailable": 15, "mechanical": 12, "ebike": 3, "is_renting": "OUI", "is_returning": "OUI", "duedate": "2024-06-14T13:49:18+00:00", "coordonnees_geo": {"lon": 2.3505029082298283, "lat": 48.8155839183714}, "nom_arrondissement_communes": "Gentilly", "code_insee_commune": null}, {"stationcode": "10032", "name": "Claude Vellefaux - H\u00f4pital Saint-Louis", "is_installed": "OUI", "capacity": 32, "numdocksavailable": 28, "numbikesavailable": 1, "mechanical": 0, "ebike": 1, "is_renting": "OUI", "is_returning": "OUI", "duedate": "2024-06-14T13:47:28+00:00", "coordonnees_geo": {"lon": 2.3700717069851, "lat": 48.872859139003}, "nom_arrondissement_communes": "Paris", "code_insee_commune": null}, {"stationcode": "12015", "name": "Place de la Nation - Picpus", "is_installed": "OUI", "capacity": 36, "numdocksavailable": 34, "numbikesavailable": 2, "mechanical": 0, "ebike": 2, "is_renting": "OUI", "is_returning": "OUI", "duedate": "2024-06-14T13:50:06+00:00", "coordonnees_geo": {"lon": 2.4001130461693, "lat": 48.846821681548}, "nom_arrondissement_communes": "Paris", "code_insee_commune": null}, {"stationcode": "14001", "name": "Edgar Quinet - Gait\u00e9", "is_installed": "OUI", "capacity": 27, "numdocksavailable": 8, "numbikesavailable": 18, "mechanical": 6, "ebike": 12, "is_renting": "OUI", "is_returning": "OUI", "duedate": "2024-06-14T13:48:18+00:00", "coordonnees_geo": {"lon": 2.324595451355, "lat": 48.841160928966}, "nom_arrondissement_communes": "Paris", "code_insee_commune": null}, {"stationcode": "26004", "name": "Gare RER les Gr\u00e9sillons", "is_installed": "OUI", "capacity": 22, "numdocksavailable": 17, "numbikesavailable": 2, "mechanical": 1, "ebike": 1, "is_renting": "OUI", "is_returning": "OUI", "duedate": "2024-06-14T13:48:04+00:00", "coordonnees_geo": {"lon": 2.31458459136273, "lat": 48.919898633572764}, "nom_arrondissement_communes": "Asni\u00e8res-sur-Seine", "code_insee_commune": null}, {"stationcode": "18139", "name": "Poissonniers - Championnet", "is_installed": "OUI", "capacity": 28, "numdocksavailable": 21, "numbikesavailable": 6, "mechanical": 3, "ebike": 3, "is_renting": "OUI", "is_returning": "OUI", "duedate": "2024-06-14T13:48:16+00:00", "coordonnees_geo": {"lon": 2.3530178144574165, "lat": 48.89543299733937}, "nom_arrondissement_communes": "Paris", "code_insee_commune": null}, {"stationcode": "15001", "name": "Gare Montparnasse - Arriv\u00e9e", "is_installed": "OUI", "capacity": 43, "numdocksavailable": 2, "numbikesavailable": 40, "mechanical": 29, "ebike": 11, "is_renting": "OUI", "is_returning": "OUI", "duedate": "2024-06-14T13:49:55+00:00", "coordonnees_geo": {"lon": 2.3225811123848, "lat": 48.843827994315}, "nom_arrondissement_communes": "Paris", "code_insee_commune": null}, {"stationcode": "15008", "name": "S\u00e8vres - Lecourbe", "is_installed": "OUI", "capacity": 62, "numdocksavailable": 32, "numbikesavailable": 29, "mechanical": 25, "ebike": 4, "is_renting": "OUI", "is_returning": "OUI", "duedate": "2024-06-14T13:49:37+00:00", "coordonnees_geo": {"lon": 2.3110086, "lat": 48.8447677}, "nom_arrondissement_communes": "Paris", "code_insee_commune": null}, {"stationcode": "11112", "name": "Jules Vall\u00e8s - Charonne", "is_installed": "OUI", "capacity": 23, "numdocksavailable": 14, "numbikesavailable": 7, "mechanical": 3, "ebike": 4, "is_renting": "OUI", "is_returning": "OUI", "duedate": "2024-06-14T13:48:11+00:00", "coordonnees_geo": {"lon": 2.384767457842827, "lat": 48.85428437993525}, "nom_arrondissement_communes": "Paris", "code_insee_commune": null}, {"stationcode": "18202", "name": "Diane Arbus", "is_installed": "OUI", "capacity": 38, "numdocksavailable": 30, "numbikesavailable": 7, "mechanical": 2, "ebike": 5, "is_renting": "OUI", "is_returning": "OUI", "duedate": "2024-06-14T13:50:02+00:00", "coordonnees_geo": {"lon": 2.3524022474885, "lat": 48.898800717199}, "nom_arrondissement_communes": "Paris", "code_insee_commune": null}, {"stationcode": "5015", "name": "Ep\u00e9e de Bois - Mouffetard", "is_installed": "OUI", "capacity": 63, "numdocksavailable": 34, "numbikesavailable": 28, "mechanical": 13, "ebike": 15, "is_renting": "OUI", "is_returning": "OUI", "duedate": "2024-06-14T13:49:56+00:00", "coordonnees_geo": {"lon": 2.350066713988781, "lat": 48.841508690388835}, "nom_arrondissement_communes": "Paris", "code_insee_commune": null}, {"stationcode": "44014", "name": "Camille Risch - Paul Armangot", "is_installed": "OUI", "capacity": 25, "numdocksavailable": 21, "numbikesavailable": 4, "mechanical": 0, "ebike": 4, "is_renting": "OUI", "is_returning": "OUI", "duedate": "2024-06-14T13:49:57+00:00", "coordonnees_geo": {"lon": 2.373685, "lat": 48.774703}, "nom_arrondissement_communes": "Vitry-sur-Seine", "code_insee_commune": null}, {"stationcode": "12037", "name": "Reuilly - Daumesnil", "is_installed": "OUI", "capacity": 36, "numdocksavailable": 32, "numbikesavailable": 4, "mechanical": 2, "ebike": 2, "is_renting": "OUI", "is_returning": "OUI", "duedate": "2024-06-14T13:49:10+00:00", "coordonnees_geo": {"lon": 2.3972516, "lat": 48.8395385}, "nom_arrondissement_communes": "Paris", "code_insee_commune": null}, {"stationcode": "1007", "name": "Turbigo - Fran\u00e7aise", "is_installed": "OUI", "capacity": 16, "numdocksavailable": 2, "numbikesavailable": 13, "mechanical": 6, "ebike": 7, "is_renting": "OUI", "is_returning": "OUI", "duedate": "2024-06-14T13:48:05+00:00", "coordonnees_geo": {"lon": 2.3477794602513313, "lat": 48.86358858111446}, "nom_arrondissement_communes": "Paris", "code_insee_commune": null}, {"stationcode": "16037", "name": "Molitor - Michel-Ange", "is_installed": "OUI", "capacity": 51, "numdocksavailable": 42, "numbikesavailable": 8, "mechanical": 6, "ebike": 2, "is_renting": "OUI", "is_returning": "OUI", "duedate": "2024-06-14T13:49:25+00:00", "coordonnees_geo": {"lon": 2.26211277356597, "lat": 48.845182081538034}, "nom_arrondissement_communes": "Paris", "code_insee_commune": null}, {"stationcode": "18004", "name": "Place des Abbesses", "is_installed": "OUI", "capacity": 12, "numdocksavailable": 8, "numbikesavailable": 4, "mechanical": 0, "ebike": 4, "is_renting": "OUI", "is_returning": "OUI", "duedate": "2024-06-14T13:49:01+00:00", "coordonnees_geo": {"lon": 2.3386867716908455, "lat": 48.884542726149725}, "nom_arrondissement_communes": "Paris", "code_insee_commune": null}, {"stationcode": "20034", "name": "Sorbier - M\u00e9nilmontant", "is_installed": "OUI", "capacity": 24, "numdocksavailable": 18, "numbikesavailable": 5, "mechanical": 0, "ebike": 5, "is_renting": "OUI", "is_returning": "OUI", "duedate": "2024-06-14T13:49:48+00:00", "coordonnees_geo": {"lon": 2.3897721245884895, "lat": 48.86854239566069}, "nom_arrondissement_communes": "Paris", "code_insee_commune": null}]